     2.11           OBSERVATION DATA    M (MIXED)           RINEX VERSION / TYPE
EFT-CORS.RU                             20210817 144816 UTC PGM / RUN BY / DATE 
MDNG                                                        MARKER NAME         
                                                            MARKER NUMBER       
MDNG                EFT-CORS.RU                             OBSERVER / AGENCY   
0                   TRIMBLE BD970       2.0                 REC # / TYPE / VERS 
0                   UNKNOWN EXT NONE                        ANT # / TYPE        
  3463911.2830  3030468.2400  4402179.3760                  APPROX POSITION XYZ 
        0.0000        0.0000        0.0000                  ANTENNA: DELTA H/E/N
     1     1                                                WAVELENGTH FACT L1/2
     6    C1    L1    P2    L2    C2    P1                  # / TYPES OF OBSERV 
    10.000                                                  INTERVAL            
  2021     8    16     5    30    0.0000000     GPS         TIME OF FIRST OBS   
  2021     8    16     6    30    0.0000000     GPS         TIME OF LAST OBS    
     0                                                      RCV CLOCK OFFS APPL 
                                                            END OF HEADER       
 21  8 16  5 30  0.0000000  0 14G26R 3R 4G20R19G29R10G18R 9R20G 5G31
                                G23G25
  22304372.961   117210282.248    22304382.078    91332725.2394   22304382.078  
                
  22347535.484   119628132.206                    93044106.505    22347540.211  
  22347533.828  
  22074429.578   118207589.282                    91939250.560    22074433.426  
  22074428.848  
  23125689.438   121526304.649    23125695.094    94695866.5004                 
                
  20434985.797   109313435.128                    85021546.723    20434989.391  
  20434983.566  
  20522849.609   107848316.750    20522856.027    84037677.9804   20522856.230  
                
  20452516.672   109023425.763                                                  
  20452515.980  
  21015031.266   110434768.944    21015037.820    86053084.5154   21015037.977  
                
  20876199.242   111477723.683                    86704896.398    20876202.449  
  20876198.559  
  20428136.344   109238442.947                    84963257.168    20428142.590  
  20428135.312  
  21420742.250   112566778.898    21420748.453    87714415.2764   21420748.625  
                
  23926672.531   125735502.324    23926679.188    97975729.6474   23926679.551  
                
  24359617.820   128010663.319    24359625.648    99748598.0914   24359625.699  
                
  22255984.680   116955999.618    22255994.488    91134571.4584   22255995.039  
                
 21  8 16  5 30 10.0000000  0 14G26R 3R 4G20R19G29R10G18R 9R20G 5G31
                                G23G25
  22300063.234   117187634.510    22300072.387    91315077.6534   22300072.379  
                
  22348460.984   119633086.460                    93047959.808    22348465.715  
  22348459.379  
  22069121.406   118179164.202                    91917142.167    22069125.238  
  22069120.703  
  23130295.031   121550507.248    23130300.719    94714725.6574                 
                
  20438540.930   109332452.743                    85036338.202    20438544.543  
  20438538.727  
  20523795.492   107853287.331    20523801.930    84041551.1554   20523802.113  
                
  20451879.945   109020031.634                                                  
  20451879.254  
  21011395.867   110415664.771    21011402.434    86038198.1494   21011402.578  
                
  20882302.234   111510313.180                    86730243.769    20882305.422  
  20882301.559  
  20425284.125   109223190.898                    84951394.479    20425290.363  
  20425283.094  
  21421438.477   112570437.611    21421444.664    87717266.2224   21421444.855  
                
  23930923.148   125757839.552    23930929.816    97993135.2554   23930930.164  
                
  24352375.898   127972606.715    24352383.656    99718943.5964   24352383.727  
                
  22262262.188   116988988.075    22262271.957    91160276.7424   22262272.523  
                
 21  8 16  5 30 20.0000000  0 14G26R 3R 4G20R19G29R10G18R 9R20G 5G31
                                G23G25
  22295762.430   117165033.588    22295771.613    91297466.5464   22295771.590  
                
  22349402.609   119638126.991                    93051880.222    22349407.324  
  22349401.047  
  22063824.117   118150797.257                    91895078.991    22063827.906  
  22063823.414  
  23134909.234   121574755.080    23134914.977    94733620.0574                 
                
  20442100.852   109351495.835                    85051149.494    20442104.469  
  20442098.652  
  20524748.250   107858294.072    20524754.711    84045452.5034   20524754.883  
                
  20451260.430   109016729.253                                                  
  20451259.742  
  21007768.422   110396602.438    21007774.984    86023344.3804   21007775.133  
                
  20888416.289   111542961.761                    86755637.100    20888419.473  
  20888415.605  
  20422438.461   109207973.779                    84939558.928    20422444.695  
  20422437.410  
  21422148.211   112574167.240    21422154.371    87720172.4114   21422154.586  
                
  23935180.516   125780212.271    23935187.184    98010568.5254   23935187.535  
                
  24345134.750   127934554.175    24345142.445    99689292.2804   24345142.535  
                
  22268545.797   117022008.586    22268555.500    91186006.9994   22268556.094  
                
 21  8 16  5 30 30.0000000  0 14G26R 3R 4G20R19G29R10G18R 9R20G 5G31
                                G23G25
  22291470.484   117142479.329    22291479.691    91279891.8124   22291479.664  
                
  22350360.336   119643253.733                    93055867.682    22350365.062  
  22350358.805  
  22058537.570   118122488.049                    91873060.745    22058541.352  
  22058536.848  
  23139531.992   121599047.820    23139537.758    94752549.4654                 
                
  20445665.461   109370564.046                    85065980.335    20445669.098  
  20445663.250  
  20525707.844   107863336.741    20525714.328    84049381.8544   20525714.484  
                
  20450658.148   109013518.698                                                  
  20450657.477  
  21004148.906   110377581.749    21004155.469    86008523.0744   21004155.617  
                
  20894541.352   111575669.208                    86781076.214    20894544.551  
  20894540.688  
  20419599.281   109192791.419                    84927750.443    20419605.520  
  20419598.227  
  21422871.359   112577967.414    21422877.484    87723133.5794   21422877.727  
                
  23939444.531   125802620.096    23939451.254    98028029.1474   23939451.625  
                
  24337894.398   127896505.575    24337901.965    99659644.0284   24337902.082  
                
  22274835.461   117055060.874    22274845.113    91211762.0214   22274845.723  
                
 21  8 16  5 30 40.0000000  0 14G26R 3R 4G20R19G29R10G18R 9R20G 5G31
                                G23G25
  22287187.477   117119972.026    22287196.703    91262353.6544   22287196.672  
                
  22351334.203   119648466.924                    93059922.381    22351338.930  
  22351332.723  
  22053261.914   118094237.320                    91851087.968    22053265.699  
  22053261.184  
  23144163.320   121623385.637    23144169.098    94771513.9974                 
                
  20449234.789   109389657.542                    85080830.830    20449238.426  
  20449232.574  
  20526674.289   107868415.481    20526680.797    84053339.3064   20526680.926  
                
  20450073.047   109010399.784                                                  
  20450072.375  
  21000537.344   110358602.895    21000543.902    85993734.3554   21000544.055  
                
  20900677.430   111608435.555                    86806561.142    20900680.664  
  20900676.773  
  20416766.641   109177644.050                    84915969.151    20416772.863  
  20416765.613  
  21423607.961   112581838.328    21423614.066    87726149.8704   21423614.312  
                
  23943715.234   125825063.073    23943721.973    98045517.1844   23943722.359  
                
  24330654.727   127858461.179    24330662.270    99629999.0404   24330662.434  
                
  22281131.172   117088144.991    22281140.789    91237541.8454   22281141.406  
                
 21  8 16  5 30 50.0000000  0 14G26R 3R 4G20R19G29R10G18R 9R20G 5G31
                                G23G25
  22282913.383   117097511.626    22282922.652    91244852.0484   22282922.605  
                
  22352324.188   119653766.296                    93064044.113    22352328.871  
  22352322.754  
  22047997.109   118066044.809                    91829160.456    22048000.914  
  22047996.410  
  23148803.188   121647768.305    23148808.980    94790513.4864                 
                
  20452808.789   109408776.073                    85095700.798    20452812.414  
  20452806.574  
  20527647.594   107873530.209    20527654.117    84057324.8034   20527654.250  
                
  20449505.180   109007372.685                                                  
  20449504.520  
  20996933.727   110339665.774    20996940.289    85978978.1564   20996940.445  
                
  20906824.492   111641260.553                    86832091.684    20906827.754  
  20906823.863  
  20413940.500   109162531.455                    84904214.911    20413946.715  
  20413939.473  
  21424358.000   112585779.841    21424364.094    87729221.1724   21424364.359  
                
  23947992.609   125847541.072    23947999.363    98063032.4894   23947999.801  
                
  24323415.859   127820421.001    24323423.371    99600357.3544   24323423.578  
                
  22287432.898   117121260.795    22287442.508    91263346.3554   22287443.133  
                
 21  8 16  5 31  0.0000000  0 14G26R 3R 4G20R19G29R10G18R 9R20G 5G31
                                G23G25
  22278648.273   117075098.316    22278657.582    91227387.1304   22278657.531  
                
  22353330.297   119659151.996                    93068232.983    22353334.938  
  22353328.895  
  22042743.297   118037910.928                    91807278.535    22042747.086  
  22042742.625  
  23153451.609   121672195.842    23153457.430    94809547.9114                 
                
  20456387.500   109427919.729                    85110590.291    20456391.121  
  20456385.285  
  20528627.773   107878681.060    20528634.312    84061338.4454   20528634.426  
                
  20448954.500   109004437.205                                                  
  20448953.848  
  20993338.070   110320770.499    20993344.641    85964254.5694   20993344.801  
                
  20912982.539   111674144.088                    86857667.742    20912985.805  
  20912981.918  
  20411120.922   109147453.851                    84892487.894    20411127.125  
  20411119.855  
  21425121.500   112589792.013    21425127.582    87732347.5384   21425127.855  
                
  23952276.641   125870053.997    23952283.438    98080575.0294   23952283.906  
                
  24316177.781   127782385.181    24316185.355    99570719.0664   24316185.582  
                
  22293740.664   117154408.230    22293750.309    91289175.5194   22293750.938  
                
 21  8 16  5 31 10.0000000  0 14G26R 3R 4G20R19G29R10G18R 9R20G 5G31
                                G23G25
  22274392.125   117052732.122    22274401.457    91209958.9304   22274401.391  
                
  22354352.523   119664623.951                    93072488.962    22354357.141  
  22354351.172  
  22037500.422   118009835.785                    91785442.315    22037504.191  
  22037499.750  
  23158108.523   121696668.081    23158114.363    94828617.1974                 
                
  20459970.883   109447088.402                    85125499.259    20459974.527  
  20459968.652  
  20529614.805   107883867.937    20529621.367    84065380.1664   20529621.473  
                
  20448421.031   109001593.495                                                  
  20448420.383  
  20989750.383   110301917.061    20989756.961    85949563.5774   20989757.117  
                
  20919151.500   111707086.013                    86883289.225    20919154.781  
  20919150.871  
  20408307.852   109132411.137                    84880787.998    20408314.047  
  20408306.793  
  21425898.430   112593874.833    21425904.496    87735528.9484   21425904.773  
                
  23956567.305   125892601.767    23956574.148    98098144.6994   23956574.629  
                
  24308940.523   127744353.805    24308948.172    99541084.2504   24308948.438  
                
  22300054.422   117187587.207    22300064.141    91315029.2584   22300064.738  
                
 21  8 16  5 31 20.0000000  0 14G26R 3R 4G20R19G29R10G18R 9R20G 5G31
                                G23G25
  22270144.969   117030413.201    22270154.328    91192567.5614   22270154.254  
                
  22355390.836   119670182.111                    93076811.988    22355395.426  
  22355389.516  
  22032268.570   117981819.494                    91763651.869    22032272.316  
  22032267.891  
  23162773.930   121721184.975    23162779.816    94847721.2544                 
                
  20463558.977   109466282.256                    85140427.806    20463562.574  
  20463556.734  
  20530608.703   107889090.928    20530615.285    84069450.0244   20530615.391  
                
  20447904.836   108998841.903                                                  
  20447904.203  
  20986170.664   110283105.521    20986177.258    85934905.2374   20986177.406  
                
  20925331.375   111740086.245                    86908956.061    20925334.699  
  20925330.742  
  20405501.297   109117403.306                    84869115.235    20405507.496  
  20405500.223  
  21426688.805   112598028.289    21426694.867    87738765.3914   21426695.156  
                
  23960864.602   125915184.336    23960871.484    98115741.4754   23960871.977  
                
  24301704.180   127706327.033    24301711.891    99511453.0134   24301712.160  
                
  22306374.180   117220797.714    22306383.953    91340907.5594   22306384.512  
                
 21  8 16  5 31 30.0000000  0 14G26R 3R 4G20R19G29R10G18R 9R20G 5G31
                                G23G25
  22265906.797   117008141.505    22265916.180    91175212.9964   22265916.113  
                
  22356445.250   119675826.522                    93081202.097    22356449.840  
  22356443.914  
  22027047.742   117953862.199                    91741907.311    22027051.488  
  22027047.070  
  23167447.828   121745746.466    23167453.781    94866860.0534                 
                
  20467151.680   109485500.835                    85155375.586    20467155.273  
  20467149.473  
  20531609.469   107894349.987    20531616.078    84073547.9954   20531616.176  
                
  20447405.875   108996182.071                                                  
  20447405.230  
  20982598.898   110264335.787    20982605.500    85920279.4814   20982605.652  
                
  20931522.117   111773144.464                    86934668.007    20931525.473  
  20931521.492  
  20402701.258   109102430.282                    84857469.569    20402707.469  
  20402700.172  
  21427492.617   112602252.377    21427498.688    87742056.8884   21427498.980  
                
  23965168.492   125937801.399    23965175.406    98133365.1634   23965175.898  
                
  24294468.680   127668304.836    24294476.520    99481825.3444   24294476.781  
                
  22312699.891   117254039.510    22312709.703    91366810.2414   22312710.250  
                
 21  8 16  5 31 40.0000000  0 14G26R 3R 4G20R19G29R10G18R 9R20G 5G31
                                G23G25
  22261677.625   116985917.132    22261687.020    91157895.2994   22261686.969  
                
  22357515.758   119681557.053                    93085659.186    22357520.352  
  22357514.395  
  22021837.961   117925964.053                    91720208.751    22021841.688  
  22021837.301  
  23172130.180   121770352.385    23172136.199    94886033.4884                 
                
  20470749.047   109504744.232                    85170342.660    20470752.605  
  20470746.848  
  20532617.102   107899645.170    20532623.742    84077674.1074   20532623.816  
                
  20446924.133   108993614.125                                                  
  20446923.496  
  20979035.094   110245607.879    20979041.695    85905686.3044   20979041.844  
                
  20937723.664   111806260.356                    86960424.785    20937727.031  
  20937723.055  
  20399907.727   109087492.037                    84845850.937    20399913.918  
  20399906.633  
  21428309.867   112606547.106    21428315.953    87745403.4294   21428316.238  
                
  23969478.938   125960452.944    23969485.871    98151015.6954   23969486.395  
                
  24287234.086   127630287.320    24287242.027    99452201.3274   24287242.285  
                
  22319031.539   117287312.530    22319041.375    91392737.2554   22319041.926  
                
 21  8 16  5 31 50.0000000  0 14G26R 3R 4G20R19G29R10G18R 9R20G 5G31
                                G23G25
  22257457.531   116963740.379    22257466.930    91140614.7094   22257466.895  
                
  22358602.406   119687373.964                    93090183.447    22358607.023  
  22358601.055  
  22016639.312   117898125.411                    91698556.469    22016643.059  
  22016638.641  
  23176821.008   121795002.831    23176827.117    94905241.6134                 
                
  20474351.094   109524012.726                    85185329.273    20474354.656  
  20474348.906  
  20533631.641   107904976.599    20533638.309    84081828.4654   20533638.367  
                
  20446459.633   108991138.025                                                  
  20446458.996  
  20975479.297   110226922.042    20975485.910    85891125.9154   20975486.059  
                
  20943936.094   111839434.323                    86986226.733    20943939.473  
  20943935.496  
  20397120.750   109072588.708                    84834259.455    20397126.930  
  20397119.648  
  21429140.578   112610912.515    21429146.688    87748805.0374   21429146.949  
                
  23973795.992   125983139.024    23973802.938    98168693.1674   23973803.488  
                
  24280000.445   127592274.810    24280008.516    99422581.2094   24280008.734  
                
  22325369.164   117320616.935    22325379.039    91418688.7224   22325379.590  
                
 21  8 16  5 32  0.0000000  0 14G26R 3R 4G20R19G29R10G18R 9R20G 5G31
                                G23G25
  22253246.477   116941611.137    22253255.887    91123371.1504   22253255.867  
                
  22359705.125   119693276.886                    93094774.617    22359709.754  
  22359703.789  
  22011451.711   117870346.172                    91676950.414    22011455.512  
  22011451.039  
  23181520.258   121819697.507    23181526.438    94924484.2154                 
                
  20477957.773   109543305.986                    85200335.147    20477961.301  
  20477955.586  
  20534653.055   107910344.135    20534659.746    84086010.9564   20534659.797  
                
  20446012.383   108988753.923                                                  
  20446011.762  
  20971931.461   110208278.087    20971938.102    85876598.1654   20971938.246  
                
  20950159.312   111872665.904                    87012073.497    20950162.719  
  20950158.711  
  20394340.258   109057720.187                    84822695.053    20394346.426  
  20394339.156  
  21429984.719   112615348.520    21429990.859    87752261.6624   21429991.090  
                
  23978119.570   126005859.426    23978126.543    98186397.3544   23978127.086  
                
  24272767.727   127554267.206    24272775.965    99392964.8994   24272776.141  
                
  22331712.695   117353952.386    22331722.637    91444664.3904   22331723.160  
                
 21  8 16  5 32 10.0000000  0 14G26R 3R 4G20R19G29R10G18R 9R20G 5G31
                                G23G25
  22249044.477   116919529.510    22249053.895    91106164.6894   22249053.891  
                
  22360823.953   119699266.078                    93099432.896    22360828.559  
  22360822.605  
  22006275.250   117842626.590                    91655390.759    22006279.113  
  22006274.543  
  23186227.914   121844436.419    23186234.137    94943761.2744                 
                
  20481569.102   109562624.216                    85215360.429    20481572.629  
  20481566.957  
  20535681.336   107915747.829    20535688.055    84090221.6134   20535688.090  
                
  20445582.367   108986461.677                                                  
  20445581.730  
  20968391.609   110189676.068    20968398.273    85862103.0884   20968398.406  
                
  20956393.289   111905954.958                    87037964.984    20956396.699  
  20956392.684  
  20391566.281   109042886.464                    84811157.717    20391572.453  
  20391565.160  
  21430842.281   112619855.069    21430848.445    87755773.2554   21430848.660  
                
  23982449.680   126028614.026    23982456.660    98204128.2074   23982457.168  
                
  24265536.039   127516264.640    24265544.352    99363352.5324   24265544.508  
                
  22338062.141   117387318.887    22338072.160    91470664.2444   22338072.648  
                
 21  8 16  5 32 20.0000000  0 14G26R 3R 4G20R19G29R10G18R 9R20G 5G31
                                G23G25
  22244851.531   116897495.438    22244860.957    91088995.2834   22244860.965  
                
  22361958.820   119705341.145                    93104157.956    22361963.418  
  22361957.473  
  22001109.867   117814966.572                    91633877.419    22001113.824  
  22001109.137  
  23190943.977   121869219.447    23190950.234    94963072.7044                 
                
  20485185.008   109581966.869                    85230404.712    20485188.535  
  20485182.848  
  20536716.469   107921187.455    20536723.207    84094460.2804   20536723.223  
                
  20445169.578   108984261.268                                                  
  20445168.922  
  20964859.719   110171115.854    20964866.398    85847640.5874   20964866.523  
                
  20962637.969   111939301.152                    87063900.891    20962641.363  
  20962637.352  
  20388798.781   109028087.365                    84799647.302    20388804.938  
  20388797.652  
  21431713.219   112624431.885    21431719.398    87759339.6004   21431719.605  
                
  23986786.234   126051402.582    23986793.246    98221885.5064   23986793.738  
                
  24258305.297   127478267.047    24258313.707    99333744.0344   24258313.832  
                
  22344417.438   117420716.170    22344427.531    91496688.0804   22344427.992  
                
 21  8 16  5 32 30.0000000  0 14G26R 3R 4G20R19G29R10G18R 9R20G 5G31
                                G23G25
  22240667.633   116875508.979    22240677.070    91071862.9794   22240677.074  
                
  22363109.789   119711502.427                    93108950.056    22363114.352  
  22363108.398  
  21995955.648   117787366.344                    91612410.581    21995959.648  
  21995954.914  
  23195668.398   121894046.438    23195674.711    94982418.3894                 
                
  20488805.453   109601333.918                    85245467.978    20488808.992  
  20488803.324  
  20537758.438   107926663.067    20537765.184    84098726.9854   20537765.195  
                
  20444773.984   108982152.543                                                  
  20444773.328  
  20961335.773   110152597.436    20961342.457    85833210.6544   20961342.582  
                
  20968893.312   111972704.322                    87089881.112    20968896.684  
  20968892.695  
  20386037.750   109013322.917                    84788163.838    20386043.887  
  20386036.617  
  21432597.539   112629079.024    21432603.719    87762960.7514   21432603.934  
                
  23991129.219   126074225.019    23991136.254    98239669.1934   23991136.734  
                
  24251075.523   127440274.510    24251084.000    99304139.4774   24251084.113  
                
  22350778.562   117454144.136    22350788.711    91522735.8244   22350789.152  
                
 21  8 16  5 32 40.0000000  0 14G26R 3R 4G20R19G29R10G18R 9R20G 5G31
                                G23G25
  22236492.906   116853570.603    22236502.355    91054768.1404   22236502.348  
                
  22364276.859   119717749.882                    93113809.204    22364281.418  
  22364275.434  
  21990812.742   117759826.448                    91590990.640    21990816.730  
  21990811.973  
  23200401.203   121918917.496    23200407.523    95001798.4364                 
                
  20492430.586   109620725.849                    85260550.585    20492434.125  
  20492428.453  
  20538807.344   107932175.025    20538814.090    84103022.0134   20538814.105  
                
  20444395.742   108980136.220                                                  
  20444395.098  
  20957819.875   110134121.216    20957826.562    85818813.6024   20957826.680  
                
  20975159.398   112006164.786                    87115905.907    20975162.766  
  20975158.781  
  20383283.281   108998593.503                    84776707.629    20383289.418  
  20383282.152  
  21433495.320   112633796.858    21433501.492    87766636.9734   21433501.703  
                
  23995478.734   126097081.495    23995485.719    98257479.4504   23995486.211  
                
  24243846.875   127402287.509    24243855.355    99274539.2304   24243855.441  
                
  22357145.586   117487603.108    22357155.766    91548807.7364   22357156.180  
                
 21  8 16  5 32 50.0000000  0 14G26R 3R 4G20R19G29R10G18R 9R20G 5G31
                                G23G25
  22232327.273   116831680.073    22232336.723    91037710.5834   22232336.723  
                
  22365459.984   119724083.302                    93118735.214    22365464.480  
  22365458.566  
  21985681.039   117732346.722                    91569617.526    21985685.020  
  21985680.297  
  23205142.305   121943832.268    23205148.602    95021212.5344                 
                
  20496060.297   109640142.333                    85275652.285    20496063.844  
  20496058.164  
  20539863.078   107937722.999    20539869.816    84107345.1044   20539869.840  
                
  20444034.680   108978211.572                                                  
  20444034.027  
  20954311.930   110115686.888    20954318.625    85804449.1964   20954318.746  
                
  20981436.086   112039681.922                    87141974.791    20981439.449  
  20981435.461  
  20380535.297   108983898.814                    84765278.424    20380541.410  
  20380534.164  
  21434406.469   112638585.043    21434412.645    87770368.0234   21434412.859  
                
  23999834.609   126119971.691    23999841.555    98275315.9364   23999842.078  
                
  24236619.266   127364305.839    24236627.703    99244943.1284   24236627.777  
                
  22363518.430   117521092.644    22363528.613    91574903.4624   22363529.016  
                
 21  8 16  5 33  0.0000000  0 14G26R 3R 4G20R19G29R10G18R 9R20G 5G31
                                G23G25
  22228170.758   116809837.480    22228180.195    91020690.3834   22228180.215  
                
  22366659.195   119730502.699                    93123728.048    22366663.648  
  22366657.746  
  21980560.672   117704927.240                    91548291.239    21980564.578  
  21980559.961  
  23209891.758   121968790.749    23209898.039    95040660.6914                 
                
  20499694.594   109659583.283                    85290773.022    20499698.137  
  20499692.496  
  20540925.703   107943307.113    20540932.426    84111696.3544   20540932.465  
                
  20443690.906   108976379.048                                                  
  20443690.262  
  20950811.969   110097294.486    20950818.668    85790117.4594   20950818.789  
                
  20987723.383   112073255.653                    87168087.671    20987726.750  
  20987722.758  
  20377793.805   108969238.938                    84753876.299    20377799.930  
  20377792.695  
  21435331.023   112643443.579    21435337.207    87774153.8924   21435337.422  
                
  24004196.922   126142895.452    24004203.836    98293178.5994   24004204.344  
                
  24229392.680   127326329.587    24229401.078    99215351.2544   24229401.152  
                
  22369897.086   117554612.677    22369907.246    91601022.9554   22369907.656  
                
 21  8 16  5 33 10.0000000  0 14G26R 3R 4G20R19G29R10G18R 9R20G 5G31
                                G23G25
  22224023.383   116788042.861    22224032.809    91003707.5664   22224032.836  
                
  22367874.438   119737007.953                    93128787.724    22367878.871  
  22367872.988  
  21975451.609   117677568.308                    91527012.054    21975455.430  
  21975450.895  
  23214649.500   121993792.846    23214655.809    95060142.8204                 
                
  20503333.414   109679048.490                    85305912.618    20503336.965  
  20503331.297  
  20541995.203   107948927.360    20542001.914    84116075.7554   20542001.969  
                
  20443364.336   108974638.215                                                  
  20443363.680  
  20947319.984   110078943.985    20947326.680    85775818.3744   20947326.812  
                
  20994021.258   112106885.822                    87194244.465    20994024.605  
  20994020.645  
  20375058.781   108954613.518                    84742500.970    20375064.910  
  20375057.680  
  21436268.922   112648372.299    21436275.129    87777994.4514   21436275.336  
                
  24008565.547   126165852.652    24008572.484    98311067.3164   24008572.973  
                
  24222167.102   127288358.819    24222175.484    99185763.6534   24222175.566  
                
  22376281.523   117588163.057    22376291.652    91627166.1144   22376292.078  
                
 21  8 16  5 33 20.0000000  0 14G26R 3R 4G20R19G29R10G18R 9R20G 5G31
                                G23G25
  22219885.180   116766296.414    22219894.598    90986762.2834   22219894.613  
                
  22369105.750   119743599.298                    93133914.327    22369110.168  
  22369104.289  
  21970353.836   117650270.086                    91505780.120    21970357.641  
  21970353.148  
  23219415.539   122018838.556    23219421.859    95079658.9624                 
                
  20506976.812   109698538.192                    85321071.270    20506980.355  
  20506974.672  
  20543071.594   107954583.803    20543078.293    84120483.3754   20543078.367  
                
  20443055.016   108972989.325                                                  
  20443054.328  
  20943835.992   110060635.522    20943842.676    85761552.0344   20943842.812  
                
  21000329.656   112140572.250                    87220445.009    21000333.008  
  21000329.055  
  20372330.250   108940022.872                    84731152.681    20372336.387  
  20372329.148  
  21437220.234   112653371.459    21437226.469    87781889.9054   21437226.652  
                
  24012940.547   126188843.327    24012947.508    98328982.1094   24012947.977  
                
  24214942.688   127250393.746    24214950.961    99156180.4764   24214951.023  
                
  22382671.750   117621743.869    22382681.871    91653332.9734   22382682.309  
                
 21  8 16  5 33 30.0000000  0 14G26R 3R 4G20R19G29R10G18R 9R20G 5G31
                                G23G25
  22215756.164   116744598.293    22215765.562    90969854.6544   22215765.578  
                
  22370353.125   119750276.651                    93139107.808    22370357.523  
  22370351.617  
  21965267.453   117623032.780                    91484595.544    21965271.262  
  21965266.742  
  23224189.867   122043927.824    23224196.156    95099209.0454                 
                
  20510624.750   109718052.239                    85336248.859    20510628.332  
  20510622.574  
  20544154.875   107960276.464    20544161.566    84124919.2114   20544161.641  
                
  20442762.945   108971432.444                                                  
  20442762.230  
  20940360.008   110042369.153    20940366.680    85747318.5054   20940366.820  
                
  21006648.641   112174315.166                    87246689.494    21006651.965  
  21006648.027  
  20369608.211   108925466.943                    84719831.413    20369614.336  
  20369607.109  
  21438184.945   112658441.082    21438191.215    87785840.2614   21438191.379  
                
  24017321.891   126211867.394    24017328.887    98346922.9254   24017329.312  
                
  24207719.312   127212434.512    24207727.555    99126601.8614   24207727.605  
                
  22389067.758   117655355.089    22389077.875    91679523.5074   22389078.301  
                
 21  8 16  5 33 40.0000000  0 14G26R 3R 4G20R19G29R10G18R 9R20G 5G31
                                G23G25
  22211636.352   116722948.549    22211645.734    90952984.7284   22211645.766  
                
  22371616.570   119757040.035                    93144368.218    22371620.957  
  22371614.992  
  21960192.477   117595856.522                    91463458.459    21960196.301  
  21960191.762  
  23228972.531   122069060.783    23228978.805    95118793.1614                 
                
  20514277.305   109737590.951                    85351445.632    20514280.891  
  20514275.102  
  20545245.055   107966005.365    20545251.746    84129383.2864   20545251.820  
                
  20442488.125   108969967.462                                                  
  20442487.410  
  20936892.055   110024144.919    20936898.719    85733117.8044   20936898.867  
                
  21012978.109   112208114.090                    87272977.530    21012981.445  
  21012977.492  
  20366892.719   108910945.932                    84708537.289    20366898.848  
  20366891.582  
  21439163.055   112663581.073    21439169.348    87789845.4494   21439169.488  
                
  24021709.539   126234924.752    24021716.605    98364889.6884   24021717.008  
                
  24200497.039   127174481.249    24200505.309    99097027.9024   24200505.359  
                
  22395469.523   117688996.589    22395479.621    91705737.6364   22395480.043  
                
 21  8 16  5 33 50.0000000  0 14G26R 3R 4G20R19G29R10G18R 9R20G 5G31
                                G23G25
  22207525.789   116701347.407    22207535.180    90936152.6604   22207535.215  
                
  22372896.062   119763889.399                    93149695.520    22372900.426  
  22372894.480  
  21955128.961   117568741.593                    91442369.066    21955132.785  
  21955128.246  
  23233763.445   122094237.120    23233769.711    95138411.0784                 
                
  20517934.375   109757153.830                    85366661.191    20517937.957  
  20517932.160  
  20546342.148   107971770.642    20546348.840    84133875.7044   20546348.910  
                
  20442230.617   108968594.772                                                  
  20442229.891  
  20933432.133   110005962.920    20933438.793    85718950.0154   20933438.953  
                
  21019318.086   112241969.124                    87299309.183    21019321.445  
  21019317.496  
  20364183.727   108896459.765                    84697270.277    20364189.871  
  20364182.574  
  21440154.586   112668791.619    21440160.875    87793905.6074   21440161.023  
                
  24026103.523   126258015.397    24026110.625    98382882.3644   24026111.016  
                
  24193275.859   127136534.125    24193284.223    99067458.7344   24193284.285  
                
  22401877.055   117722668.382    22401887.090    91731975.3914   22401887.547  
                
 21  8 16  5 34  0.0000000  0 14G26R 3R 4G20R19G29R10G18R 9R20G 5G31
                                G23G25
  22203424.445   116679794.724    22203433.859    90919358.3614   22203433.879  
                
  22374191.656   119770824.871                    93155089.761    22374195.996  
  22374190.062  
  21950076.867   117541687.906                    91421327.303    21950080.680  
  21950076.168  
  23238562.570   122119456.682    23238568.805    95158062.6814                 
                
  20521595.992   109776741.044                    85381895.690    20521599.582  
  20521593.770  
  20547446.133   107977572.078    20547452.828    84138396.3034   20547452.902  
                
  20441990.344   108967314.002                                                  
  20441989.598  
  20929980.211   109987822.997    20929986.875    85704815.0134   20929987.031  
                
  21025668.500   112275879.854                    87325684.176    21025671.875  
  21025667.934  
  20361481.211   108882008.221                    84686030.198    20361487.375  
  20361480.059  
  21441159.469   112674072.318    21441165.750    87798020.4394   21441165.898  
                
  24030503.812   126281139.018    24030510.867    98400900.7724   24030511.281  
                
  24186055.859   127098593.065    24186064.301    99037894.2854   24186064.336  
                
  22408290.312   117756370.213    22408300.270    91758236.5654   22408300.781  
                
 21  8 16  5 34 10.0000000  0 14G26R 3R 4G20R19G29R10G18R 9R20G 5G31
                                G23G25
  22199332.344   116658290.608    22199341.781    90902601.9124   22199341.781  
                
  22375503.281   119777846.145                    93160550.764    22375507.609  
  22375501.688  
  21945036.281   117514695.698                    91400333.353    21945040.027  
  21945035.602  
  23243369.898   122144719.365    23243376.133    95177747.8874                 
                
  20525262.125   109796352.347                    85397148.935    20525265.719  
  20525259.906  
  20548557.000   107983409.714    20548563.703    84142945.1064   20548563.785  
                
  20441767.336   108966125.221                                                  
  20441766.574  
  20926536.305   109969725.183    20926542.969    85690712.8204   20926543.137  
                
  21032029.336   112309846.273                    87352102.496    21032032.734  
  21032028.781  
  20358785.195   108867591.527                    84674817.211    20358791.391  
  20358784.051  
  21442177.719   112679423.257    21442183.996    87802190.0024   21442184.152  
                
  24034910.359   126304295.617    24034917.359    98418944.8604   24034917.824  
                
  24178837.086   127060658.182    24178845.516    99008334.6424   24178845.543  
                
  22414709.273   117790102.012    22414719.195    91784521.0804   22414719.750  
                
 21  8 16  5 34 20.0000000  0 14G26R 3R 4G20R19G29R10G18R 9R20G 5G31
                                G23G25
  22195249.508   116636835.245    22195258.969    90885883.4504   22195258.961  
                
  22376830.945   119784953.370                    93166078.611    22376835.262  
  22376829.406  
  21940007.195   117487765.212                    91379387.419    21940010.941  
  21940006.496  
  23248185.461   122170025.245    23248191.715    95197466.7414                 
                
  20528932.789   109815987.984                    85412421.084    20528936.402  
  20528930.566  
  20549674.773   107989283.693    20549681.480    84147522.2334   20549681.562  
                
  20441561.633   108965028.732                                                  
  20441560.883  
  20923100.430   109951669.589    20923107.090    85676643.5274   20923107.258  
                
  21038400.594   112343868.255                    87378564.008    21038404.000  
  21038400.031  
  20356095.664   108853209.471                    84663631.173    20356101.887  
  20356094.492  
  21443209.367   112684844.653    21443215.648    87806414.4604   21443215.809  
                
  24039323.180   126327485.083    24039330.113    98437014.5654   24039330.613  
                
  24171619.461   127022729.665    24171627.926    98978779.9634   24171627.941  
                
  22421133.930   117823863.799    22421143.891    91810828.9514   22421144.430  
                
 21  8 16  5 34 30.0000000  0 14G26R 3R 4G20R19G29R10G18R 9R20G 5G31
                                G23G25
  22191175.953   116615428.587    22191185.430    90869202.9394   22191185.410  
                
  22378174.641   119792146.315                    93171673.135    22378178.941  
  22378173.066  
  21934989.633   117460896.436                    91358489.482    21934993.395  
  21934988.902  
  23253009.203   122195374.084    23253015.449    95217219.0824                 
                
  20532607.945   109835647.622                    85427711.901    20532611.582  
  20532605.691  
  20550799.445   107995193.873    20550806.156    84152127.5624   20550806.238  
                
  20441373.219   108964024.305                                                  
  20441372.465  
  20919672.578   109933656.103    20919679.238    85662607.0524   20919679.406  
                
  21044782.172   112377945.336                    87405068.405    21044785.574  
  21044781.598  
  20353412.609   108838862.029                    84652472.045    20353418.848  
  20353411.410  
  21444254.367   112690336.189    21444260.676    87810693.5854   21444260.848  
                
  24043742.180   126350707.276    24043749.137    98455109.7854   24043749.660  
                
  24164403.047   126984807.499    24164411.562    98949230.2474   24164411.570  
                
  22427564.242   117857655.345    22427574.301    91837160.0024   22427574.812  
                
 21  8 16  5 34 40.0000000  0 14G26R 3R 4G20R19G29R10G18R 9R20G 5G31
                                G23G25
  22187111.695   116594070.791    22187121.172    90852560.5104   22187121.152  
                
  22379534.367   119799425.104                    93177334.429    22379538.672  
  22379532.699  
  21929983.633   117434089.703                    91337639.824    21929987.461  
  21929982.859  
  23257841.117   122220765.907    23257847.359    95237004.9214                 
                
  20536287.617   109855331.347                    85443021.467    20536291.258  
  20536285.344  
  20551931.016   108001140.324    20551937.723    84156761.1534   20551937.805  
                
  20441202.062   108963111.910                                                  
  20441201.320  
  20916252.758   109915684.831    20916259.410    85648603.4654   20916259.582  
                
  21051174.094   112412077.754                    87431615.836    21051177.496  
  21051173.504  
  20350736.078   108824549.427                    84641340.021    20350742.336  
  20350734.871  
  21445312.727   112695897.913    21445319.070    87815027.3924   21445319.238  
                
  24048167.391   126373962.141    24048174.418    98473230.4404   24048174.930  
                
  24157187.836   126946891.887    24157196.418    98919685.6134   24157196.441  
                
  22434000.234   117891476.679    22434010.387    91863514.2644   22434010.875  
                
 21  8 16  5 34 50.0000000  0 14G26R 3R 4G20R19G29R10G18R 9R20G 5G31
                                G23G25
  22183056.703   116572761.764    22183066.172    90835956.0694   22183066.160  
                
  22380910.102   119806789.639                    93183062.386    22380914.410  
  22380908.453  
  21924989.148   117407344.792                    91316838.230    21924993.039  
  21924988.355  
  23262681.148   122246200.408    23262687.363    95256824.0134                 
                
  20539971.742   109875038.927                    85458349.573    20539975.371  
  20539969.484  
  20553069.453   108007122.884    20553076.152    84161422.8794   20553076.250  
                
  20441048.094   108962291.155                                                  
  20441047.352  
  20912840.930   109897755.584    20912847.578    85634632.6164   20912847.750  
                
  21057576.305   112446265.089                    87458205.967    21057579.680  
  21057575.691  
  20348065.992   108810271.318                    84630234.825    20348072.258  
  20348064.773  
  21446384.430   112701529.797    21446390.797    87819415.8804   21446390.984  
                
  24052598.773   126397249.349    24052605.820    98491376.3084   24052606.352  
                
  24149973.914   126908982.704    24149982.484    98890146.0184   24149982.520  
                
  22440441.844   117925327.472    22440452.055    91889891.4894   22440452.520  
                
 21  8 16  5 35  0.0000000  0 14G26R 3R 4G20R19G29R10G18R 9R20G 5G31
                                G23G25
  22179011.055   116551501.794    22179020.500    90819389.8634   22179020.516  
                
  22382301.875   119814239.961                    93188857.083    22382306.184  
  22382300.227  
  21920006.328   117380662.270                    91296085.173    21920010.320  
  21920005.523  
  23267529.328   122271677.725    23267535.539    95276676.4694                 
                
  20543660.414   109894770.707                    85473696.524    20543664.020  
  20543658.145  
  20554214.820   108013141.841    20554221.516    84166112.9694   20554221.633  
                
  20440911.461   108961562.838                                                  
  20440910.711  
  20909437.141   109879868.609    20909443.812    85620694.7234   20909443.984  
                
  21063988.805   112480507.281                    87484838.762    21063992.156  
  21063988.184  
  20345402.406   108796027.947                    84619156.657    20345408.688  
  20345401.199  
  21447469.484   112707231.783    21447475.871    87823858.9834   21447476.051  
                
  24057036.352   126420569.068    24057043.406    98509547.5064   24057043.930  
                
  24142761.297   126871080.280    24142769.859    98860611.6714   24142769.871  
                
  22446889.094   117959207.884    22446899.340    91916291.8114   22446899.801  
                
 21  8 16  5 35 10.0000000  0 14G26R 3R 4G20R19G29R10G18R 9R20G 5G31
                                G23G25
  22174974.727   116530290.749    22174984.148    90802861.7794   22174984.176  
                
  22383709.656   119821775.878                    93194718.345    22383713.930  
  22383708.023  
  21915035.156   117354041.911                    91275380.465    21915039.188  
  21915034.320  
  23272385.609   122297197.639    23272391.812    95296562.1214                 
                
  20547353.508   109914526.208                    85489061.889    20547357.102  
  20547351.227  
  20555367.078   108019196.991    20555373.766    84170831.2554   20555373.898  
                
  20440792.047   108960926.222                                                  
  20440791.297  
  20906041.367   109862023.706    20906048.066    85606789.6064   20906048.230  
                
  21070411.516   112514804.075                    87511514.040    21070414.859  
  21070410.918  
  20342745.266   108781819.048                    84608105.288    20342751.562  
  20342744.086  
  21448567.844   112713003.711    21448574.250    87828356.5874   21448574.449  
                
  24061480.039   126443920.913    24061487.133    98527743.7454   24061487.676  
                
  24135550.031   126833184.508    24135558.492    98831082.5144   24135558.484  
                
  22453341.922   117993117.642    22453352.199    91942714.9884   22453352.664  
                
 21  8 16  5 35 20.0000000  0 14G26R 3R 4G20R19G29R10G18R 9R20G 5G31
                                G23G25
  22170947.766   116509128.998    22170957.176    90786372.1054   22170957.203  
                
  22385133.469   119829397.665                    93200646.412    22385137.723  
  22385131.871  
  21910075.750   117327484.318                    91254724.536    21910079.746  
  21910074.922  
  23277250.016   122322760.252    23277256.230    95316481.0414                 
                
  20551051.109   109934305.860                    85504446.071    20551054.695  
  20551048.836  
  20556526.250   108025288.570    20556532.938    84175577.9404   20556533.082  
                
  20440689.914   108960381.821                                                  
  20440689.168  
  20902653.641   109844221.168    20902660.371    85592917.5074   20902660.520  
                
  21076844.438   112549155.424                    87538231.747    21076847.742  
  21076843.855  
  20340094.641   108767645.012                    84597081.055    20340100.969  
  20340093.453  
  21449679.570   112718845.927    21449686.000    87832908.9584   21449686.219  
                
  24065929.867   126467305.100    24065937.027    98545965.1554   24065937.605  
                
  24128340.047   126795295.747    24128348.516    98801558.8244   24128348.473  
                
  22459800.359   118027056.907    22459810.660    91969161.1494   22459811.125  
                
 21  8 16  5 35 30.0000000  0 14G26R 3R 4G20R19G29R10G18R 9R20G 5G31
                                G23G25
  22166930.180   116488016.471    22166939.590    90769920.7884   22166939.594  
                
  22386573.273   119837105.144                    93206641.116    22386577.508  
  22386571.680  
  21905128.070   117300989.408                    91234117.359    21905131.988  
  21905127.277  
  23282122.492   122348365.338    23282128.727    95336433.0584                 
                
  20554753.148   109954109.235                    85519848.704    20554756.715  
  20554750.895  
  20557692.352   108031416.490    20557699.043    84180352.9354   20557699.180  
                
  20440605.055   108959929.443                                                  
  20440604.312  
  20899273.961   109826460.856    20899280.719    85579078.3144   20899280.859  
                
  21083287.562   112583561.231                    87564991.814    21083290.859  
  21083286.977  
  20337450.500   108753505.671                    84586083.776    20337456.855  
  20337449.289  
  21450804.625   112724758.125    21450811.090    87837515.8614   21450811.320  
                
  24070385.812   126490721.376    24070393.012    98564211.5914   24070393.598  
                
  24121131.297   126757413.945    24121139.871    98772040.5794   24121139.809  
                
  22466264.352   118061025.466    22466274.652    91995630.1424   22466275.113  
                
 21  8 16  5 35 40.0000000  0 14G26R 3R 4G20R19G29R10G18R 9R20G 5G31
                                G23G25
  22162921.961   116466953.161    22162931.375    90753507.8194   22162931.352  
                
  22388029.062   119844898.116                    93212702.330    22388033.301  
  22388027.457  
  21900192.102   117274557.159                    91213558.949    21900195.949  
  21900191.332  
  23287003.031   122374012.835    23287009.281    95356418.1234                 
                
  20558459.609   109973936.288                    85535269.747    20558463.168  
  20558457.355  
  20558865.352   108037580.638    20558872.043    84185156.1664   20558872.188  
                
  20440537.445   108959569.034                                                  
  20440536.676  
  20895902.312   109808742.718    20895909.090    85565271.9724   20895909.211  
                
  21089740.812   112618021.128                    87591793.933    21089744.117  
  21089740.207  
  20334812.844   108739400.898                    84575113.402    20334819.188  
  20334811.652  
  21451942.977   112730740.254    21451949.492    87842177.2644   21451949.707  
                
  24074847.883   126514169.494    24074855.078    98582482.8334   24074855.664  
                
  24113923.969   126719539.143    24113932.527    98742527.7824   24113932.480  
                
  22472733.898   118095023.138    22472744.191    92022121.8174   22472744.668  
                
 21  8 16  5 35 50.0000000  0 14G26R 3R 4G20R19G29R10G18R 9R20G 5G31
                                G23G25
  22158923.141   116445939.215    22158932.562    90737133.3144   22158932.539  
                
  22389500.859   119852776.799                    93218830.185    22389505.125  
  22389499.238  
  21895267.867   117248187.919                    91193049.559    21895271.660  
  21895267.113  
  23291891.633   122399702.676    23291897.891    95376436.1654                 
                
  20562170.523   109993787.191                    85550709.332    20562174.062  
  20562168.285  
  20560045.250   108043781.070    20560051.945    84189987.6564   20560052.090  
                
  20440487.117   108959300.759                                                  
  20440486.332  
  20892538.695   109791066.824    20892545.496    85551498.5544   20892545.613  
                
  21096204.188   112652535.094                    87618638.121    21096207.520  
  21096203.582  
  20332181.641   108725330.604                    84564169.849    20332187.973  
  20332180.465  
  21453094.664   112736792.418    21453101.227    87846893.2314   21453101.426  
                
  24079316.039   126537649.462    24079323.219    98600778.9174   24079323.797  
                
  24106718.000   126681671.505    24106726.551    98713020.5564   24106726.480  
                
  22479208.969   118129049.901    22479219.289    92048636.1644   22479219.746  
                
 21  8 16  5 36  0.0000000  0 14G26R 3R 4G20R19G29R10G18R 9R20G 5G31
                                G23G25
  22154933.664   116424974.402    22154943.090    90720797.1014   22154943.074  
                
  22390988.562   119860740.688                    93225024.305    22390992.824  
  22390986.961  
  21890355.336   117221881.505                    91172589.003    21890359.082  
  21890354.586  
  23296788.219   122425434.452    23296794.496    95396486.8864                 
                
  20565885.812   110013661.415                    85566167.052    20565889.320  
  20565883.566  
  20561231.992   108050017.463    20561238.699    84194847.1824   20561238.852  
                
  20440454.016   108959124.296                                                  
  20440453.242  
  20889183.070   109773432.900    20889189.895    85537757.8284   20889189.996  
                
  21102677.609   112687102.788                    87645524.086    21102680.957  
  21102677.008  
  20329556.820   108711294.547                    84553252.904    20329563.152  
  20329555.664  
  21454259.609   112742914.277    21454266.215    87851663.5034   21454266.402  
                
  24083790.180   126561160.839    24083797.320    98619099.4564   24083797.883  
                
  24099513.375   126643810.821    24099521.879    98683518.7424   24099521.805  
                
  22485689.500   118163105.353    22485699.871    92075172.8794   22485700.297  
                
 21  8 16  5 36 10.0000000  0 14G26R 3R 4G20R19G29R10G18R 9R20G 5G31
                                G23G25
  22150953.625   116404059.224    22150963.035    90704499.5554   22150963.027  
                
  22392492.289   119868790.308                    93231285.124    22392496.562  
  22392490.645  
  21885454.594   117195638.418                    91152177.737    21885458.328  
  21885453.844  
  23301692.820   122451208.378    23301699.133    95416570.4614                 
                
  20569605.547   110033559.426                    85581643.294    20569609.051  
  20569603.312  
  20562425.664   108056290.309    20562432.375    84199735.1034   20562432.539  
                
  20440438.188   108959039.935                                                  
  20440437.402  
  20885835.492   109755841.344    20885842.355    85524050.1284   20885842.438  
                
  21109161.094   112721724.256                    87672451.874    21109164.453  
  21109160.500  
  20326938.508   108697293.326                    84542363.079    20326944.852  
  20326937.375  
  21455437.875   112749106.137    21455444.523    87856488.3244   21455444.711  
                
  24088270.312   126584703.984    24088277.488    98637444.7634   24088278.039  
                
  24092310.117   126605957.575    24092318.617    98654022.7384   24092318.555  
                
  22492175.555   118197189.849    22492185.969    92101732.2024   22492186.359  
                
 21  8 16  5 36 20.0000000  0 14G26R 3R 4G20R19G29R10G18R 9R20G 5G31
                                G23G25
  22146983.086   116383193.881    22146992.488    90688240.8354   22146992.473  
                
  22394012.023   119876925.641                    93237612.583    22394016.328  
  22394010.363  
  21880565.773   117169458.996                    91131815.957    21880569.488  
  21880565.027  
  23306605.484   122477024.586    23306611.832    95436686.9554                 
                
  20573329.711   110053481.183                    85597137.982    20573333.219  
  20573327.500  
  20563626.281   108062599.639    20563633.008    84204651.4664   20563633.172  
                
  20440439.656   108959047.755                                                  
  20440438.848  
  20882496.016   109738292.295    20882502.906    85510375.5484   20882502.984  
                
  21115654.672   112756399.541                    87699421.536    21115658.043  
  21115654.078  
  20324326.719   108683326.886                    84531500.288    20324333.051  
  20324325.594  
  21456629.508   112755368.184    21456636.184    87861367.8324   21456636.359  
                
  24092756.500   126608278.921    24092763.688    98655814.8164   24092764.227  
                
  24085108.305   126568112.003    24085116.836    98624532.7194   24085116.762  
                
  22498667.148   118231303.407    22498677.570    92128314.1704   22498677.938  
                
 21  8 16  5 36 30.0000000  0 14G26R 3R 4G20R19G29R10G18R 9R20G 5G31
                                G23G25
  22143022.000   116362378.226    22143031.387    90672020.8494   22143031.363  
                
  22395547.703   119885146.356                    93244006.484    22395552.051  
  22395546.027  
  21875688.836   117143343.164                    91111503.628    21875692.504  
  21875688.082  
  23311526.109   122502882.716    23311532.523    95456836.1554                 
                
  20577058.297   110073426.522                    85612651.019    20577061.797  
  20577056.059  
  20564833.828   108068945.326    20564840.562    84209596.1494   20564840.730  
                
  20440458.414   108959147.673                                                  
  20440457.598  
  20879164.594   109720785.574    20879171.516    85496733.9554   20879171.586  
                
  21122158.266   112791128.337                    87726432.797    21122161.645  
