     2.11           OBSERVATION DATA    M (MIXED)           RINEX VERSION / TYPE
EFT-CORS.RU                             20210817 145104 UTC PGM / RUN BY / DATE 
MDNG                                                        MARKER NAME         
                                                            MARKER NUMBER       
MDNG                EFT-CORS.RU                             OBSERVER / AGENCY   
0                   TRIMBLE BD970       2.0                 REC # / TYPE / VERS 
0                   UNKNOWN EXT NONE                        ANT # / TYPE        
  3463911.2830  3030468.2400  4402179.3760                  APPROX POSITION XYZ 
        0.0000        0.0000        0.0000                  ANTENNA: DELTA H/E/N
     1     1                                                WAVELENGTH FACT L1/2
     6    C1    L1    P2    L2    C2    P1                  # / TYPES OF OBSERV 
    10.000                                                  INTERVAL            
  2021     8    15     1    30    0.0000000     GPS         TIME OF FIRST OBS   
  2021     8    15     2    30    0.0000000     GPS         TIME OF LAST OBS    
     0                                                      RCV CLOCK OFFS APPL 
                                                            END OF HEADER       
 21  8 15  1 30  0.0000000  0 14G 6G12G17R24R14R23G24R13G32G25R17R15
                                G 2G19
  21454194.984   112742558.247    21454203.922    87851382.4954   21454204.215  
                
  20695685.680   108756575.859    20695691.016    84745414.3514   20695691.305  
                
  24838837.086   130528975.188    24838843.219   101710919.3654   24838843.371  
                
  19352358.453   103485762.458                    80488930.210    19352362.453  
  19352357.363  
  19313971.094   102954349.017                    80075597.082    19313975.168  
  19313971.035  
  21594384.680   115515410.903                                                  
  21594382.559  
  20819156.344   109405423.157    20819165.066    85251008.9344   20819165.176  
                
  22507877.180   120190845.968                    93481771.524    22507879.844  
  22507875.223  
  24355283.023   127987876.393    24355291.578    99730837.0094   24355291.797  
                
  22742897.469   119514735.353    22742906.469    93128406.2464   22742906.871  
                
  20512825.695   109768286.152                    85375318.945    20512829.227  
  20512823.930  
  20802804.312   111163887.551                    86460797.023    20802808.273  
  20802804.512  
  21841618.703   114778486.733    21841622.992    89437799.0174                 
                
  22240330.422   116873743.453    22240334.348    91070466.6414                 
                
 21  8 15  1 30 10.0000000  0 14G 6G12G17R24R14R23G24R13G32G25R17R15
                                G 2G19
  21453727.711   112740102.694    21453736.637    87849469.0784   21453736.926  
                
  20692848.023   108741663.916    20692853.359    84733794.6634   20692853.641  
                
  24844878.305   130560721.940    24844884.457   101735657.0734   24844884.609  
                
  19353713.422   103493008.125                    80494565.731    19353717.410  
  19353712.305  
  19314799.320   102958763.894                    80079030.872    19314803.406  
  19314799.266  
  21601103.172   115551350.375                                                  
  21601101.066  
  20822481.398   109422896.492    20822490.109    85264624.5234   20822490.227  
                
  22514325.305   120225278.218                    93508552.161    22514327.969  
  22514323.312  
  24354516.586   127983848.753    24354525.090    99727698.5764   24354525.309  
                
  22737396.641   119485828.292    22737405.668    93105881.2604   22737406.059  
                
  20506687.789   109735441.030                    85349772.741    20506691.301  
  20506686.012  
  20797268.367   111134305.096                    86437788.452    20797272.332  
  20797268.551  
  21838030.578   114759631.042    21838034.863    89423106.2844                 
                
  22246000.727   116903541.150    22246004.637    91093685.6284                 
                
 21  8 15  1 30 20.0000000  0 14G 6G12G17R24R14R23G24R13G32G25R17R15
                                G 2G19
  21453273.594   112737716.330    21453282.504    87847609.5764   21453282.793  
                
  20690016.570   108726784.511    20690021.898    84722200.3234   20690022.172  
                
  24850919.367   130592467.902    24850925.586   101760394.1704   24850925.715  
                
  19355084.086   103500337.730                    80500266.536    19355088.086  
  19355082.949  
  19315639.242   102963241.066                    80082513.119    19315643.328  
  19315639.195  
  21607829.531   115587331.875                                                  
  21607827.418  
  20825817.148   109440426.017    20825825.855    85278283.8904   20825825.969  
                
  22520779.406   120259742.209                    93535357.498    22520781.988  
  22520777.352  
  24353761.602   127979881.261    24353770.082    99724607.0354   24353770.305  
                
  22731898.523   119456935.530    22731907.590    93083367.4134   22731907.961  
                
  20500560.750   109702654.009                    85324271.717    20500564.242  
  20500558.957  
  20791737.812   111104751.512                    86414802.331    20791741.770  
  20791737.980  
  21834452.109   114740826.008    21834456.371    89408453.0104                 
                
  22251675.938   116933364.596    22251679.879    91116924.6624                 
                
 21  8 15  1 30 30.0000000  0 14G 6G12G17R24R14R23G24R13G32G25R17R15
                                G 2G19
  21452832.633   112735399.089    21452841.535    87845803.9384   21452841.832  
                
  20687191.305   108711937.635    20687196.633    84710631.3294   20687196.898  
                
  24856960.273   130624213.079    24856966.551   101785130.6404   24856966.672  
                
  19356470.398   103507750.997                    80506032.406    19356474.391  
  19356469.242  
  19316490.820   102967780.428                    80086043.727    19316494.910  
  19316490.773  
  21614563.695   115623355.069                                                  
  21614561.594  
  20829163.578   109458011.589    20829172.281    85291986.9304   20829172.398  
                
  22527239.328   120294237.508                    93562187.177    22527241.895  
  22527237.258  
  24353018.039   127975973.878    24353026.484    99721562.3284   24353026.715  
                
  22726403.117   119428057.048    22726412.203    93060864.7024   22726412.586  
                
  20494444.562   109669925.129                    85298815.928    20494448.059  
  20494442.750  
  20786212.703   111075227.009                    86391838.824    20786216.676  
  20786212.871  
  21830883.273   114722071.697    21830887.500    89393839.2664                 
                
  22257356.008   116963213.595    22257359.926    91140183.6034                 
                
 21  8 15  1 30 40.0000000  0 14G 6G12G17R24R14R23G24R13G32G25R17R15
                                G 2G19
  21452404.883   112733151.232    21452413.785    87844052.3654   21452414.070  
                
  20684372.266   108697123.488    20684377.594    84699087.8394   20684377.848  
                
  24863001.055   130655957.597    24863007.363   101809866.6144   24863007.461  
                
  19357872.422   103515248.246                    80511863.600    19357876.418  
  19357871.250  
  19317354.148   102972382.406                    80089623.045    19317358.238  
  19317354.102  
  21621305.680   115659420.073                                                  
  21621303.605  
  20832520.703   109475653.376    20832529.402    85305733.7794   20832529.523  
                
  22533705.094   120328764.185                    93589041.238    22533707.672  
  22533703.004  
  24352285.969   127972126.803    24352294.367    99718564.6004   24352294.594  
                
  22720910.461   119399193.068    22720919.539    93038373.2974   22720919.930  
                
  20488339.297   109637254.623                    85273405.525    20488342.801  
  20488337.480  
  20780693.055   111045731.678                    86368898.028    20780697.039  
  20780693.219  
  21827324.164   114703368.384    21827328.352    89379265.2584                 
                
  22263040.945   116993088.142    22263044.824    91163462.4754                 
                
 21  8 15  1 30 50.0000000  0 14G 6G12G17R24R14R23G24R13G32G25R17R15
                                G 2G19
  21451990.242   112730972.313    21451999.148    87842354.5144   21451999.422  
                
  20681559.375   108682341.658    20681564.703    84687569.5334   20681564.957  
                
  24869041.641   130687701.063    24869047.945   101834601.7694   24869048.055  
                
  19359290.016   103522828.826                    80517759.616    19359294.008  
  19359288.836  
  19318229.125   102977046.473                    80093250.650    19318233.238  
  19318229.070  
  21628055.359   115695526.285                                                  
  21628053.312  
  20835888.430   109493350.913    20835897.141    85319524.0754   20835897.254  
                
  22540176.711   120363322.322                    93615919.756    22540179.293  
  22540174.590  
  24351565.289   127968339.622    24351573.629    99715613.5524   24351573.859  
                
  22715420.523   119370343.243    22715429.547    93015892.9224   22715429.953  
                
  20482244.922   109604642.401                    85248040.465    20482248.449  
  20482243.109  
  20775178.820   111016265.319                    86345979.752    20775182.797  
  20775178.969  
  21823774.680   114684715.712    21823778.848    89364730.7124                 
                
  22268730.664   117022987.826    22268734.531    91186760.9424                 
                
 21  8 15  1 31  0.0000000  0 14G 6G12G17R24R14R23G24R13G32G25R17R15
                                G 2G19
  21451588.750   112728862.483    21451597.641    87840710.4884   21451597.906  
                
  20678752.672   108667592.358    20678757.996    84676076.5654   20678758.242  
                
  24875082.023   130719443.488    24875088.305   101859336.1074   24875088.441  
                
  19360723.227   103530492.906                    80523720.577    19360727.223  
  19360722.043  
  19319115.773   102981772.777                    80096926.663    19319119.898  
  19319115.730  
  21634812.734   115731673.685                                                  
  21634810.715  
  20839266.773   109511104.266    20839275.504    85333357.8504   20839275.594  
                
  22546654.320   120397911.473                    93642822.447    22546656.793  
  22546652.047  
  24350856.039   127964612.450    24350864.324    99712709.2654   24350864.559  
                
  22709933.320   119341507.721    22709942.305    92993423.6814   22709942.730  
                
  20476161.453   109572088.522                    85222720.783    20476164.992  
  20476159.633  
  20769670.039   110986828.091                    86323084.136    20769674.016  
  20769670.176  
  21820234.883   114666113.898    21820239.062    89350235.7944                 
                
  22274425.180   117052912.760    22274429.082    91210079.0624                 
                
 21  8 15  1 31 10.0000000  0 14G 6G12G17R24R14R23G24R13G32G25R17R15
                                G 2G19
  21451200.406   112726821.750    21451209.273    87839120.3094   21451209.547  
                
  20675952.164   108652875.611    20675957.488    84664608.9704   20675957.730  
                
  24881122.164   130751184.743    24881128.406   101884069.5324   24881128.570  
                
  19362172.062   103538240.487                    80529746.472    19362176.035  
  19362170.871  
  19320014.133   102986561.483                    80100651.215    19320018.262  
  19320014.090  
  21641577.812   115767862.229                                                  
  21641575.816  
  20842655.734   109528913.375    20842664.492    85347235.0784   20842664.562  
                
  22553137.820   120432531.913                    93669749.468    22553140.129  
  22553135.402  
  24350158.195   127960945.278    24350166.430    99709851.7284   24350166.723  
                
  22704448.852   119312686.591    22704457.824    92970965.6474   22704458.270  
                
  20470088.898   109539593.055                    85197446.544    20470092.469  
  20470087.070  
  20764166.758   110957420.195                    86300211.330    20764170.742  
  20764166.863  
  21816704.758   114647562.957    21816708.945    89335780.5274                 
                
  22280124.484   117082862.770    22280128.434    91233416.7264                 
                
 21  8 15  1 31 20.0000000  0 13G 6G12R24R14R23G24R13G32G25R17R15G 2
                                G19
  21450825.273   112724850.468    21450834.121    87837584.2564   21450834.406  
                
  20673157.930   108638191.816    20673163.254    84653167.0514   20673163.504  
                
  19363636.516   103546071.654                    80535837.383    19363640.469  
  19363635.320  
  19320924.219   102991412.756                    80104424.419    19320928.355  
  19320924.176  
  21648350.562   115804091.887                                                  
  21648348.598  
  20846055.359   109546778.544    20846064.145    85361155.9814   20846064.203  
                
  22559627.008   120467183.459                    93696700.666    22559629.289  
  22559624.613  
  24349471.844   127957338.464    24349480.070    99707041.2124   24349480.391  
                
  22698967.156   119283880.154    22698976.098    92948519.0794   22698976.574  
                
  20464027.336   109507156.478                    85172218.106    20464030.938  
  20464025.496  
  20758669.023   110928042.020                    86277361.647    20758673.008  
  20758669.109  
  21813184.398   114629063.324    21813188.551    89321365.2264                 
                
  22285828.594   117112838.134    22285832.574    91256774.1474                 
                
 21  8 15  1 31 30.0000000  0 13G 6G12R24R14R23G24R13G32G25R17R15G 2
                                G19
  21450463.336   112722948.465    21450472.156    87836102.1734   21450472.453  
                
  20670369.930   108623540.813    20670375.266    84641750.6834   20670375.512  
                
  19365116.594   103553986.297                    80541993.223    19365120.539  
  19365115.383  
  19321846.078   102996326.713                    80108246.388    19321850.215  
  19321846.023  
  21655130.977   115840362.493                                                  
  21655129.020  
  20849465.609   109564699.505    20849474.406    85375120.3634   20849474.457  
                
  22566121.922   120501866.061                    93723676.034    22566124.266  
  22566119.621  
  24348796.945   127953791.799    24348805.199    99704277.6094   24348805.488  
                
  22693488.266   119255088.312    22693497.148    92926083.8774   22693497.660  
                
  20457976.805   109474778.869                    85147035.513    20457980.422  
  20457974.980  
  20753176.844   110898693.541                    86254535.058    20753180.840  
  20753176.926  
  21809673.773   114610614.854    21809677.902    89306989.7964                 
                
  22291537.484   117142838.576    22291541.488    91280151.0994                 
                
 21  8 15  1 31 40.0000000  0 13G 6G12R24R14R23G24R13G32G25R17R15G 2
                                G19
  21450114.523   112721115.508    21450123.328    87834673.9064   21450123.629  
                
  20667588.117   108608922.306    20667593.473    84630359.6534   20667593.699  
                
  19366612.195   103561984.021                    80548213.682    19366616.129  
  19366610.965  
  19322779.617   103001302.970                    80112116.806    19322783.754  
  19322779.570  
  21661918.961   115876673.635                                                  
  21661917.035  
  20852886.422   109582675.983    20852895.227    85389128.0054   20852895.273  
                
  22572622.695   120536579.717                    93750675.527    22572625.074  
  22572620.406  
  24348133.445   127950305.090    24348141.715    99701560.6804   24348141.973  
                
  22688012.102   119226310.888    22688020.992    92903659.9134   22688021.508  
                
  20451937.227   109442459.924                    85121898.566    20451940.840  
  20451935.383  
  20747690.180   110869374.524                    86231731.372    20747694.172  
  20747690.258  
  21806172.867   114592217.421    21806176.992    89292654.1404                 
                
  22297251.070   117172863.720    22297255.102    91303547.3194                 
                
 21  8 15  1 31 50.0000000  0 13G 6G12R24R14R23G24R13G32G25R17R15G 2
                                G19
  21449778.898   112719351.798    21449787.691    87833299.5864   21449787.996  
                
  20664812.555   108594336.643    20664817.922    84618994.1974   20664818.141  
                
  19368123.375   103570064.985                    80554498.884    19368127.309  
  19368122.137  
  19323724.898   103006341.806                    80116035.898    19323729.047  
  19323724.848  
  21668714.523   115913025.275                                                  
  21668712.633  
  20856317.820   109600708.111    20856326.652    85403179.0174   20856326.680  
                
  22579129.094   120571324.566                    93777699.297    22579131.719  
  22579127.027  
  24347481.391   127946878.484    24347489.688    99698890.5974   24347489.906  
                
  22682538.695   119197548.071    22682547.652    92881247.3484   22682548.148  
                
  20445908.711   109410200.097                    85096807.584    20445912.309  
  20445906.879  
  20742209.109   110840085.399                    86208950.940    20742213.098  
  20742209.188  
  21802681.703   114573871.207    21802685.793    89278358.3894                 
                
  22302969.391   117202913.738    22302973.469    91326962.9044                 
                
 21  8 15  1 32  0.0000000  0 13G 6G12R24R14R23G24R13G32G25R17R15G 2
                                G19
  21449456.453   112717657.318    21449465.246    87831979.2214   21449465.539  
                
  20662043.250   108579783.864    20662048.625    84607654.3754   20662048.836  
                
  19369650.078   103578229.021                    80560848.687    19369654.004  
  19369648.824  
  19324681.914   103011443.205                    80120003.660    19324686.074  
  19324681.852  
  21675517.641   115949417.296                                                  
  21675515.781  
  20859759.797   109618795.783    20859768.660    85417273.3014   20859768.668  
                
  22585641.336   120606100.129                    93804746.952    22585644.176  
  22585639.395  
  24346840.773   127943511.969    24346849.094    99696267.3434   24346849.301  
                
  22677068.102   119168799.907    22677077.031    92858846.1774   22677077.566  
                
  20439891.211   109377999.242                    85071762.481    20439894.797  
  20439889.387  
  20736733.633   110810826.108                    86186193.722    20736737.621  
  20736733.715  
  21799200.312   114555576.344    21799204.344    89264102.6564                 
                
  22308692.445   117232988.528    22308696.547    91350397.7964                 
                
 21  8 15  1 32 10.0000000  0 13G 6G12R24R14R23G24R13G32G25R17R15G 2
                                G19
  21449147.156   112716031.999    21449155.934    87830712.7384   21449156.230  
                
  20659280.180   108565263.892    20659285.566    84596340.1114   20659285.758  
                
  19371192.312   103586476.102                    80567263.084    19371196.227  
  19371191.070  
  19325650.672   103016607.196                    80124020.103    19325654.820  
  19325650.605  
  21682328.258   115985849.517                                                  
  21682326.414  
  20863212.312   109636938.901    20863221.203    85431410.7984   20863221.195  
                
  22592159.289   120640906.468                    93831818.547    22592162.324  
  22592157.469  
  24346211.578   127940205.456    24346219.930    99693690.8304   24346220.129  
                
  22671600.289   119140066.367    22671609.195    92836456.4024   22671609.734  
                
  20433884.766   109345857.604                    85046763.426    20433888.312  
  20433882.941  
  20731263.734   110781596.662                    86163459.703    20731267.703  
  20731263.820  
  21795728.688   114537332.840    21795732.680    89249886.9494                 
                
  22314420.172   117263087.946    22314424.273    91373851.8914                 
                
 21  8 15  1 32 20.0000000  0 13G 6G12R24R14R23G24R13G32G25R17R15G 2
                                G19
  21448851.039   112714475.898    21448859.785    87829500.1944   21448860.102  
                
  20656523.375   108550776.762    20656528.766    84585051.4364   20656528.957  
                
  19372750.031   103594805.959                    80573741.858    19372753.941  
  19372748.801  
  19326631.164   103021833.723                    80128085.167    19326635.301  
  19326631.098  
  21689146.359   116022321.837                                                  
  21689144.523  
  20866675.383   109655137.444    20866684.289    85445591.4724   20866684.273  
                
  22598683.047   120675743.534                    93858914.020    22598686.262  
  22598681.332  
  24345593.805   127936959.014    24345602.199    99691161.1494   24345602.379  
                
  22666135.266   119111347.511    22666144.195    92814078.0694   22666144.688  
                
  20427889.391   109313775.156                    85021810.400    20427892.906  
  20427887.559  
  20725799.477   110752397.342                    86140749.126    20725803.434  
  20725799.547  
  21792266.844   114519140.720    21792270.816    89235711.2634                 
                
  22320152.578   117293211.948    22320156.691    91397325.1304                 
                
 21  8 15  1 32 30.0000000  0 13G 6G12R24R14R23G24R13G32G25R17R15G 2
                                G19
  21448568.109   112712989.108    21448576.816    87828341.6554   21448577.176  
                
  20653772.836   108536322.623    20653778.230    84573788.4724   20653778.422  
                
  19374323.281   103603218.877                    80580285.246    19374327.180  
  19374322.070  
  19327623.438   103027123.091                    80132199.124    19327627.578  
  19327623.359  
  21695971.977   116058834.189                                                  
  21695970.148  
  20870149.008   109673391.432    20870157.914    85459815.3614   20870157.895  
                
  22605212.781   120710611.324                    93886033.428    22605215.879  
  22605210.969  
  24344987.484   127933772.714    24344995.848    99688678.3194   24344996.051  
                
  22660673.039   119082643.451    22660681.973    92791711.2754   22660682.477  
                
  20421905.117   109281752.172                    84996903.639    20421908.621  
  20421903.281  
  20720340.891   110723228.333                    86118062.112    20720344.840  
  20720340.961  
  21788814.789   114501000.090    21788818.730    89221575.7064                 
                
  22325889.656   117323360.532    22325893.816    91420817.5284                 
                
 21  8 15  1 32 40.0000000  0 13G 6G12R24R14R23G24R13G32G25R17R15G 2
                                G19
  21448298.359   112711571.570    21448307.047    87827237.0854   21448307.426  
                
  20651028.570   108521901.382    20651033.969    84562551.1454   20651034.160  
                
  19375912.039   103611714.680                    80586893.102    19375915.910  
  19375910.848  
  19328627.469   103032475.103                    80136361.795    19328631.605  
  19328627.387  
  21702805.016   116095386.277                                                  
  21702803.188  
  20873633.156   109691700.749    20873642.066    85474082.3564   20873642.047  
                
  22611748.117   120745509.850                    93913176.725    22611751.324  
  22611746.340  
  24344392.586   127930646.453    24344400.883    99686242.2764   24344401.129  
                
  22655213.648   119053954.218    22655222.539    92769356.0334   22655223.055  
                
  20415931.969   109249788.681                    84972043.144    20415935.477  
  20415930.141  
  20714887.984   110694089.679                    86095398.723    20714891.922  
  20714888.047  
  21785372.555   114482910.998    21785376.457    89207480.3094                 
                
  22331631.391   117353533.508    22331635.578    91444328.9334                 
                
 21  8 15  1 32 50.0000000  0 13G 6G12R24R14R23G24R13G32G25R17R15G 2
                                G19
  21448041.773   112710223.250    21448050.465    87826186.4534   21448050.828  
                
  20648290.562   108507513.119    20648295.977    84551339.5144   20648296.160  
                
  19377516.258   103620293.191                    80593565.289    19377520.125  
  19377515.078  
  19329643.266   103037889.888                    80140573.286    19329647.398  
  19329643.172  
  21709645.453   116131977.931                                                  
  21709643.648  
  20877127.812   109710065.307    20877136.734    85488392.4034   20877136.699  
                
  22618289.273   120780438.994                    93940343.820    22618292.480  
  22618287.430  
  24343809.117   127927580.272    24343817.402    99683853.0414   24343817.656  
                
  22649757.070   119025279.764    22649765.949    92747012.3114   22649766.480  
                
  20409969.961   109217884.814                    84947229.025    20409973.484  
  20409968.164  
  20709440.742   110664981.292                    86072758.850    20709444.688  
  20709440.820  
  21781940.109   114464873.443    21781944.000    89193425.0764                 
                
  22337377.734   117383730.779    22337381.922    91467859.2754                 
                
 21  8 15  1 33  0.0000000  0 13G 6G12R24R14R23G24R13G32G25R17R15G 2
                                G19
  21447798.406   112708944.332    21447807.109    87825189.8944   21447807.473  
                
  20645558.883   108493158.022    20645564.316    84540153.7274   20645564.500  
                
  19379135.969   103628954.509                    80600301.870    19379139.828  
  19379134.801  
  19330670.852   103043367.455                    80144833.618    19330674.996  
  19330670.746  
  21716493.297   116168609.170                                                  
  21716491.508  
  20880633.008   109728485.185    20880641.941    85502745.5524   20880641.898  
                
  22624836.211   120815398.940                    93967534.886    22624839.398  
  22624834.348  
  24343237.102   127924574.224    24343245.402    99681510.6734   24343245.656  
                
  22644303.359   118996620.342    22644312.336    92724680.3094   22644312.805  
                
  20404019.117   109186040.679                    84922461.363    20404022.656  
  20404017.336  
  20703999.281   110635903.725                    86050142.970    20704003.230  
  20703999.367  
  21778517.523   114446887.657    21778521.434    89179410.1724                 
                
  22343128.727   117413952.411    22343132.891    91491408.5924                 
                
 21  8 15  1 33 10.0000000  0 13G 6G12R24R14R23G24R13G32G25R17R15G 2
                                G19
  21447568.188   112707734.585    21447576.910    87824247.2284   21447577.270  
                
  20642833.469   108478835.919    20642838.918    84528993.6494   20642839.105  
                
  19380771.094   103637698.324                    80607102.619    19380774.949  
  19380769.914  
  19331710.219   103048907.889                    80149142.846    19331714.352  
  19331710.094  
  21723348.477   116205279.689                                                  
  21723346.656  
  20884148.680   109746960.170    20884157.617    85517141.6424   20884157.582  
                
  22631388.820   120850389.350                    93994749.658    22631391.977  
  22631386.984  
  24342676.492   127921628.184    24342684.824    99679215.0544   24342685.059  
                
  22638852.445   118967975.734    22638861.457    92702359.8354   22638861.922  
                
  20398079.461   109154256.371                    84897740.237    20398082.996  
  20398077.684  
  20698563.508   110606856.654                    86027550.808    20698567.480  
  20698563.613  
  21775104.766   114428953.568    21775108.691    89165435.5634                 
                
  22348884.297   117444198.146    22348888.430    91514976.7074                 
                
 21  8 15  1 33 20.0000000  0 13G 6G12R24R14R23G24R13G32G25R17R15G 2
                                G19
  21447351.156   112706594.116    21447359.898    87823358.5524   21447360.254  
                
  20640114.352   108464546.824    20640119.801    84517859.2894   20640119.984  
                
  19382421.680   103646524.738                    80613967.619    19382425.523  
  19382420.516  
  19332761.367   103054511.110                    80153500.899    19332765.492  
  19332761.219  
  21730210.953   116241989.300                                                  
  21730209.105  
  20887674.828   109765490.212    20887683.766    85531580.6394   20887683.738  
                
  22637947.180   120885410.113                    94021988.038    22637950.219  
  22637945.277  
  24342127.312   127918742.180    24342135.684    99676966.2294   24342135.898  
                
  22633404.398   118939346.096    22633413.395    92680051.0434   22633413.883  
                
  20392150.969   109122531.780                    84873065.567    20392154.504  
  20392149.184  
  20693133.508   110577840.384                    86004982.618    20693137.512  
  20693133.621  
  21771701.859   114411071.247    21771705.785    89151501.3004                 
                
  22354644.469   117474467.998    22354648.582    91538563.6014                 
                
 21  8 15  1 33 30.0000000  0 13G 6G12R24R14R23G24R13G32G25R17R15G 2
                                G19
  21447147.328   112705522.975    21447156.074    87822523.9094   21447156.422  
                
  20637401.555   108450290.946    20637407.000    84506750.8174   20637407.184  
                
  19384087.672   103655433.564                    80620896.708    19384091.504  
  19384086.512  
  19333824.344   103060177.338                    80157907.974    19333828.469  
  19333824.176  
  21737080.758   116278738.016                                                  
  21737078.914  
  20891211.477   109784075.373    20891220.410    85546062.5794   20891220.379  
                
  22644511.180   120920461.546                    94049250.300    22644514.273  
  22644509.328  
  24341589.578   127915916.278    24341598.008    99674764.2274   24341598.168  
                
  22627959.250   118910731.539    22627968.250    92657753.9814   22627968.707  
                
  20386233.695   109090867.257                    84848437.597    20386237.230  
  20386231.914  
  20687709.266   110548854.875                    85982438.320    20687713.277  
  20687709.363  
  21768308.844   114393240.849    21768312.781    89137607.4874                 
                
  22360409.219   117504761.988    22360413.344    91562169.3194                 
                
 21  8 15  1 33 40.0000000  0 13G 6G12R24R14R23G24R13G32G25R17R15G 2
                                G19
  21446956.648   112704520.964    21446965.363    87821743.1154   21446965.734  
                
  20634695.008   108436067.990    20634700.449    84495667.9904   20634700.641  
                
  19385769.031   103664424.582                    80627889.723    19385772.867  
  19385767.879  
  19334899.047   103065906.141                    80162363.708    19334903.160  
  19334898.848  
  21743957.789   116315525.428                                                  
  21743955.965  
  20894758.539   109802715.313    20894767.473    85560587.2054   20894767.438  
                
  22651080.570   120955542.930                    94076535.817    22651083.898  
  22651078.855  
  24341063.219   127913150.250    24341071.680    99672608.8844   24341071.816  
                
  22622516.898   118882131.836    22622525.871    92635468.4894   22622526.336  
                
  20380327.617   109059262.676                    84823856.261    20380331.172  
  20380325.859  
  20682290.781   110519900.153                    85959917.987    20682294.797  
  20682290.863  
  21764925.664   114375462.207    21764929.641    89123754.0134                 
                
  22366178.492   117535079.717    22366182.613    91585793.5134                 
                
 21  8 15  1 33 50.0000000  0 13G 6G12R24R14R23G24R13G32G25R17R15G 2
                                G19
  21446779.219   112703588.608    21446787.910    87821016.5994   21446788.297  
                
  20631994.852   108421878.611    20632000.301    84484611.3294   20632000.496  
                
  19387465.883   103673498.438                    80634947.179    19387469.719  
  19387464.750  
  19335985.625   103071698.239                    80166868.675    19335989.727  
  19335985.402  
  21750842.133   116352352.039                                                  
  21750840.309  
  20898316.125   109821410.565    20898325.051    85575154.9264   20898325.020  
                
  22657655.805   120990655.057                    94103845.235    22657659.250  
  22657654.172  
  24340548.352   127910444.643    24340556.789    99670500.5964   24340556.930  
                
  22617077.484   118853547.572    22617086.375    92613195.0534   22617086.883  
                
  20374432.852   109027718.631                    84799321.991    20374436.402  
  20374431.133  
  20676878.195   110490976.929                    85937422.150    20676882.207  
  20676878.289  
  21761552.469   114357736.000    21761556.477    89109941.3914                 
                
  22371952.367   117565421.670    22371956.484    91609436.5864                 
                
 21  8 15  1 34  0.0000000  0 13G 6G12R24R14R23G24R13G32G25R17R15G 2
                                G19
  21446614.984   112702725.532    21446623.664    87820344.0894   21446624.062  
                
  20629301.016   108407722.408    20629306.473    84473580.5254   20629306.672  
                
  19389178.094   103682654.370                    80642068.454    19389181.926  
  19389176.988  
  19337084.047   103077553.440                    80171422.709    19337088.145  
  19337083.777  
  21757733.695   116389217.189                                                  
  21757731.906  
  20901884.148   109840160.658    20901893.051    85589765.3894   20901893.039  
                
  22664236.812   121025797.361                    94131178.120    22664240.285  
  22664235.172  
  24340044.922   127907799.065    24340053.320    99668439.1024   24340053.465  
                
  22611640.961   118824978.479    22611649.801    92590933.4034   22611650.332  
                
  20368549.383   108996234.928                    84774834.665    20368552.949  
  20368547.676  
  20671471.453   110462084.937                    85914950.603    20671475.457  
  20671471.574  
  21758189.180   114340061.827    21758193.191    89096169.2994                 
                
  22377730.758   117595787.324    22377734.914    91633098.1274                 
                
 21  8 15  1 34 10.0000000  0 13G 6G12R24R14R23G24R13G32G25R17R15G 2
                                G19
  21446463.922   112701931.688    21446472.602    87819725.5024   21446472.988  
                
  20626613.508   108393599.451    20626618.977    84462575.6204   20626619.172  
                
  19390905.641   103691892.317                    80649253.526    19390909.469  
  19390904.559  
  19338194.242   103083471.473                    80176025.631    19338198.336  
  19338193.941  
  21764632.398   116426120.645                                                  
  21764630.648  
  20905462.586   109858965.478    20905471.453    85604418.4884   20905471.469  
                
  22670823.352   121060969.810                    94158534.484    22670827.023  
  22670821.832  
  24339552.875   127905213.409    24339561.234    99666424.3114   24339561.387  
                
  22606207.297   118796424.419    22606216.145    92568683.5224   22606216.652  
                
  20362677.164   108964811.452                    84750394.191    20362680.723  
  20362675.473  
  20666070.523   110433224.002                    85892503.206    20666074.496  
  20666070.676  
  21754835.773   114322439.609    21754839.785    89082437.7044                 
                
  22383513.617   117626176.514    22383517.820    91656778.0034                 
                
 21  8 15  1 34 20.0000000  0 13G 6G12R24R14R23G24R13G32G25R17R15G 2
                                G19
  21446326.031   112701207.108    21446334.723    87819160.8934   21446335.105  
                
  20623932.328   108379509.815    20623937.816    84451596.6844   20623938.008  
                
  19392648.539   103701212.378                    80656502.482    19392652.363  
  19392647.488  
  19339316.273   103089452.544                    80180677.576    19339320.348  
  19339315.934  
  21771538.273   116463062.426                                                  
  21771536.535  
  20909051.438   109877824.986    20909060.285    85619114.2124   20909060.320  
                
  22677415.688   121096172.420                    94185914.261    22677419.391  
  22677414.152  
  24339072.250   127902687.761    24339080.570    99664456.2554   24339080.746  
                
  22600776.531   118767885.570    22600785.371    92546445.4514   22600785.863  
                
  20356816.250   108933448.487                    84726000.775    20356819.836  
  20356814.566  
  20660675.469   110404394.443                    85870080.212    20660679.422  
  20660675.637  
  21751492.305   114304869.571    21751496.352    89068746.7724                 
                
  22389300.977   117656589.271    22389305.223    91680476.2724                 
                
 21  8 15  1 34 30.0000000  0 13G 6G12R24R14R23G24R13G32G25R17R15G 2
                                G19
  21446201.328   112700551.787    21446210.012    87818650.2534   21446210.402  
                
  20621257.508   108365453.508    20621263.016    84440643.7214   20621263.191  
                
  19394406.766   103710614.371                    80663815.155    19394410.582  
  19394405.719  
  19340450.117   103095496.612                    80185378.510    19340454.164  
  19340449.754  
  21778451.266   116500042.301                                                  
  21778449.523  
  20912650.688   109896739.161    20912659.523    85633852.5224   20912659.566  
                
  22684013.781   121131404.980                    94213317.362    22684017.273  
  22684012.113  
  24338603.047   127900222.070    24338611.328    99662534.9484   24338611.520  
                
  22595348.688   118739361.943    22595357.508    92524219.2474   22595357.996  
                
  20350966.664   108902146.131                    84701654.498    20350970.266  
  20350964.984  
  20655286.312   110375596.381                    85847681.723    20655290.246  
  20655286.484  
  21748158.758   114287351.667    21748162.867    89055096.4584                 
                
  22395092.820   117687025.653    22395097.113    91704192.9074                 
                
 21  8 15  1 34 40.0000000  0 13G 6G12R24R14R23G24R13G32G25R17R15G 2
                                G19
  21446089.797   112699965.686    21446098.457    87818193.5404   21446098.844  
                
  20618589.000   108351430.454    20618594.520    84429716.6634   20618594.688  
                
  19396180.250   103720097.979                    80671191.288    19396184.070  
  19396179.203  
  19341595.773   103101603.623                    80190128.398    19341599.812  
  19341595.371  
  21785371.359   116537060.121                                                  
  21785369.586  
  20916260.305   109915707.839    20916269.121    85648633.3114   20916269.180  
                
  22690617.500   121166667.329                    94240743.646    22690620.773  
  22690615.617  
  24338145.234   127897816.262    24338153.492    99660660.2804   24338153.719  
                
  22589923.719   118710853.538    22589932.570    92502004.8934   22589933.051  
                
  20345128.367   108870904.263                    84677355.266    20345131.984  
  20345126.676  
  20649903.062   110346829.882                    85825307.759    20649906.988  
  20649903.246  
  21744835.148   114269886.006    21744839.289    89041486.8514                 
                
  22400889.156   117717485.568    22400893.516    91727927.8964                 
                
 21  8 15  1 34 50.0000000  0 13G 6G12R24R14R23G24R13G32G25R17R15G 2
                                G19
  21445991.477   112699449.037    21446000.109    87817790.9624   21446000.504  
                
  20615926.891   108337440.967    20615932.426    84418815.7674   20615932.590  
                
  19397969.094   103729663.719                    80678631.307    19397972.906  
  19397968.039  
  19342753.305   103107773.977                    80194927.566    19342757.332  
  19342752.879  
  21792298.547   116574115.857                                                  
  21792296.785  
  20919880.344   109934731.253    20919889.137    85663456.7504   20919889.215  
                
  22697226.430   121201959.851                    94268193.369    22697229.922  
  22697224.754  
  24337698.883   127895470.642    24337707.145    99658832.5374   24337707.395  
                
  22584501.680   118682360.573    22584510.582    92479802.6064   22584511.035  
                
  20339301.469   108839723.332                    84653103.433    20339305.094  
  20339299.770  
  20644525.766   110318095.212                    85802958.580    20644529.680  
  20644525.961  
  21741521.539   114252472.836    21741525.695    89027918.1514                 
                
  22406689.945   117747968.905    22406694.352    91751681.1564                 
                
 21  8 15  1 35  0.0000000  0 13G 6G12R24R14R23G24R13G32G25R17R15G 2
                                G19
  21445906.359   112699001.736    21445914.949    87817442.4204   21445915.371  
                
  20613271.133   108323484.913    20613276.684    84407940.9134   20613276.836  
                
  19399773.219   103739311.181                    80686134.902    19399777.027  
  19399772.156  
  19343922.688   103114007.512                    80199775.862    19343926.711  
  19343922.230  
  21799232.781   116611209.290                                                  
  21799231.023  
  20923510.758   109953809.187    20923519.539    85678322.6704   20923519.637  
                
  22703841.297   121237282.361                    94295666.413    22703844.730  
  22703839.543  
  24337263.945   127893185.004    24337272.168    99657051.5224   24337272.438  
                
  22579082.578   118653883.043    22579091.453    92457612.3284   22579091.938  
                
  20333485.953   108808603.358                    84628899.019    20333489.582  
  20333484.254  
  20639154.422   110289392.388                    85780634.151    20639158.328  
  20639154.629  
  21738217.891   114235112.074    21738222.078    89014390.2854                 
                
  22412495.156   117778475.470    22412499.578    91775452.4954                 
                
 21  8 15  1 35 10.0000000  0 13G 6G12R24R14R23G24R13G32G25R17R15G 2
                                G19
  21445834.430   112698623.760    21445842.969    87817147.8924   21445843.414  
                
  20610621.750   108309562.313    20610627.332    84397092.1404   20610627.469  
                
  19401592.672   103749040.623                    80693702.253    19401596.469  
  19401591.609  
  19345103.922   103120304.208                    80204673.296    19345107.953  
  19345103.422  
  21806174.047   116648340.355                                                  
  21806172.270  
  20927151.531   109972941.580    20927160.324    85693231.0254   20927160.410  
                
  22710461.844   121272634.835                    94323162.790    22710465.148  
  22710459.949  
  24336840.422   127890959.364    24336848.566    99655317.2484   24336848.871  
                
  22573666.414   118625420.934    22573675.293    92435434.0634   22573675.781  
                
  20327681.844   108777544.350                    84604741.998    20327685.453  
  20327680.145  
  20633789.062   110260721.538                    85758334.621    20633792.984  
  20633789.250  
  21734924.227   114217803.783    21734928.453    89000903.3164                 
                
  22418304.797   117809005.275    22418309.242    91799241.9354                 
                
 21  8 15  1 35 20.0000000  0 13G 6G12R24R14R23G24R13G32G25R17R15G 2
                                G19
  21445775.664   112698314.960    21445784.152    87816907.2674   21445784.613  
                
  20607978.727   108295673.156    20607984.340    84386269.4184   20607984.457  
                
  19403427.281   103758851.128                    80701332.649    19403431.074  
  19403426.203  
  19346296.977   103126663.934                    80209619.748    19346301.004  
  19346296.449  
  21813122.273   116685508.585                                                  
  21813120.484  
  20930802.633   109992128.219    20930811.453    85708181.6494   20930811.508  
                
  22717087.859   121308016.992                    94350682.250    22717091.117  
  22717085.934  
  24336428.297   127888793.551    24336436.332    99653629.5984   24336436.652  
                
  22568253.172   118596974.167    22568262.059    92413267.7554   22568262.527  
                
  20321889.125   108746546.290                    84580632.387    20321892.707  
  20321887.422  
  20628429.672   110232082.589                    85736059.889    20628433.613  
  20628429.855  
  21731640.539   114200547.893    21731644.801    88987457.1674                 
                
  22424118.797   117839558.030    22424123.250    91823049.2814                 
                
 21  8 15  1 35 30.0000000  0 13G 6G12R24R14R23G24R13G32G25R17R15G 2
                                G19
  21445730.125   112698075.640    21445738.578    87816720.7914   21445739.059  
                
  20605342.125   108281817.737    20605347.781    84375472.9894   20605347.879  
                
  19405277.203   103768743.541                    80709026.749    19405280.996  
  19405276.129  
  19347501.930   103133087.103                    80214615.552    19347505.953  
  19347501.387  
  21820077.500   116722714.340                                                  
  21820075.699  
  20934464.094   110011369.317    20934472.930    85723174.7124   20934472.977  
                
  22723719.258   121343428.966                    94378224.879    22723722.652  
  22723717.449  
  24336027.602   127886687.861    24336035.531    99651988.8004   24336035.863  
                
  22562842.906   118568543.054    22562851.754    92391113.6424   22562852.246  
                
  20316107.867   108715609.584                    84556570.507    20316111.434  
  20316106.184  
  20623076.336   110203476.015                    85713810.328    20623080.277  
  20623076.516  
  21728366.883   114183344.741    21728371.168    88974052.1244                 
                
  22429937.219   117870133.971    22429941.680    91846874.6914                 
                
 21  8 15  1 35 40.0000000  0 13G 6G12R24R14R23G24R13G32G25R17R15G 2
                                G19
  21445697.742   112697905.496    21445706.172    87816588.2164   21445706.660  
                
  20602711.891   108267995.813    20602717.586    84364702.6594   20602717.664  
                
  19407142.328   103778717.200                    80716784.047    19407146.121  
  19407141.266  
  19348718.711   103139573.289                    80219660.365    19348722.715  
  19348718.137  
  21827039.617   116759957.023                                                  
  21827037.805  
  20938135.852   110030664.530    20938144.688    85738209.9374   20938144.734  
                
  22730356.367   121378870.552                    94405790.552    22730359.625  
  22730354.508  
  24335638.297   127884641.991    24335646.133    99650394.6324   24335646.496  
                
  22557435.578   118540127.358    22557444.422    92368971.5444   22557444.910  
                
  20310338.047   108684734.059                    84532556.209    20310341.582  
  20310336.379  
  20617729.008   110174901.508                    85691585.709    20617732.945  
  20617729.191  
  21725103.227   114166194.145    21725107.523    88960688.0214                 
                
  22435759.992   117900732.758    22435764.461    91870717.8834                 
                
 21  8 15  1 35 50.0000000  0 13G 6G12R24R14R23G24R13G32G25R17R15G 2
                                G19
  21445678.570   112697804.765    21445686.980    87816509.7204   21445687.469  
                
  20600088.070   108254207.546    20600093.801    84353958.5564   20600093.855  
                
  19409022.695   103788772.321                    80724604.697    19409026.488  
  19409021.648  
  19349947.398   103146122.911                    80224754.499    19349951.391  
  19349946.812  
  21834008.680   116797236.796                                                  
  21834006.875  
  20941817.945   110050014.043    20941826.789    85753287.4764   20941826.836  
                
  22736998.836   121414341.695                    94433379.207    22737002.176  
  22736997.129  
  24335260.414   127882656.167    24335268.199    99648847.2354   24335268.562  
                
  22552031.242   118511727.354    22552040.137    92346841.6774   22552040.574  
                
  20304579.695   108653919.972                    84508589.688    20304583.238  
  20304578.020  
  20612387.750   110146359.419                    85669386.302    20612391.680  
  20612387.918  
  21721849.641   114149096.439    21721853.953    88947365.1404                 
                
  22441587.133   117931354.523    22441591.594    91894578.9884                 
                
 21  8 15  1 36  0.0000000  0 13G 6G12R24R14R23G24R13G32G25R17R15G 2
                                G19
  21445672.602   112697773.407    21445680.988    87816485.2844   21445681.473  
                
  20597470.656   108240452.978    20597476.414    84343240.7134   20597476.465  
                
  19410918.258   103798908.728                    80732488.571    19410922.043  
  19410917.227  
  19351187.969   103152735.908                    80229897.947    19351191.945  
  19351187.375  
  21840984.633   116834553.365                                                  
  21840982.855  
  20945510.344   110069417.736    20945519.188    85768407.2354   20945519.246  
                
  22743647.109   121449842.186                    94460990.711    22743650.223  
  22743645.246  
  24334893.945   127880730.312    24334901.727    99647346.5904   24334902.066  
                
  22546629.883   118483343.005    22546638.754    92324724.0074   22546639.184  
                
  20298832.836   108623167.405                    84484671.035    20298836.387  
  20298831.133  
  20607052.562   110117849.831                    85647212.185    20607056.500  
  20607052.734  
  21718606.102   114132051.535    21718610.434    88934083.4024                 
                
  22447418.617   117961999.152    22447423.059    91918457.9194                 
                
 21  8 15  1 36 10.0000000  0 13G 6G12R24R14R23G24R13G32G25R17R15G 2
                                G19
  21445679.820   112697811.337    21445688.188    87816514.8384   21445688.676  
                
  20594859.656   108226732.088    20594865.422    84332549.1154   20594865.469  
                
  19412829.000   103809126.300                    80740435.582    19412832.781  
  19412827.969  
  19352440.430   103159412.238                    80235090.644    19352444.398  
  19352439.828  
  21847967.422   116871906.479                                                  
  21847965.637  
  20949213.039   110088875.485    20949221.859    85783569.1114   20949221.926  
                
  22750300.883   121485372.424                    94488625.330    22750303.902  
  22750298.906  
  24334538.883   127878864.349    24334546.656    99645892.6074   24334546.973  
                
  22541231.531   118454974.346    22541240.402    92302618.5614   22541240.832  
                
  20293097.461   108592476.307                    84460800.177    20293101.020  
  20293095.746  
  20601723.477   110089372.793                    85625063.382    20601727.410  
  20601723.664  
  21715372.602   114115059.369    21715376.938    88920842.7604                 
                
  22453254.430   117992666.475    22453258.852    91942354.5224                 
                
 21  8 15  1 36 20.0000000  0 13G 6G12R24R14R23G24R13G32G25R17R15G 2
                                G19
  21445700.211   112697918.551    21445708.539    87816598.3814   21445709.047  
                
  20592255.070   108213044.898    20592260.828    84321883.7694   20592260.879  
                
  19414754.898   103819424.915                    80748445.609    19414758.668  
  19414753.855  
  19353704.773   103166151.936                    80240332.636    19353708.738  
  19353704.164  
  21854957.031   116909296.114                                                  
  21854955.195  
  20952925.992   110108387.209    20952934.793    85798773.0504   20952934.879  
                
  22756960.117   121520932.238                    94516282.963    22756963.102  
  22756958.098  
  24334195.211   127877058.278    24334202.938    99644485.3004   24334203.301  
                
  22535836.117   118426621.347    22535845.031    92280525.3094   22535845.422  
                
  20287373.602   108561846.859                    84436977.276    20287377.172  
  20287371.879  
  20596400.516   110060928.510                    85602940.043    20596404.469  
  20596400.723  
  21712149.141   114098120.029    21712153.480    88907643.2804                 
                
  22459094.539   118023356.393    22459098.922    91966268.7564                 
                
 21  8 15  1 36 30.0000000  0 13G 6G12R24R14R23G24R13G32G25R17R15G 2
                                G19
  21445733.797   112698095.086    21445742.082    87816735.9464   21445742.609  
                
  20589656.922   108199391.521    20589662.664    84311244.7774   20589662.738  
                
  19416695.945   103829804.593                    80756518.693    19416699.707  
  19416694.898  
  19354981.008   103172955.025                    80245623.930    19354984.949  
  19354980.414  
  21861953.445   116946722.204                                                  
  21861951.578  
  20956649.219   110127952.887    20956658.004    85814019.0294   20956658.090  
                
  22763624.812   121556521.527                    94543963.500    22763627.809  
  22763622.777  
  24333862.945   127875312.123    24333870.664    99643124.6484   24333871.070  
                
  22530443.719   118398284.121    22530452.664    92258444.3784   22530453.035  
                
  20281661.320   108531279.269                    84413202.493    20281664.906  
  20281659.570  
  20591083.688   110032516.990                    85580842.212    20591087.668  
  20591083.879  
  21708935.758   114081233.599    21708940.082    88894485.0294                 
                
  22464938.945   118054068.862    22464943.316    91990200.5464                 
                
 21  8 15  1 36 40.0000000  0 13G 6G12R24R14R23G24R13G32G25R17R15G 2
                                G19
  21445780.609   112698341.079    21445788.859    87816927.6344   21445789.414  
                
  20587065.219   108185772.071    20587070.945    84300632.2184   20587071.031  
                
  19418652.133   103840265.252                    80764654.766    19418655.891  
  19418651.062  
  19356269.172   103179821.661                    80250964.648    19356273.105  
  19356268.590  
  21868956.625   116984184.491                                                  
  21868954.809  
  20960382.727   110147572.594    20960391.492    85829307.1154   20960391.594  
                
  22770294.766   121592139.968                    94571666.736    22770297.992  
  22770292.930  
  24333542.094   127873626.009    24333549.848    99641810.7774   24333550.250  
                
  22525054.375   118369962.865    22525063.234    92236375.8394   22525063.633  
                
  20275960.586   108500773.541                    84389475.818    20275964.195  
  20275958.820  
  20585773.023   110004138.469                    85558770.030    20585777.008  
  20585773.207  
  21705732.492   114064400.298    21705736.789    88881368.1714                 
                
  22470787.625   118084803.872    22470791.973    92014149.8934                 
                
 21  8 15  1 36 50.0000000  0 13G 6G12R24R14R23G24R13G32G25R17R15G 2
                                G19
  21445840.602   112698656.361    21445848.828    87817173.3094   21445849.391  
                
  20584479.961   108172186.463    20584485.668    84290046.0284   20584485.777  
                
  19420623.461   103850806.880                    80772853.811    19420627.207  
  19420622.371  
  19357569.227   103186751.710                    80256354.686    19357573.152  
  19357568.648  
  21875966.555   117021682.851                                                  
  21875964.785  
  20964126.469   110167246.081    20964135.211    85844637.1024   20964135.328  
                
  22776970.234   121627787.565                    94599392.655    22776973.609  
  22776968.566  
  24333232.633   127871999.726    24333240.457    99640543.5424   24333240.828  
                
  22519668.008   118341657.383    22519676.812    92214319.6414   22519677.223  
                
  20270271.438   108470329.813                    84365797.363    20270275.062  
  20270269.637  
  20580468.531   109975792.906                    85536723.478    20580472.527  
  20580468.711  
  21702539.297   114047619.966    21702543.559    88868292.5904                 
                
