     2.11           OBSERVATION DATA    M (MIXED)           RINEX VERSION / TYPE
EFT-CORS.RU                             20210817 150553 UTC PGM / RUN BY / DATE 
MDNG                                                        MARKER NAME         
                                                            MARKER NUMBER       
MDNG                EFT-CORS.RU                             OBSERVER / AGENCY   
0                   TRIMBLE BD970       2.0                 REC # / TYPE / VERS 
0                   UNKNOWN EXT NONE                        ANT # / TYPE        
  3463911.2830  3030468.2400  4402179.3760                  APPROX POSITION XYZ 
        0.0000        0.0000        0.0000                  ANTENNA: DELTA H/E/N
     1     1                                                WAVELENGTH FACT L1/2
     6    C1    L1    P2    L2    C2    P1                  # / TYPES OF OBSERV 
    10.000                                                  INTERVAL            
  2021     8    14     5    30    0.0000000     GPS         TIME OF FIRST OBS   
  2021     8    14     6    30    0.0000000     GPS         TIME OF LAST OBS    
     0                                                      RCV CLOCK OFFS APPL 
                                                            END OF HEADER       
 21  8 14  5 30  0.0000000  0 15G26R 1R16R 2G20G29G18R15G 5G12G31R24
                                R18R17G25
  22531495.172   118403803.898    22531505.062    92262758.8204   22531504.969  
                
  22463133.422   120078333.846                    93394278.281    22463139.316  
  22463132.578  
  20797911.625   111098722.636                    86410142.701    20797914.016  
  20797911.250  
  22333808.969   119177483.567                    92693632.406    22333813.836  
  22333806.953  
  22907402.016   120379208.461    22907408.395    93802008.4364                 
                
  20483618.664   107642143.083    20483625.340    83877023.9054   20483625.582  
                
  21203659.320   111425984.026    21203666.277    86825482.6184   21203666.461  
                
  20596233.953   110060011.073                    85602224.907    20596238.961  
  20596234.074  
  21400553.094   112460671.286    21400559.543    87631731.9904   21400559.746  
                
  24535005.664   128932292.208    24535014.410   100466745.5564   24535014.684  
                
  23725922.688   124680544.048    23725930.219    97153687.4624   23725930.637  
                
  23055988.758   123290706.666                    95892767.440    23055993.879  
  23055987.562  
  20528808.742   109584175.090                    85232138.393    20528812.609  
  20528807.164  
  19747085.000   105670632.555                    82188265.392    19747088.684  
  19747083.168  
  21950187.109   115348990.575    21950197.035    89882368.4544   21950197.676  
                
 21  8 14  5 30 10.0000000  0 15G26R 1R16R 2G20G29G18R15G 5G12G31R24
                                R18R17G25
  22526762.625   118378934.157    22526772.531    92243379.7934   22526772.410  
                
  22464463.719   120085444.493                    93399808.795    22464469.473  
  22464462.789  
  20795601.250   111086380.979                    86400543.637    20795603.629  
  20795600.879  
  22327875.172   119145820.073                    92669005.286    22327880.059  
  22327873.188  
  22911562.398   120401071.322    22911568.785    93819044.4254                 
                
  20484222.273   107645315.066    20484228.953    83879495.5814   20484229.191  
                
  21199638.023   111404851.982    21199644.977    86809016.0934   21199645.172  
                
  20601904.109   110090310.624                    85625791.218    20601909.133  
  20601904.238  
  21400572.227   112460771.827    21400578.676    87631810.3384   21400578.879  
                
  24542316.188   128970708.838    24542324.855   100496680.5574   24542325.141  
                
  23729813.133   124700988.380    23729820.715    97169618.0814   23729821.098  
                
  23061919.992   123322423.368                    95917435.985    23061925.098  
  23061918.781  
  20525656.117   109567346.178                    85219049.242    20525659.957  
  20525654.543  
  19749321.000   105682597.830                    82197571.713    19749324.695  
  19749319.156  
  21956139.992   115380273.157    21956149.914    89906744.4824   21956150.566  
                
 21  8 14  5 30 20.0000000  0 15G26R 1R16R 2G20G29G18R15G 5G12G31R24
                                R18R17G25
  22522038.172   118354107.003    22522048.094    92224033.9694   22522047.949  
                
  22465809.992   120092641.054                    93405406.120    22465815.715  
  22465809.066  
  20793307.117   111074126.147                    86391012.108    20793309.473  
  20793306.754  
  22321950.188   119114203.045                    92644414.286    22321955.012  
  22321948.172  
  22915732.156   120422983.495    22915738.535    93836118.8334                 
                
  20484832.664   107648522.704    20484839.348    83881995.0314   20484839.586  
                
  21195624.492   111383760.756    21195631.473    86792581.3784   21195631.641  
                
  20607586.492   110120675.502                    85649408.341    20607591.516  
  20607586.645  
  21400604.914   112460943.600    21400611.367    87631944.1874   21400611.574  
                
  24549628.477   129009135.274    24549637.152   100526623.2134   24549637.449  
                
  23733711.281   124721473.199    23733718.914    97185580.2744   23733719.250  
                
  23067851.445   123354141.805                    95942105.866    23067856.672  
  23067850.250  
  20522509.945   109550551.737                    85205986.911    20522513.762  
  20522508.375  
  19751563.117   105694595.848                    82206903.502    19751566.828  
  19751561.270  
  21962099.773   115411592.007    21962109.719    89931148.7674   21962110.367  
                
 21  8 14  5 30 30.0000000  0 15G26R 1R16R 2G20G29G18R15G 5G12G31R24
                                R18R17G25
  22517321.844   118329322.500    22517331.754    92204721.3714   22517331.609  
                
  22467172.391   120099923.543                    93411070.293    22467178.027  
  22467171.445  
  20791029.188   111061957.856                    86381547.878    20791031.543  
  20791028.820  
  22316033.938   119082632.830                    92619859.690    22316038.723  
  22316031.914  
  22919911.281   120444944.851    22919917.648    93853231.5674                 
                
  20485449.844   107651765.958    20485456.535    83884522.2384   20485456.773  
                
  21191618.727   111362710.308    21191625.730    86776178.4344   21191625.887  
                
  20613281.078   110151105.590                    85673076.176    20613286.102  
  20613281.242  
  21400651.141   112461186.525    21400657.605    87632133.4844   21400657.801  
                
  24556942.672   129047571.353    24556951.285   100556573.3694   24556951.621  
                
  23737617.094   124741998.346    23737624.770    97201573.8864   23737625.090  
                
  23073783.141   123385861.727                    95966776.877    23073788.523  
  23073782.020  
  20519370.180   109533791.431                    85192951.103    20519373.957  
  20519368.586  
  19753811.312   105706626.397                    82216260.587    19753815.023  
  19753809.445  
  21968066.438   115442946.977    21968076.398    89955581.1964   21968077.051  
                
 21  8 14  5 30 40.0000000  0 15G26R 1R16R 2G20G29G18R15G 5G12G31R24
                                R18R17G25
  22512613.625   118304580.606    22512623.539    92185441.9864   22512623.387  
                
  22468550.820   120107291.891                    93416801.198    22468556.422  
  22468549.883  
  20788767.516   111049876.375                    86372151.173    20788769.891  
  20788767.156  
  22310126.359   119051109.065                    92595341.231    22310131.117  
  22310124.355  
  22924099.711   120466955.179    22924106.082    93870382.4674                 
                
  20486073.773   107655044.761    20486080.477    83887077.1504   20486080.711  
                
  21187620.695   111341700.565    21187627.715    86759807.2144   21187627.859  
                
  20618987.797   110181600.588                    85696794.494    20618992.824  
  20618987.949  
  21400710.883   112461500.484    21400717.367    87632378.1324   21400717.559  
                
  24564258.664   129086016.879    24564267.191   100586530.8944   24564267.562  
                
  23741530.555   124762563.726    23741538.254    97217598.8404   23741538.562  
                
  23079715.172   123417583.211                    95991449.124    23079720.633  
  23079714.082  
  20516236.812   109517065.362                    85179941.945    20516240.594  
  20516235.215  
  19756065.594   105718689.511                    82225643.005    19756069.312  
  19756063.734  
  21974039.938   115474337.879    21974049.918    89980041.6364   21974050.574  
                
 21  8 14  5 30 50.0000000  0 15G26R 1R16R 2G20G29G18R15G 5G12G31R24
                                R18R17G25
  22507913.508   118279881.314    22507923.438    92166195.7894   22507923.266  
                
  22469945.273   120114745.839                    93422598.730    22469950.844  
  22469944.359  
  20786522.055   111037881.517                    86362821.843    20786524.398  
  20786521.695  
  22304227.609   119019632.400                    92570859.388    22304232.387  
  22304225.617  
  22928297.445   120489014.346    22928303.855    93887571.4094                 
                
  20486704.453   107658358.964    20486711.168    83889659.6364   20486711.398  
                
  21183630.398   111320731.433    21183637.414    86743467.6304   21183637.559  
                
  20624706.625   110212160.232                    85720563.098    20624711.648  
  20624706.781  
  21400784.148   112461885.485    21400790.648    87632678.1324   21400790.828  
                
  24571576.391   129124471.637    24571584.855   100616495.6114   24571585.254  
                
  23745451.617   124783169.092    23745459.312    97233654.9554   23745459.625  
                
  23085647.422   123449305.961                    96016122.350    23085653.023  
  23085646.391  
  20513109.812   109500373.234                    85166959.196    20513113.582  
  20513108.223  
  19758325.938   105730785.008                    82235050.606    19758329.672  
  19758324.070  
  21980020.242   115505764.512    21980030.246    90004529.9114   21980030.910  
                
 21  8 14  5 31  0.0000000  0 15G26R 1R16R 2G20G29G18R15G 5G12G31R24
                                R18R17G25
  22503221.539   118255224.888    22503231.488    92146982.9914   22503231.309  
                
  22471355.727   120122285.578                    93428462.951    22471361.363  
  22471354.828  
  20784292.867   111025973.622                    86353560.141    20784295.211  
  20784292.516  
  22298337.742   118988202.644                    92546414.043    22298342.449  
  22298335.676  
  22932504.484   120511122.434    22932510.945    93904798.4864                 
                
  20487341.891   107661708.731    20487348.613    83892269.8464   20487348.836  
                
  21179647.867   111299803.124    21179654.891    86727159.8574   21179655.031  
                
  20630437.547   110242784.535                    85744381.998    20630442.574  
  20630437.719  
  21400870.922   112462341.522    21400877.434    87633033.4894   21400877.605  
                
  24578895.914   129162935.827    24578904.344   100646467.6654   24578904.766  
                
  23749380.297   124803814.542    23749388.000    97249742.2964   23749388.293  
                
  23091579.984   123481030.269                    96040796.793    23091585.664  
  23091578.961  
  20509989.211   109483715.323                    85154003.036    20509992.973  
  20509987.645  
  19760592.328   105742912.906                    82244483.422    19760596.059  
  19760590.461  
  21986007.359   115537227.009    21986017.379    90029046.1284   21986018.043  
                
 21  8 14  5 31 10.0000000  0 15G26R 1R16R 2G20G29G18R15G 5G12G31R24
                                R18R17G25
  22498537.734   118230611.314    22498547.699    92127803.5954   22498547.512  
                
  22472782.141   120129910.885                    93434393.742    22472787.859  
  22472781.246  
  20782079.977   111014152.765                    86344366.138    20782082.301  
  20782079.645  
  22292456.625   118956820.160                    92522005.470    22292461.367  
  22292454.613  
  22936720.805   120533279.249    22936727.285    93922063.5264                 
                
  20487986.094   107665094.030    20487992.832    83894907.7394   20487993.055  
                
  21175673.086   111278915.560    21175680.129    86710883.8414   21175680.262  
                
  20636180.539   110273473.341                    85768251.060    20636185.562  
  20636180.715  
  21400971.211   112462868.540    21400977.734    87633444.1564   21400977.918  
                
  24586217.180   129201409.112    24586225.590   100676446.8104   24586226.000  
                
  23753316.555   124824499.784    23753324.266    97265860.6574   23753324.531  
                
  23097512.883   123512755.981                    96065472.314    23097518.551  
  23097511.820  
  20506875.055   109467091.768                    85141073.621    20506878.840  
  20506873.488  
  19762864.750   105755073.096                    82253941.344    19762868.480  
  19762862.898  
  21992001.273   115568725.158    21992011.324    90053590.1364   21992011.961  
                
 21  8 14  5 31 20.0000000  0 16G26R 1R16R 2G20G29G18R15G 5G12G31G23
                                R24R18R17G25
  22493862.211   118206041.262    22493872.199    92108658.1114   22493872.020  
                
  22474224.766   120137622.616                    93440391.755    22474230.547  
  22474223.863  
  20779883.445   111002419.259                    86335240.089    20779885.785  
  20779883.117  
  22286584.641   118925485.704                    92497634.266    22286589.301  
  22286582.562  
  22940946.492   120555485.233    22940952.977    93939366.8894                 
                
  20488637.164   107668515.411    20488643.922    83897573.7524   20488644.125  
                
  21171706.180   111258069.330    21171713.254    86694640.0344   21171713.363  
                
  20641935.680   110304227.021                    85792170.583    20641940.715  
  20641935.840  
  21401085.125   112463467.129    21401091.672    87633910.5994   21401091.848  
                
  24593540.320   129239892.023    24593548.680   100706433.4644   24593549.078  
                
  23757260.477   124845225.287    23757268.188    97282010.3844   23757268.461  
                
  24658056.234   129578949.555    24658065.367   100970653.5034   24658065.078  
                
  23103446.016   123544483.432                    96090149.202    23103451.766  
  23103444.992  
  20503767.383   109450502.828                    85128171.112    20503771.172  
  20503765.812  
  19765143.297   105767266.053                    82263424.760    19765147.043  
  19765141.461  
  21998002.070   115600259.475    21998012.172    90078162.3184   21998012.773  
                
 21  8 14  5 31 30.0000000  0 16G26R 1R16R 2G20G29G18R15G 5G12G31G23
                                R24R18R17G25
  22489195.000   118181514.891    22489205.012    92089546.6534   22489204.836  
                
  22475683.492   120145420.650                    93446456.899    22475689.355  
  22475682.555  
  20777703.328   110990773.516                    86326182.295    20777705.664  
  20777702.977  
  22280721.641   118894199.432                    92473300.507    22280726.273  
  22280719.527  
  22945181.531   120577740.449    22945188.043    93956708.6014                 
                
  20489295.117   107671972.964    20489301.891    83900267.9444   20489302.078  
                
  21167747.156   111237264.569    21167754.262    86678428.5304   21167754.344  
                
  20647702.961   110335045.592                    85816140.550    20647707.984  
  20647703.125  
  21401212.672   112464137.402    21401219.246    87634432.8904   21401219.414  
                
  24600865.336   129278384.649    24600873.625   100736427.6874   24600874.008  
                
  23761212.070   124865991.066    23761219.801    97298191.5134   23761220.062  
                
  24650799.172   129540813.535    24650808.320   100940937.1254   24650808.102  
                
  23109379.414   123576212.955                    96114827.684    23109385.336  
  23109378.539  
  20500666.234   109433948.682                    85115295.680    20500670.020  
  20500664.637  
  19767427.984   105779491.871                    82272933.723    19767431.730  
  19767426.137  
  22004009.727   115631829.932    22004019.875    90102762.6634   22004020.453  
                
 21  8 14  5 31 40.0000000  0 16G26R 1R16R 2G20G29G18R15G 5G12G31G23
                                R24R18R17G25
  22484535.930   118157031.352    22484545.969    92070468.5794   22484545.801  
                
  22477158.133   120153303.808                    93452588.240    22477164.105  
  22477157.191  
  20775539.461   110979214.530                    86317191.976    20775541.816  
  20775539.098  
  22274867.500   118862960.527                    92449003.609    22274872.164  
  22274865.395  
  22949425.758   120600043.893    22949432.316    93974087.8884                 
                
  20489959.773   107675465.759    20489966.562    83902989.5984   20489966.727  
                
  21163795.852   111216500.325    21163802.973    86662248.6064   21163803.035  
                
  20653482.148   110365927.797                    85840160.043    20653487.195  
  20653482.312  
  21401353.672   112464878.406    21401360.281    87635010.3024   21401360.453  
                
  24608192.023   129316885.933    24608200.207   100766428.6674   24608200.574  
                
  23765171.125   124886796.097    23765178.926    97314403.2054   23765179.156  
                
  24643542.000   129502677.168    24643551.281   100911220.4784   24643551.074  
                
  23115313.195   123607943.503                    96139506.994    23115319.105  
  23115312.332  
  20497571.414   109417428.402                    85102446.562    20497575.199  
  20497569.801  
  19769718.633   105791749.636                    82282467.550    19769722.367  
  19769716.781  
  22010024.070   115663435.510    22010034.234    90127390.3764   22010034.805  
                
 21  8 14  5 31 50.0000000  0 16G26R 1R16R 2G20G29G18R15G 5G12G31G23
                                R24R18R17G25
  22479885.000   118132590.604    22479895.051    92051423.8564   22479894.887  
                
  22478648.750   120161272.278                    93458785.937    22478654.777  
  22478647.742  
  20773391.836   110967742.268                    86308269.095    20773394.199  
  20773391.465  
  22269022.227   118831769.282                    92424743.800    22269026.984  
  22269020.164  
  22953679.117   120622395.329    22953685.711    93991504.6024                 
                
  20490631.125   107678993.695    20490637.930    83905738.6394   20490638.090  
                
  21159852.234   111195776.523    21159859.348    86646100.1914   21159859.418  
                
  20659273.219   110396873.539                    85864228.948    20659278.289  
  20659273.371  
  21401508.133   112465690.050    21401514.766    87635642.7464   21401514.941  
                
  24615520.305   129355395.661    24615528.406   100796436.2284   24615528.773  
                
  23769137.633   124907640.184    23769145.488    97330645.3274   23769145.660  
                
  24636284.766   129464540.427    24636294.117   100881503.5574   24636293.879  
                
  23121247.211   123639674.962                    96164186.990    23121253.059  
  23121246.273  
  20494482.914   109400941.841                    85089623.678    20494486.680  
  20494481.281  
  19772015.219   105804039.110                    82292026.017    19772018.953  
  19772013.352  
  22016045.062   115695076.047    22016055.207    90152045.3294   22016055.793  
                
 21  8 14  5 32  0.0000000  0 16G26R 1R16R 2G20G29G18R15G 5G12G31G23
                                R24R18R17G25
  22475242.297   118108193.066    22475252.344    92032412.7884   22475252.195  
                
  22480155.320   120169326.198                    93465050.087    22480161.441  
  22480154.262  
  20771260.508   110956357.186                    86299414.025    20771262.906  
  20771260.133  
  22263185.914   118800625.735                    92400521.085    22263190.715  
  22263183.852  
  22957941.648   120644795.077    22957948.266    94008958.9144                 
                
  20491309.234   107682557.188    20491316.047    83908515.3824   20491316.199  
                
  21155916.391   111175093.534    21155923.504    86629983.5734   21155923.578  
                
  20665076.219   110427883.035                    85888347.424    20665081.277  
  20665076.352  
  21401676.070   112466572.611    21401682.703    87636330.4564   21401682.891  
                
  24622850.180   129393914.158    24622858.250   100826450.6234   24622858.621  
                
  23773111.625   124928523.596    23773119.449    97346918.0854   23773119.648  
                
  24629027.609   129426403.780    24629036.918   100851786.6844   24629036.734  
                
  23127181.289   123671407.471                    96188867.808    23127187.219  
  23127180.375  
  20491400.797   109384489.316                    85076827.287    20491404.555  
  20491399.148  
  19774317.773   105816360.579                    82301609.380    19774321.520  
  19774315.891  
  22022072.758   115726751.772    22022082.887    90176727.7014   22022083.480  
                
 21  8 14  5 32 10.0000000  0 16G26R 1R16R 2G20G29G18R15G 5G12G31G23
                                R24R18R17G25
  22470607.891   118083839.128    22470617.938    92013435.6974   22470617.793  
                
  22481677.953   120177465.923                    93471380.969    22481684.141  
  22481676.887  
  20769145.578   110945059.593                    86290627.015    20769148.008  
  20769145.195  
  22257358.766   118769531.048                    92376336.331    22257363.574  
  22257356.715  
  22962213.398   120667243.295    22962220.078    94026451.0314                 
                
  20491994.156   107686156.463    20492000.969    83911320.0134   20492001.125  
                
  21151988.367   111154451.623    21151995.508    86613898.9674   21151995.574  
                
  20670891.141   110458956.265                    85912515.471    20670896.223  
  20670891.266  
  21401857.539   112467526.297    21401864.152    87637073.5984   21401864.363  
                
  24630181.688   129432441.571    24630189.781   100856471.9544   24630190.160  
                
  23777093.117   124949446.403    23777100.867    97363221.5734   23777101.102  
                
  24621770.484   129388267.577    24621779.824   100822070.1764   24621779.664  
                
  23133115.547   123703141.479                    96213549.806    23133121.680  
  23133114.758  
  20488325.125   109368071.223                    85064057.650    20488328.906  
  20488323.480  
  19776626.359   105828714.309                    82311217.844    19776630.113  
  19776624.477  
  22028107.172   115758462.861    22028117.312    90201437.6334   22028117.910  
                
 21  8 14  5 32 20.0000000  0 16G26R 1R16R 2G20G29G18R15G 5G12G31G23
                                R24R18R17G25
  22465981.789   118059528.814    22465991.840    91994492.6104   22465991.699  
                
  22483216.625   120185691.161                    93477778.359    22483222.867  
  22483215.516  
  20767047.000   110933849.340                    86281907.932    20767049.445  
  20767046.609  
  22251540.742   118738484.754                    92352189.231    22251545.523  
  22251538.680  
  22966494.359   120689739.896    22966501.066    94043980.8284                 
                
  20492685.875   107689791.464    20492692.684    83914152.4754   20492692.844  
                
  21148068.156   111133850.795    21148075.336    86597846.3794   21148075.375  
                
  20676718.016   110490093.258                    85936733.120    20676723.102  
  20676718.160  
  21402052.555   112468551.114    21402059.141    87637872.1494   21402059.379  
                
  24637514.891   129470977.904    24637523.004   100886500.2484   24637523.398  
                
  23781082.102   124970408.571    23781089.754    97379555.7214   23781090.023  
                
  24614513.445   129350131.861    24614522.797   100792354.0474   24614522.656  
                
  23139050.156   123734876.915                    96238232.881    23139056.398  
  23139049.410  
  20485255.859   109351687.299                    85051314.623    20485259.664  
  20485254.227  
  19778940.977   105841100.264                    82320851.356    19778944.723  
  19778939.113  
  22034148.305   115790209.231    22034158.453    90226175.0464   22034159.043  
                
 21  8 14  5 32 30.0000000  0 16G26R 1R16R 2G20G29G18R15G 5G12G31G23
                                R24R18R17G25
  22461363.969   118035262.022    22461374.020    91975583.4344   22461373.883  
                
  22484771.266   120194001.787                    93484242.177    22484777.562  
  22484770.184  
  20764964.773   110922726.553                    86273256.878    20764967.246  
  20764964.391  
  22245731.648   118707486.569                    92328079.545    22245736.457  
  22245729.605  
  22970784.469   120712284.523    22970791.137    94061548.0654                 
                
  20493384.367   107693462.026    20493391.168    83917012.6544   20493391.344  
                
  21144155.727   111113290.858    21144162.930    86581825.6604   21144162.957  
                
  20682556.727   110521293.492                    85960999.971    20682561.785  
  20682556.898  
  21402261.070   112469646.878    21402267.656    87638726.0054   21402267.906  
                
  24644849.750   129509522.748    24644857.871   100916535.1734   24644858.273  
                
  23785078.523   124991409.724    23785086.059    97395920.2664   23785086.379  
                
  24607256.539   129311996.566    24607265.848   100762638.2434   24607265.738  
                
  23144984.992   123766613.222                    96262916.662    23144991.309  
  23144984.270  
  20482192.977   109335337.445                    85038598.077    20482196.785  
  20482191.348  
  19781261.547   105853518.059                    82330509.647    19781265.305  
  19781259.711  
  22040196.094   115821990.563    22040206.223    90250939.7074   22040206.816  
                
 21  8 14  5 32 40.0000000  0 16G26R 1R16R 2G20G29G18R15G 5G12G31G23
                                R24R18R17G25
  22456754.398   118011038.551    22456764.457    91956708.0064   22456764.336  
                
  22486341.859   120202397.540                    93490772.199    22486348.176  
  22486340.758  
  20762898.875   110911690.904                    86264673.590    20762901.359  
  20762898.496  
  22239931.570   118676537.015                    92304007.707    22239936.512  
  22239929.594  
  22975083.656   120734876.874    22975090.281    94079152.4894                 
                
  20494089.570   107697167.892    20494096.363    83919900.3434   20494096.527  
                
  21140251.039   111092771.584    21140258.258    86565836.6124   21140258.273  
                
  20688407.195   110552556.586                    85985315.708    20688412.234  
  20688407.359  
  21402483.039   112470813.369    21402489.633    87639634.9574   21402489.898  
                
  24652186.180   129548075.742    24652194.289   100946576.4344   24652194.695  
                
  23789082.289   125012449.483    23789089.730    97412314.8624   23789090.094  
                
  24599999.641   129273861.439    24600008.961   100732922.5784   24600008.832  
                
  23150920.219   123798350.487                    96287601.181    23150926.367  
  23150919.348  
  20479136.430   109319021.400                    85025907.813    20479140.242  
  20479134.832  
  19783588.031   105865967.505                    82340192.543    19783591.789  
  19783586.215  
  22046250.469   115853806.499    22046260.582    90275731.3384   22046261.172  
                
 21  8 14  5 32 50.0000000  0 16G26R 1R16R 2G20G29G18R15G 5G12G31G23
                                R24R18R17G25
  22452153.164   117986858.921    22452163.238    91937866.7504   22452163.117  
                
  22487928.469   120210878.885                    93497368.781    22487934.852  
  22487927.391  
  20760849.398   110900742.931                    86256158.512    20760851.895  
  20760849.016  
  22234140.875   118645636.450                    92279973.944    22234145.727  
  22234138.816  
  22979391.992   120757517.315    22979398.598    94096794.3784                 
                
  20494801.586   107700909.528    20494808.375    83922815.8984   20494808.543  
                
  21136354.164   111072293.403    21136361.379    86549879.5924   21136361.398  
                
  20694269.469   110583882.817                    86009680.549    20694274.488  
  20694269.629  
  21402718.547   112472050.979    21402725.164    87640599.3224   21402725.434  
                
  24659524.086   129586637.195    24659532.328   100976624.2914   24659532.734  
                
  23793093.438   125033528.116    23793100.836    97428739.7574   23793101.211  
                
  24592742.922   129235727.067    24592752.199   100703207.4974   24592752.070  
                
  23156855.555   123830088.864                    96312286.558    23156861.652  
  23156854.617  
  20476086.312   109302739.694                    85013244.256    20476090.133  
  20476084.715  
  19785920.492   105878448.910                    82349900.301    19785924.254  
  19785918.691  
  22052311.516   115885657.398    22052321.617    90300550.2174   22052322.219  
                
 21  8 14  5 33  0.0000000  0 16G26R 1R16R 2G20G29G18R15G 5G12G31G23
                                R24R18R17G25
  22447560.328   117962723.394    22447570.422    91919059.8554   22447570.285  
                
  22489531.078   120219445.812                    93504031.949    22489537.523  
  22489530.020  
  20758816.352   110889882.752                    86247711.706    20758818.855  
  20758815.957  
  22228359.297   118614784.952                    92255978.354    22228364.129  
  22228357.258  
  22983709.477   120780205.850    22983716.090    94114473.7394                 
                
  20495520.438   107704687.089    20495527.219    83925759.4484   20495527.379  
                
  21132465.172   111051856.537    21132472.383    86533954.7614   21132472.406  
                
  20700143.578   110615272.223                    86034094.522    20700148.586  
  20700143.746  
  21402967.633   112473359.915    21402974.273    87641619.2684   21402974.535  
                
  24666863.766   129625207.292    24666872.035   101006678.8784   24666872.430  
                
  23797112.000   125054645.777    23797119.359    97445195.0634   23797119.754  
                
  24585486.461   129197593.722    24585495.633   100673493.2094   24585495.512  
                
  23162791.172   123861828.594                    96336972.979    23162797.199  
  23162790.152  
  20473042.625   109286492.228                    85000607.346    20473046.453  
  20473041.020  
  19788258.953   105890962.428                    82359633.041    19788262.719  
  19788257.160  
  22058379.227   115917543.363    22058389.309    90325396.4224   22058389.926  
                
 21  8 14  5 33 10.0000000  0 16G26R 1R16R 2G20G29G18R15G 5G12G31G23
                                R24R18R17G25
  22442975.797   117938631.579    22442985.887    91900287.0194   22442985.742  
                
  22491149.641   120228097.958                    93510761.392    22491156.156  
  22491148.566  
  20756799.680   110879110.059                    86239332.940    20756802.180  
  20756799.297  
  22222586.914   118583982.900                    92232021.230    22222591.797  
  22222584.938  
  22988036.000   120802941.987    22988042.633    94132190.1824                 
                
  20496246.023   107708500.083    20496252.797    83928730.6134   20496252.973  
                
  21128583.922   111031460.494    21128591.148    86518061.7374   21128591.168  
                
  20706029.391   110646724.231                    86058557.194    20706034.391  
  20706029.535  
  21403230.203   112474739.778    21403236.867    87642694.4834   21403237.117  
                
  24674204.883   129663785.520    24674213.250   101036739.7964   24674213.637  
                
  23801137.898   125075801.905    23801145.172    97461680.3544   23801145.590  
                
  24578230.078   129159460.982    24578239.172   100643779.3774   24578239.039  
                
  23168726.938   123893569.206                    96361660.098    23168732.902  
  23168725.852  
  20470005.297   109270278.821                    84987996.940    20470009.137  
  20470003.715  
  19790603.312   105903507.553                    82369390.362    19790607.074  
  19790601.543  
  22064453.500   115949463.829    22064463.578    90350269.4984   22064464.195  
                
 21  8 14  5 33 20.0000000  0 16G26R 1R16R 2G20G29G18R15G 5G12G31G23
                                R24R18R17G25
  22438399.672   117914583.872    22438409.746    91881548.5574   22438409.594  
                
  22492784.148   120236835.523                    93517557.264    22492790.770  
  22492783.102  
  20754799.445   110868425.172                    86231022.463    20754801.961  
  20754799.055  
  22216823.875   118553229.870                    92208102.225    22216828.629  
  22216821.812  
  22992371.648   120825725.943    22992378.258    94149943.9194                 
                
  20496978.422   107712348.877    20496985.184    83931729.6684   20496985.359  
                
  21124710.516   111011105.636    21124717.777    86502200.8184   21124717.773  
                
  20711926.945   110678238.996                    86083068.658    20711931.949  
  20711927.074  
  21403506.305   112476190.699    21403512.977    87643825.0704   21403513.223  
                
  24681547.625   129702372.068    24681556.031   101066807.2074   24681556.430  
                
  23805171.156   125096996.723    23805178.367    97478195.7954   23805178.812  
                
  24570973.844   129121329.289    24570982.902   100614066.3884   24570982.766  
                
  23174662.781   123925311.035                    96386348.185    23174668.816  
  23174661.738  
  20466974.375   109254099.576                    84975413.087    20466978.215  
  20466972.797  
  19792953.633   105916084.567                    82379172.470    19792957.391  
  19792951.867  
  22070534.375   115981419.043    22070544.465    90375169.6424   22070545.062  
                
 21  8 14  5 33 30.0000000  0 16G26R 1R16R 2G20G29G18R15G 5G12G31G23
                                R24R18R17G25
  22433831.984   117890580.465    22433842.031    91862844.6134   22433841.902  
                
  22494434.664   120245658.625                    93524419.664    22494441.340  
  22494433.684  
  20752815.719   110857828.417                    86222780.557    20752818.227  
  20752815.359  
  22211070.148   118522526.844                    92184222.120    22211074.836  
  22211068.109  
  22996716.406   120848557.795    22996723.000    94167734.9644                 
                
  20497717.672   107716233.588    20497724.422    83934756.7194   20497724.605  
                
  21120844.984   110990792.097    21120852.270    86486372.0954   21120852.262  
                
  20717836.234   110709816.483                    86107628.908    20717841.273  
  20717836.328  
  21403795.961   112477712.866    21403802.629    87645011.1794   21403802.891  
                
  24688892.023   129740966.984    24688900.402   101096881.1474   24688900.820  
                
  23809211.773   125118230.165    23809218.973    97494741.3374   23809219.410  
                
  24563717.906   129083198.829    24563726.895   100584354.3634   24563726.758  
                
  23180598.820   123957053.975                    96411037.112    23180604.953  
  23180597.824  
  20463949.891   109237954.627                    84962855.902    20463953.738  
  20463948.320  
  19795309.922   105928693.476                    82388979.398    19795313.672  
  19795308.168  
  22076621.891   116013409.002    22076631.973    90400096.8814   22076632.559  
                
 21  8 14  5 33 40.0000000  0 16G26R 1R16R 2G20G29G18R15G 5G12G31G23
                                R24R18R17G25
  22429272.680   117866621.197    22429282.703    91844175.0504   22429282.582  
                
  22496101.133   120254566.913                    93531348.333    22496107.871  
  22496100.207  
  20750848.391   110847319.327                    86214606.823    20750850.898  
  20750848.047  
  22205325.711   118491873.230                    92160380.422    22205330.320  
  22205323.664  
  23001070.211   120871437.191    23001076.781    94185563.0494                 
                
  20498463.688   107720153.963    20498470.438    83937811.5604   20498470.633  
                
  21116987.258   110970519.617    21116994.566    86470575.3624   21116994.539  
                
  20723757.203   110741456.341                    86132237.660    20723762.262  
  20723757.301  
  21404099.117   112479305.989    21404105.789    87646252.5734   21404106.055  
                
  24696237.930   129779569.913    24696246.246   101126961.3344   24696246.711  
                
  23813259.672   125139501.915    23813266.875    97511316.7174   23813267.281  
                
  24556462.188   129045069.467    24556471.031   100554643.1654   24556470.910  
                
  23186535.070   123988797.923                    96435726.813    23186541.273  
  23186534.094  
  20460931.789   109221843.809                    84950325.272    20460935.652  
  20460930.242  
  19797672.117   105941334.019                    82398810.939    19797675.875  
  19797670.383  
  22082715.922   116045433.343    22082725.973    90425050.9104   22082726.586  
                
 21  8 14  5 33 50.0000000  0 16G26R 1R16R 2G20G29G18R15G 5G12G31G23
                                R24R18R17G25
  22424721.812   117842706.265    22424731.824    91825540.0454   22424731.719  
                
  22497783.570   120263560.398                    93538343.271    22497790.391  
  22497782.719  
  20748897.562   110836898.368                    86206501.632    20748900.070  
  20748897.207  
  22199590.734   118461269.776                    92136577.750    22199595.266  
  22199588.633  
  23005433.094   120894364.222    23005439.633    94203428.2664                 
                
  20499216.523   107724110.110    20499223.266    83940894.2774   20499223.469  
                
  21113137.383   110950288.364    21113144.703    86454810.7514   21113144.668  
                
  20729689.812   110773158.391                    86156894.790    20729694.895  
  20729689.938  
  21404415.828   112480970.272    21404422.504    87647549.4104   21404422.773  
                
  24703585.336   129818180.862    24703593.633   101157047.7764   24703594.137  
                
  23817314.852   125160811.925    23817322.035    97527921.9084   23817322.453  
                
  24549206.695   129006941.386    24549215.441   100524932.9794   24549215.355  
                
  23192471.508   124020542.834                    96460417.291    23192477.773  
  23192470.508  
  20457920.055   109205766.975                    84937821.074    20457923.926  
  20457918.496  
  19800040.234   105954006.233                    82408667.111    19800043.988  
  19800038.520  
  22088816.523   116077492.197    22088826.562    90450031.8204   22088827.199  
                
 21  8 14  5 34  0.0000000  0 16G26R 1R16R 2G20G29G18R15G 5G12G31G23
                                R24R18R17G25
  22420179.375   117818835.646    22420189.387    91806939.5714   22420189.293  
                
  22499481.953   120272639.148                    93545404.512    22499488.801  
  22499481.195  
  20746963.156   110826565.131                    86198464.667    20746965.641  
  20746962.781  
  22193865.086   118430716.273                    92112813.935    22193869.586  
  22193862.949  
  23009805.000   120917338.646    23009811.504    94221330.4004                 
                
  20499976.148   107728101.946    20499982.887    83944004.7934   20499983.105  
                
  21109295.320   110930098.239    21109302.660    86439078.1884   21109302.621  
                
  20735634.039   110804922.469                    86181600.175    20735639.121  
  20735634.184  
  21404746.016   112482705.465    21404752.695    87648901.5024   21404752.969  
                
  24710934.266   129856799.843    24710942.570   101187140.4574   24710943.109  
                
  23821377.273   125182160.096    23821384.422    97544556.8474   23821384.871  
                
  24541951.367   128968814.572    24541960.102   100495223.7884   24541960.016  
                
  23198408.023   124052288.741                    96485108.516    23198414.434  
  23198407.043  
  20454914.688   109189724.212                    84925343.378    20454918.570  
  20454913.121  
  19802414.234   105966709.979                    82418547.797    19802417.984  
  19802412.535  
  22094923.641   116109585.283    22094933.680    90475039.4054   22094934.316  
                
 21  8 14  5 34 10.0000000  0 16G26R 1R16R 2G20G29G18R15G 5G12G31G23
                                R24R18R17G25
  22415645.391   117795009.409    22415655.375    91788373.6794   22415655.309  
                
  22501196.266   120281802.973                    93552531.937    22501203.074  
  22501195.621  
  20745045.203   110816319.745                    86190496.039    20745047.684  
  20745044.820  
  22188148.805   118400212.772                    92089089.015    22188153.262  
  22188146.645  
  23014185.875   120940360.262    23014192.340    94239269.3074                 
                
  20500742.555   107732129.453    20500749.289    83947143.1104   20500749.516  
                
  21105461.102   110909949.254    21105468.477    86423377.6814   21105468.434  
                
  20741589.859   110836748.486                    86206353.743    20741594.934  
  20741590.027  
  21405089.711   112484511.598    21405096.395    87650308.8784   21405096.652  
                
  24718284.641   129895426.587    24718293.008   101217239.1824   24718293.547  
                
  23825446.938   125203546.353    23825454.109    97561221.4564   23825454.555  
                
  24534696.375   128930689.140    24534705.039   100465515.6754   24534704.953  
                
  23204344.820   124084035.460                    96509800.387    23204351.234  
  23204343.859  
  20451915.719   109173715.504                    84912892.160    20451919.586  
  20451914.141  
  19804794.156   105979445.381                    82428453.111    19804797.914  
  19804792.449  
  22101037.258   116141712.523    22101047.301    90500073.6074   22101047.941  
                
 21  8 14  5 34 20.0000000  0 16G26R 1R16R 2G20G29G18R15G 5G12G31G23
                                R24R18R17G25
  22411119.883   117771227.694    22411129.863    91769842.4864   22411129.809  
                
  22502926.508   120291051.830                    93559725.496    22502933.219  
  22502925.930  
  20743143.805   110806162.734                    86182596.132    20743146.293  
  20743143.441  
  22182441.922   118369759.695                    92065403.332    22182446.391  
  22182439.730  
  23018575.734   120963429.079    23018582.172    94257244.9974                 
                
  20501515.781   107736192.728    20501522.512    83950309.2964   20501522.742  
                
  21101634.719   110889841.460    21101642.129    86407709.2784   21101642.078  
                
  20747557.227   110868636.198                    86231155.299    20747562.270  
  20747557.398  
  21405446.914   112486388.687    21405453.605    87651771.5434   21405453.855  
                
  24725636.539   129934061.072    24725644.930   101247343.9494   24725645.457  
                
  23829523.812   125224970.611    23829531.070    97577915.6554   23829531.504  
                
  24527441.688   128892565.209    24527450.242   100435808.7214   24527450.180  
                
  23210281.844   124115783.027                    96534492.931    23210288.215  
  23210280.859  
  20448923.141   109157740.895                    84900467.461    20448927.008  
  20448921.562  
  19807179.953   105992212.149                    82438382.807    19807183.703  
  19807178.234  
  22107157.367   116173873.891    22107167.422    90525134.4024   22107168.055  
                
 21  8 14  5 34 30.0000000  0 16G26R 1R16R 2G20G29G18R15G 5G12G31G23
                                R24R18R17G25
  22406602.844   117747490.544    22406612.832    91751346.0114   22406612.770  
                
  22504672.609   120300385.688                    93566985.139    22504679.316  
  22504672.113  
  20741258.844   110796093.646                    86174764.607    20741261.328  
  20741258.504  
  22176744.406   118339357.036                    92041756.811    22176748.922  
  22176742.270  
  23022974.555   120986545.006    23022980.977    94275257.4004                 
                
  20502295.789   107740291.714    20502302.516    83953503.3134   20502302.758  
                
  21097816.164   110869774.857    21097823.574    86392072.9714   21097823.527  
                
  20753536.125   110900585.590                    86256004.816    20753541.148  
  20753536.289  
  21405817.602   112488336.668    21405824.301    87653289.4504   21405824.527  
                
  24732989.891   129972703.201    24732998.285   101277454.6714   24732998.805  
                
  23833607.898   125246432.670    23833615.227    97594639.3234   23833615.660  
                
  24520187.234   128854442.817    24520195.766   100406102.9644   24520195.730  
                
  23216219.062   124147531.494                    96559186.145    23216225.371  
  23216218.020  
  20445936.898   109141800.195                    84888069.163    20445940.758  
  20445935.324  
  19809571.609   106005010.370                    82448336.980    19809575.348  
  19809569.895  
  22113283.938   116206069.267    22113294.012    90550221.6964   22113294.629  
                
 21  8 14  5 34 40.0000000  0 16G26R 1R16R 2G20G29G18R15G 5G12G31G23
                                R24R18R17G25
  22402094.312   117723798.064    22402104.281    91732884.3404   22402104.215  
                
  22506434.664   120309804.640                    93574311.008    22506441.328  
  22506434.230  
  20739390.414   110786112.760                    86167001.713    20739392.867  
  20739390.090  
  22171056.453   118309005.018                    92018149.696    22171060.961  
  22171054.305  
  23027382.344   121009708.015    23027388.777    94293306.4974                 
                
  20503082.594   107744426.401    20503089.316    83956725.1494   20503089.566  
                
  21094005.469   110849749.499    21094012.863    86376468.7974   21094012.816  
                
  20759526.500   110932596.346                    86280902.060    20759531.520  
  20759526.672  
  21406201.805   112490355.637    21406208.504    87654862.6774   21406208.707  
                
  24740344.750   130011352.901    24740353.105   101307571.3174   24740353.609  
                
  23837699.172   125267932.460    23837706.547    97611392.3774   23837706.996  
                
  24512933.125   128816322.133    24512941.629   100376398.5574   24512941.602  
                
  23222156.391   124179280.689                    96583879.950    23222162.633  
  23222155.328  
  20442957.055   109125893.585                    84875697.352    20442960.898  
  20442955.488  
  19811969.148   106017840.033                    82458315.607    19811972.879  
  19811967.441  
  22119416.977   116238298.598    22119427.051    90575335.4474   22119427.656  
                
 21  8 14  5 34 50.0000000  0 16G26R 1R16R 2G20G29G18R15G 5G12G31G23
                                R24R18R17G25
  22397594.406   117700150.935    22397604.340    91714458.0044   22397604.262  
                
  22508212.734   120319309.230                    93581703.449    22508219.340  
  22508212.371  
  20737538.617   110776220.771                    86159307.948    20737541.035  
  20737538.285  
  22165378.203   118278704.390                    91994582.554    22165382.598  
  22165375.988  
  23031799.195   121032918.669    23031805.621    94311392.7084                 
                
  20503876.312   107748597.435    20503883.039    83959975.3014   20503883.293  
                
  21090202.727   110829765.988    21090210.098    86360897.2274   21090210.059  
                
  20765528.492   110964669.107                    86305847.535    20765533.496  
  20765528.660  
  21406599.594   112492446.038    21406606.281    87656491.5584   21406606.484  
                
  24747701.172   130050010.753    24747709.473   101337694.2874   24747709.953  
                
  23841797.734   125289470.549    23841805.152    97628175.2904   23841805.602  
                
  24505679.461   128778203.808    24505687.941   100346695.9674   24505687.922  
                
  23228093.977   124211031.235                    96608574.797    23228100.156  
  23228092.891  
  20439983.695   109110021.638                    84863352.508    20439987.527  
  20439982.133  
  19814372.648   106030701.625                    82468319.060    19814376.379  
  19814370.945  
  22125556.562   116270562.371    22125566.629    90600476.0344   22125567.242  
                
 21  8 14  5 35  0.0000000  0 16G26R 1R16R 2G20G29G18R15G 5G12G31G23
                                R24R18R17G25
  22393102.984   117676548.424    22393112.883    91696066.4424   22393112.801  
                
  22510006.648   120328898.533                    93589161.797    22510013.227  
  22510006.375  
  20735703.297   110766416.797                    86151682.614    20735705.703  
  20735702.969  
  22159709.383   118248454.403                    91971054.802    22159713.758  
  22159707.180  
  23036224.930   121056175.964    23036231.352    94329515.2674                 
                
  20504676.805   107752804.004    20504683.535    83963253.1474   20504683.789  
                
  21086407.805   110809823.512    21086415.152    86345357.6424   21086415.125  
                
  20771541.859   110996802.728                    86330840.341    20771546.836  
  20771542.035  
  21407010.844   112494607.148    21407017.508    87658175.5414   21407017.707  
                
  24755058.930   130088675.819    24755067.191   101367822.8874   24755067.645  
                
  23845903.383   125311045.978    23845910.840    97644987.2784   23845911.293  
                
  24498426.070   128740087.106    24498434.578   100316994.6754   24498434.566  
                
  23234031.828   124242782.451                    96633270.165    23234037.805  
  23234030.574  
  20437016.688   109094183.525                    84851033.988    20437020.508  
  20437015.117  
  19816781.977   106043594.334                    82478346.720    19816785.703  
  19816780.273  
  22131702.547   116302859.681    22131712.625    90625642.7644   22131713.234  
                
 21  8 14  5 35 10.0000000  0 16G26R 1R16R 2G20G29G18R15G 5G12G31G23
                                R24R18R17G25
  22388620.070   117652990.663    22388629.957    91677709.7464   22388629.859  
                
  22511816.383   120338572.495                    93596685.961    22511822.926  
  22511816.188  
  20733884.484   110756700.974                    86144125.870    20733886.883  
  20733884.176  
  22154050.250   118218255.921                    91947567.099    22154054.562  
  22154048.008  
  23040659.516   121079479.827    23040665.922    94347674.1154                 
                
  20505484.070   107757046.201    20505490.805    83966558.7584   20505491.059  
                
  21082620.695   110789922.157    21082628.027    86329850.0954   21082628.004  
                
  20777566.633   111028997.236                    86355880.510    20777571.598  
  20777566.797  
  21407435.555   112496839.007    21407442.195    87659914.6524   21407442.383  
                
  24762418.039   130127348.028    24762426.250   101397957.0594   24762426.730  
                
  23850016.133   125332658.581    23850023.637    97661828.2664   23850024.105  
                
  24491173.008   128701972.201    24491181.555   100287294.7604   24491181.535  
                
  23239969.344   124274534.005                    96657965.791    23239975.531  
  23239968.223  
  20434056.008   109078379.269                    84838741.782    20434059.824  
  20434054.434  
  19819197.086   106056518.067                    82488398.503    19819200.812  
  19819195.371  
  22137854.898   116335190.519    22137865.023    90650835.6134   22137865.609  
                
 21  8 14  5 35 20.0000000  0 16G26R 1R16R 2G20G29G18R15G 5G12G31G23
                                R24R18R17G25
  22384145.789   117629478.155    22384155.617    91659388.3164   22384155.527  
                
  22513642.062   120348331.665                    93604276.423    22513648.547  
  22513641.941  
  20732082.258   110747073.782                    86136638.056    20732084.625  
  20732081.965  
  22148400.562   118188108.342                    91924118.991    22148404.895  
  22148398.371  
  23045103.055   121102830.689    23045109.430    94365869.5814                 
                
  20506298.195   107761324.491    20506304.934    83969892.4884   20506305.195  
                
  21078841.508   110770062.369    21078848.832    86314374.9364   21078848.805  
                
  20783602.836   111061252.845                    86380968.200    20783607.797  
  20783602.984  
  21407873.805   112499142.006    21407880.438    87661709.1994   21407880.621  
                
  24769778.570   130166027.748    24769786.742   101428097.0814   24769787.246  
                
  23854136.016   125354308.818    23854143.617    97678698.5574   23854144.055  
                
  24483920.422   128663859.611    24483928.977   100257596.6594   24483928.926  
                
  23245907.000   124306286.702                    96682662.264    23245913.473  
  23245906.062  
  20431101.758   109062609.294                    84826476.247    20431105.574  
  20431100.172  
  19821618.086   106069473.277                    82498474.775    19821621.805  
  19821616.367  
  22144013.695   116367555.204    22144023.871    90676054.8324   22144024.414  
                
 21  8 14  5 35 30.0000000  0 16G26R 1R16R 2G20G29G18R15G 5G12G31G23
                                R24R18R17G25
  22379680.102   117606010.860    22379689.879    91641102.1194   22379689.824  
                
  22515483.617   120358175.662                    93611932.872    22515490.074  
  22515483.547  
  20730296.578   110737534.959                    86129218.971    20730298.926  
  20730296.277  
  22142760.555   118158012.546                    91900711.171    22142764.938  
  22142758.438  
  23049555.508   121126228.378    23049561.859    94384101.5494                 
                
  20507119.164   107765638.703    20507125.910    83973254.2074   20507126.168  
                
  21075070.203   110750244.043    21075077.520    86298932.0844   21075077.492  
                
  20789650.422   111093569.264                    86406103.183    20789655.398  
  20789650.578  
  21408325.586   112501516.130    21408332.207    87663559.1604   21408332.391  
                
  24777140.430   130204714.814    24777148.664   101458242.8224   24777149.168  
                
  23858263.023   125375996.440    23858270.727    97695597.9864   23858271.137  
                
  24476668.219   128625749.301    24476676.816   100227900.3314   24476676.746  
                
  23251844.961   124338040.141                    96707359.342    23251851.535  
  23251844.043  
  20428153.898   109046873.425                    84814237.244    20428157.707  
  20428152.336  
  19824044.953   106082459.856                    82508575.452    19824048.676  
  19824043.238  
  22150178.914   116399953.550    22150189.102    90701300.2814   22150189.629  
                
 21  8 14  5 35 40.0000000  0 16G26R 1R16R 2G20G29G18R15G 5G12G31G23
                                R24R18R17G25
  22375222.992   117582588.663    22375232.723    91622851.0574   22375232.672  
                
  22517341.000   120368104.348                    93619655.177    22517347.434  
  22517340.984  
  20728527.445   110728084.556                    86121868.655    20728529.781  
  20728527.117  
  22137130.359   118127968.157                    91877343.318    22137134.605  
  22137128.195  
  23054016.805   121149672.571    23054023.098    94402369.7424                 
                
  20507946.914   107769988.568    20507953.664    83976643.7144   20507953.930  
                
  21071306.742   110730466.978    21071314.020    86283521.3844   21071314.016  
                
  20795709.320   111125946.163                    86431285.198    20795714.297  
  20795709.496  
  21408790.844   112503961.073    21408797.449    87665464.3064   21408797.637  
                
  24784503.641   130243408.979    24784511.953   101488394.0924   24784512.430  
                
  23862397.102   125397721.068    23862404.844    97712526.2584   23862405.227  
                
  24469416.516   128587641.175    24469425.070   100198205.6944   24469424.988  
                
  23257783.070   124369794.113                    96732056.845    23257789.664  
  23257782.168  
  20425212.375   109031171.436                    84802024.586    20425216.184  
  20425210.816  
  19826477.609   106095477.467                    82518700.266    19826481.332  
  19826475.887  
  22156350.469   116432385.249    22156360.648    90726571.7284   22156361.176  
                
 21  8 14  5 35 50.0000000  0 16G26R 1R16R 2G20G29G18R15G 5G12G31G23
                                R24R18R17G25
  22370774.484   117559211.600    22370784.188    91604635.1654   22370784.141  
                
  22519214.234   120378117.653                    93627443.279    22519220.656  
  22519214.234  
  20726774.891   110718722.687                    86114587.205    20726777.215  
  20726774.555  
  22131509.828   118097975.629                    91854015.811    22131513.984  
  22131507.652  
  23058486.945   121173163.150    23058493.184    94420674.0844                 
                
