     2.11           OBSERVATION DATA    M (MIXED)           RINEX VERSION / TYPE
EFT-CORS.RU                             20210817 145233 UTC PGM / RUN BY / DATE 
MDNG                                                        MARKER NAME         
                                                            MARKER NUMBER       
MDNG                EFT-CORS.RU                             OBSERVER / AGENCY   
0                   TRIMBLE BD970       2.0                 REC # / TYPE / VERS 
0                   UNKNOWN EXT NONE                        ANT # / TYPE        
  3463911.2830  3030468.2400  4402179.3760                  APPROX POSITION XYZ 
        0.0000        0.0000        0.0000                  ANTENNA: DELTA H/E/N
     1     1                                                WAVELENGTH FACT L1/2
     6    C1    L1    P2    L2    C2    P1                  # / TYPES OF OBSERV 
    10.000                                                  INTERVAL            
  2021     8    15    10    30    0.0000000     GPS         TIME OF FIRST OBS   
  2021     8    15    11    30    0.0000000     GPS         TIME OF LAST OBS    
     0                                                      RCV CLOCK OFFS APPL 
                                                            END OF HEADER       
 21  8 15 10 30  0.0000000  0 13R20G22G21R 5R 7G27G32R21R22G 8R 6G23
                                G10
  20797105.383   111211491.254                    86497855.684    20797112.922  
  20797104.371  
  24548820.117   129004921.468    24548827.238   100523345.7814                 
                
  22929091.109   120493217.935    22929097.816    93890857.3774                 
                
  20832044.953   111359231.035                    86612743.418    20832049.848  
  20832044.652  
  22640552.711   121196661.324                    94264076.952    22640559.984  
  22640551.168  
  21404610.523   112481973.154    21404619.641    87648356.3794   21404619.652  
                
  20999829.203   110354878.329    20999838.148    85990869.2644   20999838.430  
                
  19437893.289   104016124.135                    80901441.568    19437896.695  
  19437891.219  
  22489626.266   120051181.320                    93373156.418    22489630.500  
  22489624.547  
  21238724.891   111610267.373    21238734.867    86969099.4754   21238735.223  
                
  19319356.914   103091826.683                                                  
  19319354.328  
  23309602.312   122492795.293    23309610.855    95448972.6184   23309610.844  
                
  21102402.961   110893889.254    21102412.012    86410885.0374   21102411.539  
                
 21  8 15 10 30 10.0000000  0 13R20G22G21R 5R 7G27G32R21R22G 8R 6G23
                                G10
  20802580.680   111240770.030                    86520628.055    20802588.242  
  20802579.719  
  24543196.594   128975369.435    24543203.711   100500318.2454                 
                
  22924607.516   120469656.525    22924614.215    93872497.8554                 
                
  20837951.570   111390805.337                    86637301.197    20837956.449  
  20837951.250  
  22633359.867   121158157.024                    94234129.201    22633367.059  
  22633358.215  
  21408857.570   112504291.512    21408866.660    87665747.3044   21408866.691  
                
  20997051.461   110340281.222    20997060.418    85979494.9064   20997060.703  
                
  19435319.844   104002353.155                    80890730.796    19435323.246  
  19435317.793  
  22482338.281   120012277.687                    93342898.063    22482342.504  
  22482336.547  
  21238897.234   111611173.038    21238907.156    86969805.1884   21238907.551  
                
  19317091.945   103079740.483                                                  
  19317089.344  
  23315250.734   122522477.900    23315259.246    95472101.9154   23315259.262  
                
  21105466.820   110909989.928    21105475.867    86423431.0154   21105475.387  
                
 21  8 15 10 30 20.0000000  0 13R20G22G21R 5R 7G27G32R21R22G 8R 6G23
                                G10
  20808066.102   111270102.986                    86543442.573    20808073.680  
  20808065.203  
  24537575.641   128945831.186    24537582.793   100477301.4544                 
                
  22920126.406   120446108.269    22920133.102    93854148.5854                 
                
  20843865.664   111422419.526                    86661890.001    20843870.512  
  20843865.336  
  22626172.680   121119683.823                    94204205.623    22626179.926  
  22626171.105  
  21413114.805   112526663.419    21413123.887    87683179.9504   21413123.918  
                
  20994284.922   110325742.992    20994293.910    85968166.4274   20994294.184  
                
  19432759.219   103988650.754                    80880073.382    19432762.633  
  19432757.184  
  22475053.234   119973390.078                    93312652.193    22475057.531  
  22475051.535  
  21239082.219   111612145.182    21239092.090    86970562.7054   21239092.523  
                
  19314840.570   103067726.783                                                  
  19314837.961  
  23320900.922   122552169.750    23320909.426    95495238.4074   23320909.457  
                
  21108536.258   110926119.961    21108545.297    86435999.8754   21108544.820  
                
 21  8 15 10 30 30.0000000  0 13R20G22G21R 5R 7G27G32R21R22G 8R 6G23
                                G10
  20813561.617   111299489.863                    86566298.996    20813569.203  
  20813560.730  
  24531957.188   128916306.380    24531964.379   100454295.1444                 
                
  22915647.773   120422572.888    22915654.438    93835809.3294                 
                
  20849787.102   111454072.961                    86686509.328    20849791.926  
  20849786.766  
  22618991.242   121081241.440                    94174306.011    22618998.531  
  22618989.770  
  21417382.156   112549088.421    21417391.234    87700653.9684   21417391.246  
                
  20991529.531   110311263.303    20991538.551    85956883.5574   20991538.809  
                
  19430211.336   103975016.543                    80869468.986    19430214.766  
  19430209.316  
  22467771.250   119934518.266                    93282418.583    22467775.527  
  22467769.516  
  21239279.781   111613183.384    21239289.625    86971371.6874   21239290.078  
                
  19312602.727   103055785.267                                                  
  19312600.109  
  23326552.781   122581870.406    23326561.297    95518381.7544   23326561.328  
                
  21111611.211   110942278.943    21111620.234    86448591.2844   21111619.766  
                
 21  8 15 10 30 40.0000000  0 13R20G22G21R 5R 7G27G32R21R22G 8R 6G23
                                G10
  20819067.188   111328930.403                    86589197.189    20819074.766  
  20819066.324  
  24526341.344   128886794.800    24526348.520   100431299.1414                 
                
  22911171.531   120399050.113    22911178.184    93817479.9004                 
                
  20855715.805   111485765.282                    86711158.907    20855720.625  
  20855715.469  
  22611815.555   121042829.617                    94144430.176    22611822.844  
  22611814.117  
  21421659.531   112571566.159    21421668.590    87718169.0824   21421668.605  
                
  20988785.234   110296841.946    20988794.266    85945646.1404   20988794.512  
                
  19427676.172   103961450.365                    80858917.521    19427679.621  
  19427674.152  
  22460492.211   119895662.201                    93252197.214    22460496.449  
  22460490.461  
  21239489.891   111614287.456    21239499.742    86972232.0014   21239500.199  
                
  19310378.359   103043915.662                                                  
  19310375.762  
  23332206.258   122611579.569    23332214.797    95541531.7264   23332214.812  
                
  21114691.609   110958466.577    21114700.609    86461205.0204   21114700.148  
                
 21  8 15 10 30 50.0000000  0 13R20G22G21R 5R 7G27G32R21R22G 8R 6G23
                                G10
  20824582.664   111358424.005                    86612136.655    20824590.250  
  20824581.816  
  24520728.039   128857296.112    24520735.113   100408313.1974                 
                
  22906697.617   120375539.596    22906704.266    93799160.0384                 
                
  20861651.695   111517496.064                    86735838.392    20861656.520  
  20861651.355  
  22604645.625   121004448.386                    94114578.119    22604652.863  
  22604644.164  
  21425946.867   112594096.226    21425955.898    87735724.9774   21425955.938  
                
  20986051.977   110282478.589    20986061.004    85934453.9204   20986061.258  
                
  19425153.664   103947951.948                    80848418.753    19425157.141  
  19425151.648  
  22453216.031   119856821.653                    93221987.925    22453220.320  
  22453214.273  
  21239712.430   111615456.957    21239722.316    86973143.2924   21239722.770  
                
  19308167.445   103032117.810                                                  
  19308164.840  
  23337861.281   122641296.858    23337869.852    95564688.0384   23337869.836  
                
  21117777.391   110974682.462    21117786.367    86473840.7674   21117785.926  
                
 21  8 15 10 31  0.0000000  0 13R20G22G21R 5R 7G27G32R21R22G 8R 6G23
                                G10
  20830108.289   111387971.996                    86635118.379    20830115.902  
  20830107.402  
  24515117.383   128827811.454    24515124.359   100385338.1504                 
                
  22902226.289   120352042.659    22902232.961    93780850.7564                 
                
  20867594.938   111549266.148                    86760548.449    20867599.770  
  20867594.590  
  22597481.547   120966098.691                    94084750.606    22597488.797  
  22597480.121  
  21430244.375   112616679.716    21430253.383    87753322.4924   21430253.434  
                
  20983329.992   110268174.492    20983339.008    85923307.8844   20983339.266  
                
  19422644.062   103934522.610                    80837973.724    19422647.555  
  19422642.035  
  22445943.016   119817997.922                    93191791.737    22445947.305  
  22445941.246  
  21239947.680   111616693.149    21239957.621    86974106.5464   21239958.043  
                
  19305970.133   103020392.579                                                  
  19305967.531  
  23343518.047   122671023.392    23343526.617    95587851.5574   23343526.590  
                
  21120868.750   110990927.720    21120877.723    86486499.4114   21120877.297  
                
 21  8 15 10 31 10.0000000  0 13R20G22G21R 5R 7G27G32R21R22G 8R 6G23
                                G10
  20835643.969   111417573.764                    86658141.957    20835651.617  
  20835643.117  
  24509509.148   128798340.505    24509516.234   100362373.7914                 
                
  22897757.461   120328558.872    22897764.148    93762551.7224                 
                
  20873545.492   111581075.283                    86785288.864    20873550.324  
  20873545.129  
  22590323.367   120927780.407                    94054947.525    22590330.621  
  22590321.941  
  21434551.953   112639316.137    21434560.961    87770961.2614   21434561.004  
                
  20980619.219   110253929.297    20980628.207    85912207.7364   20980628.480  
                
  19420147.328   103921162.110                    80827582.221    19420150.828  
  19420145.293  
  22438673.031   119779190.551                    93161608.259    22438677.387  
  22438671.285  
  21240195.547   111617995.663    21240205.551    86975121.4904   21240205.938  
                
  19303786.375   103008739.648                                                  
  19303783.770  
  23349176.492   122700758.736    23349185.055    95611021.9454   23349185.004  
                
  21123965.633   111007201.932    21123974.613    86499180.6114   21123974.184  
                
 21  8 15 10 31 20.0000000  0 13R20G22G21R 5R 7G27G32R21R22G 8R 6G23
                                G10
  20841189.625   111447228.876                    86681207.031    20841197.293  
  20841188.766  
  24503903.500   128768882.860    24503910.633   100339419.8084                 
                
  22893291.070   120305087.883    22893297.742    93744262.6474                 
                
  20879503.234   111612922.823                    86810059.154    20879508.051  
  20879502.867  
  22583170.898   120889493.059                    94025168.501    22583178.223  
  22583169.531  
  21438869.516   112662005.067    21438878.531    87788640.9414   21438878.570  
                
  20977919.578   110239742.656    20977928.527    85901153.2204   20977928.816  
                
  19417663.391   103907870.092                    80817243.992    19417666.910  
  19417661.336  
  22431406.109   119740399.550                    93131437.494    22431410.387  
  22431404.375  
  21240455.984   111619364.246    21240466.027    86976187.9144   21240466.395  
                
  19301616.094   102997158.616                                                  
  19301613.496  
  23354836.531   122730502.511    23354845.094    95634198.8864   23354845.023  
                
  21127067.945   111023504.684    21127076.934    86511884.0454   21127076.496  
                
 21  8 15 10 31 30.0000000  0 13R20G22G21R 5R 7G27G32R21R22G 8R 6G23
                                G10
  20846745.281   111476937.497                    86704313.719    20846752.957  
  20846744.383  
  24498300.383   128739438.597    24498307.590   100316476.2514                 
                
  22888827.125   120281629.683    22888833.758    93725983.5354                 
                
  20885468.148   111644808.665                    86834859.262    20885472.965  
  20885467.801  
  22576024.250   120851236.988                    93995413.806    22576031.695  
  22576022.941  
  21443197.062   112684746.412    21443206.082    87806361.4584   21443206.133  
                
  20975231.109   110225614.603    20975240.008    85890144.3574   20975240.312  
                
  19415192.281   103894646.708                    80806959.143    19415195.828  
  19415190.203  
  22424142.273   119701624.653                    93101279.271    22424146.543  
  22424140.496  
  21240728.922   111620798.486    21240738.980    86977305.5074   21240739.340  
                
  19299459.297   102985649.487                                                  
  19299456.723  
  23360498.180   122760254.624    23360506.723    95657382.3454   23360506.656  
                
  21130175.672   111039835.889    21130184.680    86524609.6704   21130184.242  
                
 21  8 15 10 31 40.0000000  0 13R20G22G21R 5R 7G27G32R21R22G 8R 6G23
                                G10
  20852310.930   111506699.546                    86727461.956    20852318.617  
  20852310.012  
  24492699.891   128710007.943    24492707.129   100293543.3044                 
                
  22884365.672   120258184.586    22884372.262    93707714.6424                 
                
  20891440.211   111676732.759                    86859689.113    20891445.039  
  20891439.875  
  22568883.547   120813012.344                    93965683.532    22568890.992  
  22568882.230  
  21447534.602   112707540.284    21447543.633    87824122.9074   21447543.680  
                
  20972553.836   110211545.456    20972562.695    85879181.3814   20972563.008  
                
  19412734.039   103881492.191                    80796727.856    19412737.602  
  19412731.965  
  22416881.602   119662866.509                    93071134.044    22416885.762  
  22416879.785  
  21241014.438   111622298.864    21241024.488    86978474.6314   21241024.848  
                
  19297316.047   102974212.722                                                  
  19297313.488  
  23366161.461   122790015.270    23366169.984    95680572.4484   23366169.910  
                
  21133288.859   111056195.766    21133297.895    86537357.6184   21133297.453  
                
 21  8 15 10 31 50.0000000  0 13R20G22G21R 5R 7G27G32R21R22G 8R 6G23
                                G10
  20857886.570   111536515.082                    86750651.810    20857894.262  
  20857885.609  
  24487101.977   128680591.007    24487109.281   100270621.0374                 
                
  22879906.750   120234752.779    22879913.324    93689456.1064                 
                
  20897419.492   111708695.375                    86884548.914    20897424.316  
  20897419.152  
  22561748.789   120774819.275                    93935977.848    22561756.238  
  22561747.434  
  21451882.148   112730386.734    21451891.184    87841925.3324   21451891.215  
                
  20969887.789   110197535.301    20969896.629    85868264.3884   20969896.949  
                
  19410288.734   103868406.873                    80786550.389    19410292.301  
  19410286.652  
  22409624.055   119624125.209                    93041001.988    22409628.160  
  22409622.246  
  21241312.578   111623865.529    21241322.605    86979695.4074   21241322.977  
                
  19295186.344   102962848.178                                                  
  19295183.789  
  23371826.367   122819784.506    23371834.910    95703769.2504   23371834.809  
                
  21136407.500   111072584.348    21136416.570    86550127.9414   21136416.125  
                
 21  8 15 10 32  0.0000000  0 13R20G22G21R 5R 7G27G32R21R22G 8R 6G23
                                G10
  20863472.102   111566383.460                    86773882.761    20863479.801  
  20863471.102  
  24481506.594   128651187.341    24481513.914   100247709.1214                 
                
  22875450.250   120211333.767    22875456.828    93671207.5334                 
                
  20903405.805   111740695.688                    86909438.046    20903410.621  
  20903405.488  
  22554619.719   120736657.462                    93906296.473    22554627.277  
  22554618.477  
  21456239.586   112753285.161    21456248.598    87859768.2504   21456248.648  
                
  20967232.883   110183583.711    20967241.707    85857393.0204   20967242.027  
                
  19407856.281   103855390.381                    80776426.452    19407859.855  
  19407854.195  
  22402369.609   119585400.546                    93010882.791    22402373.680  
  22402367.848  
  21241623.211   111625497.913    21241633.191    86980967.3934   21241633.570  
                
  19293070.109   102951555.578                                                  
  19293067.570  
  23377492.828   122849561.803    23377501.363    95726972.3364   23377501.254  
                
  21139531.500   111089001.100    21139540.602    86562920.2034   21139540.141  
                
 21  8 15 10 32 10.0000000  0 13R20G22G21R 5R 7G27G32R21R22G 8R 6G23
                                G10
  20869067.656   111596305.284                    86797155.280    20869075.348  
  20869066.656  
  24475913.891   128621797.365    24475921.168   100224807.8624                 
                
  22870996.297   120187928.094    22871002.875    93652969.3654                 
                
  20909399.250   111772734.105                    86934356.813    20909404.066  
  20909398.918  
  22547496.531   120698527.355                    93876639.761    22547504.242  
  22547495.383  
  21460606.984   112776235.951    21460615.973    87877651.9824   21460616.039  
                
  20964589.219   110169691.195    20964598.035    85846567.6854   20964598.340  
                
  19405436.773   103842443.131                    80766356.374    19405440.352  
  19405434.688  
  22395118.398   119546692.987                    92980776.916    22395122.359  
  22395116.648  
  21241946.469   111627196.649    21241956.391    86982291.0774   21241956.781  
                
  19290967.383   102940335.070                                                  
  19290964.875  
  23383160.898   122879347.571    23383169.406    95750182.0164   23383169.293  
                
  21142660.938   111105446.446    21142670.070    86575734.7564   21142669.590  
                
 21  8 15 10 32 20.0000000  0 14R20G 1G22G21R 5R 7G27G32R21R22G 8R 6
                                G23G10
  20874673.078   111626280.039                    86820468.935    20874680.770  
  20874672.066  
  24192875.414   127134423.063    24192886.914    99065825.1674   24192886.617  
                
  24470323.711   128592420.910    24470330.992   100201917.1524                 
                
  22866544.875   120164535.755    22866551.457    93634741.5784                 
                
  20915399.734   111804810.108                    86959304.801    20915404.562  
  20915399.379  
  22540379.320   120660428.860                    93847007.640    22540387.121  
  22540378.188  
  21464984.297   112799238.804    21464993.266    87895576.2754   21464993.340  
                
  20961956.750   110155857.531    20961965.570    85835788.2164   20961965.867  
                
  19403030.188   103829565.030                    80756340.074    19403033.762  
  19403028.102  
  22387870.359   119508002.425                    92950684.284    22387874.285  
  22387868.633  
  21242282.258   111628961.204    21242292.102    86983666.0474   21242292.535  
                
  19288878.188   102929186.687                                                  
  19288875.688  
  23388830.523   122909141.539    23388839.027    95773398.0844   23388838.914  
                
  21145795.773   111121920.094    21145804.926    86588571.3504   21145804.438  
                
 21  8 15 10 32 30.0000000  0 14R20G 1G22G21R 5R 7G27G32R21R22G 8R 6
                                G23G10
  20880288.422   111656307.851                    86843823.894    20880296.121  
  20880287.402  
  24186449.562   127100655.219    24186460.973    99039512.5884   24186460.730  
                
  24464736.141   128563057.796    24464743.312   100179036.8054                 
                
  22862095.891   120141156.301    22862102.516    93616523.8544                 
                
  20921407.203   111836923.472                    86984281.856    20921412.055  
  20921406.836  
  22533267.984   120622361.982                    93817400.108    22533275.871  
  22533266.926  
  21469371.461   112822293.455    21469380.410    87913540.9224   21469380.496  
                
  20959335.461   110142082.626    20959344.273    85825054.5344   20959344.559  
                
  19400636.508   103816756.017                    80746377.510    19400640.086  
  19400634.430  
  22380625.406   119469328.659                    92920604.734    22380629.426  
  22380623.723  
  21242630.570   111630791.605    21242640.348    86985092.3354   21242640.820  
                
  19286802.453   102918110.185                                                  
  19286799.949  
  23394501.672   122938943.507    23394510.184    95796620.3864   23394510.062  
                
  21148935.938   111138421.821    21148945.102    86601429.8374   21148944.609  
                
 21  8 15 10 32 40.0000000  0 14R20G 1G22G21R 5R 7G27G32R21R22G 8R 6
                                G23G10
  20885913.680   111686388.640                    86867220.056    20885921.367  
  20885912.668  
  24180024.359   127066890.655    24180035.734    99013202.5564   24180035.512  
                
  24459151.117   128533708.416    24459158.250   100156167.1964                 
                
  22857649.492   120117790.305    22857656.098    93598316.5884                 
                
  20927421.727   111869074.516                    87009288.213    20927426.586  
  20927421.375  
  22526162.672   120584327.143                    93787817.462    22526170.590  
  22526161.664  
  21473768.547   112845400.248    21473777.488    87931546.2094   21473777.590  
                
  20956725.445   110128366.936    20956734.234    85814366.9874   20956734.527  
                
  19398255.844   103804016.619                    80736469.092    19398259.430  
  19398253.766  
  22373383.773   119430672.327                    92890538.706    22373387.773  
  22373382.039  
  21242991.438   111632688.005    21243001.164    86986570.0424   21243001.668  
                
  19284740.250   102907105.935                                                  
  19284737.773  
  23400174.398   122968753.856    23400182.914    95819849.2114   23400182.801  
                
  21152081.523   111154952.019    21152090.707    86614310.5064   21152090.203  
                
 21  8 15 10 32 50.0000000  0 14R20G 1G22G21R 5R 7G27G32R21R22G 8R 6
                                G23G10
  20891548.789   111716522.123                    86890657.208    20891556.496  
  20891547.785  
  24173599.695   127033128.832    24173611.055    98986894.6344   24173610.836  
                
  24453568.688   128504372.311    24453575.707   100133307.9214                 
                
  22853205.547   120094437.226    22853212.094    93580119.3894                 
                
  20933443.180   111901262.604                    87034323.391    20933448.035  
  20933442.836  
  22519063.180   120546323.836                    93758259.362    22519071.211  
  22519062.273  
  21478175.430   112868558.553    21478184.355    87949591.6334   21478184.473  
                
  20954126.602   110114709.938    20954135.363    85803725.1764   20954135.676  
                
  19395888.094   103791346.349                    80726614.449    19395891.695  
  19395886.004  
  22366145.367   119392033.227                    92860486.109    22366149.324  
  22366143.621  
  21243364.797   111634650.001    21243374.484    86988098.8654   21243375.008  
                
  19282691.492   102896173.358                                                  
  19282689.008  
  23405848.617   122998571.990    23405857.117    95843084.1034   23405857.027  
                
  21155232.422   111171510.101    21155241.621    86627212.9014   21155241.105  
                
 21  8 15 10 33  0.0000000  0 14R20G 1G22G21R 5R 7G27G32R21R22G 8R 6
                                G23G10
  20897193.695   111746707.981                    86914135.078    20897201.426  
  20897192.711  
  24167175.469   126999369.683    24167186.887    98960588.8484   24167186.711  
                
  24447988.789   128475049.415    24447995.668   100110458.9144                 
                
  22848764.047   120071097.004    22848770.562    93561932.2184                 
                
  20939471.516   111933487.377                    87059387.090    20939476.352  
  20939471.184  
  22511969.672   120508351.905                    93728725.664    22511977.723  
  22511968.746  
  21482592.078   112891768.172    21482601.000    87967677.0374   21482601.129  
                
  20951538.914   110101111.562    20951547.656    85793129.0444   20951547.973  
                
  19393533.289   103778745.295                    80716813.637    19393536.895  
  19393531.188  
  22358910.133   119353411.041                    92830446.628    22358913.992  
  22358908.406  
  21243750.594   111636677.337    21243760.250    86989678.6004   21243760.801  
                
  19280656.164   102885312.447                                                  
  19280653.688  
  23411524.281   123028397.732    23411532.750    95866324.9394   23411532.680  
                
  21158388.602   111188095.893    21158397.801    86640136.8954   21158397.297  
                
 21  8 15 10 33 10.0000000  0 14R20G 1G22G21R 5R 7G27G32R21R22G 8R 6
                                G23G10
  20902848.617   111776947.389                    86937654.596    20902856.371  
  20902847.645  
  24160751.984   126965614.552    24160763.531    98934286.1904   24160763.352  
                
  24442411.594   128445741.024    24442418.434   100087621.2524                 
                
  22844325.250   120047770.998    22844331.758    93543756.1224                 
                
  20945506.914   111965749.988                    87084480.242    20945511.750  
  20945506.590  
  22504882.391   120470412.941                    93699217.613    22504890.426  
  22504881.352  
  21487018.727   112915030.301    21487027.648    87985803.3614   21487027.770  
                
  20948962.633   110087573.156    20948971.371    85782579.6374   20948971.695  
                
  19391191.648   103766214.745                    80707067.659    19391195.254  
  19391189.555  
  22351678.336   119314807.313                    92800421.512    22351682.203  
  22351676.633  
  21244149.133   111638771.628    21244158.770    86991310.5104   21244159.324  
                
  19278634.469   102874524.338                                                  
  19278631.984  
  23417201.617   123058232.371    23417210.070    95889572.6804   23417210.023  
                
  21161550.281   111204710.642    21161559.457    86653083.4514   21161558.969  
                
 21  8 15 10 33 20.0000000  0 14R20G 1G22G21R 5R 7G27G32R21R22G 8R 6
                                G23G10
  20908513.453   111807239.777                    86961215.336    20908521.199  
  20908512.488  
  24154329.148   126931862.956    24154340.887    98907986.3224   24154340.699  
                
  24436837.016   128416446.618    24436843.867   100064794.4654                 
                
  22839889.062   120024458.700    22839895.559    93525590.6974                 
                
  20951549.320   111998050.022                    87109602.483    20951554.141  
  20951549.027  
  22497801.055   120432506.481                    93669734.837    22497809.168  
  22497800.031  
  21491455.250   112938344.348    21491464.168    88003970.1434   21491464.293  
                
  20946397.672   110074094.216    20946406.410    85772076.5784   20946406.730  
                
  19388863.125   103753754.373                    80697376.256    19388866.734  
  19388861.027  
  22344449.938   119276221.650                    92770410.454    22344453.773  
  22344448.219  
  21244560.258   111640932.077    21244569.891    86992993.9684   21244570.461  
                
  19276626.367   102863808.759                                                  
  19276623.863  
  23422880.555   123088075.314    23422889.012    95912826.8994   23422888.977  
                
  21164717.375   111221353.785    21164726.523    86666052.1374   21164726.039  
                
 21  8 15 10 33 30.0000000  0 14R20G 1G22G21R 5R 7G27G32R21R22G 8R 6
                                G23G10
  20914188.195   111837585.112                    86984817.244    20914195.949  
  20914187.242  
  24147907.094   126898115.001    24147918.926    98881689.2604   24147918.719  
                
  24431265.172   128387166.269    24431272.000   100041978.6404                 
                
  22835455.500   120001160.221    22835461.977    93507436.0634                 
                
  20957598.656   112030387.153                    87134753.578    20957603.484  
  20957598.371  
  22490725.836   120394632.440                    93640277.306    22490733.957  
  22490724.797  
  21495901.641   112961710.261    21495910.531    88022177.3474   21495910.684  
                
  20943844.031   110060674.835    20943852.781    85761619.9224   20943853.094  
                
  19386547.727   103741364.219                    80687739.474    19386551.324  
  19386545.629  
  22337224.914   119237654.270                    92740413.612    22337228.801  
  22337223.215  
  21244984.000   111643158.798    21244993.648    86994729.0764   21244994.199  
                
  19274631.805   102853165.504                                                  
  19274629.281  
  23428561.055   123117926.550    23428569.512    95936087.5864   23428569.484  
                
  21167889.867   111238025.316    21167898.984    86679042.9394   21167898.496  
                
 21  8 15 10 33 40.0000000  0 14R20G 1G22G21R 5R 7G27G32R21R22G 8R 6
                                G23G10
  20919872.711   111867982.902                    87008459.957    20919880.504  
  20919871.770  
  24141485.641   126864370.196    24141497.520    98855394.5974   24141497.273  
                
  24425695.859   128357899.441    24425702.688   100019173.3424                 
                
  22831024.477   119977875.033    22831030.949    93489291.7684                 
                
  20963654.836   112062760.883                    87159933.130    20963659.668  
  20963654.586  
  22483656.695   120356790.605                    93610844.783    22483664.750  
  22483655.605  
  21500357.781   112985127.423    21500366.641    88040424.4724   21500366.816  
                
  20941301.633   110047314.488    20941310.387    85751209.2674   20941310.703  
                
  19384245.359   103729043.814                    80678156.943    19384248.949  
  19384243.262  
  22330003.250   119199104.598                    92710430.591    22330007.137  
  22330001.527  
  21245420.258   111645451.319    21245429.934    86996515.4514   21245430.477  
                
  19272650.750   102842594.260                                                  
  19272648.195  
  23434243.039   123147785.506    23434251.484    95959354.2854   23434251.465  
                
  21171067.641   111254724.626    21171076.746    86692055.3894   21171076.246  
                
 21  8 15 10 33 50.0000000  0 14R20G 1G22G21R 5R 7G27G32R21R22G 8R 6
                                G23G10
  20925567.117   111898433.351                    87032143.632    20925574.898  
  20925566.156  
  24135064.867   126830628.943    24135076.828    98829102.7514   24135076.531  
                
  24420129.148   128328646.472    24420135.977    99996378.8384                 
                
  22826596.055   119954603.527    22826602.543    93471158.1504                 
                
  20969717.891   112095171.287                    87185141.230    20969722.734  
  20969717.672  
  22476593.539   120318981.262                    93581437.530    22476601.609  
  22476592.457  
  21504823.734   113008596.095    21504832.570    88058711.7414   21504832.766  
                
  20938770.555   110034013.615    20938779.305    85740844.9624   20938779.629  
                
  19381956.133   103716793.701                    80668629.074    19381959.719  
  19381954.043  
  22322785.016   119160573.333                    92680461.876    22322788.934  
  22322783.273  
  21245869.078   111647809.848    21245878.801    86998353.2644   21245879.316  
                
  19270683.227   102832095.231                                                  
  19270680.645  
  23439926.578   123177652.514    23439934.973    95982627.2704   23439934.980  
                
  21174250.781   111271452.075    21174259.871    86705089.7654   21174259.379  
                
 21  8 15 10 34  0.0000000  0 14R20G 1G22G21R 5R 7G27G32R21R22G 8R 6
                                G23G10
  20931271.328   111928936.305                    87055868.139    20931279.121  
  20931270.371  
  24128644.703   126796891.189    24128656.789    98802813.6494   24128656.453  
                
  24414565.094   128299407.336    24414571.875    99973595.1144                 
                
  22822170.227   119931345.680    22822176.699    93453035.1674                 
                
  20975787.766   112127618.179                    87210377.691    20975792.621  
  20975787.570  
  22469536.500   120281204.461                    93552055.606    22469544.539  
  22469535.430  
  21509299.445   113032116.105    21509308.262    88077039.0144   21509308.473  
                
  20936250.781   110020772.140    20936259.520    85730526.9374   20936259.844  
                
  19379680.039   103704613.864                    80659155.877    19379683.613  
  19379677.949  
  22315570.219   119122060.340                    92650507.355    22315574.141  
  22315568.422  
  21246330.477   111650234.529    21246340.234    87000242.6164   21246340.723  
                
  19268729.172   102821668.067                                                  
  19268726.602  
  23445611.625   123207527.417    23445619.980    96005906.4104   23445619.969  
                
  21177439.234   111288207.499    21177448.316    86718145.9374   21177447.824  
                
 21  8 15 10 34 10.0000000  0 14R20G 1G22G21R 5R 7G27G32R21R22G 8R 6
                                G23G10
  20936985.281   111959491.276                    87079633.102    20936993.055  
  20936984.320  
  24122225.180   126763156.539    24122237.301    98776526.8994   24122236.965  
                
  24409003.539   128270181.630    24409010.383    99950821.8594                 
                
  22817746.922   119908101.110    22817753.395    93434922.5234                 
                
  20981864.367   112160101.022                    87235642.109    20981869.234  
  20981864.188  
  22462485.570   120243459.929                    93522698.778    22462493.504  
  22462484.426  
  21513784.836   113055686.942    21513793.637    88095405.8904   21513793.852  
                
  20933742.242   110007589.682    20933750.988    85720254.8954   20933751.309  
                
  19377417.023   103692504.026                    80649737.113    19377420.594  
  19377414.953  
  22308358.781   119083565.102                    92620566.641    22308362.609  
  22308356.906  
  21246804.359   111652724.770    21246814.133    87002183.0584   21246814.594  
                
  19266788.578   102811312.747                                                  
  19266785.984  
  23451298.086   123237409.762    23451306.402    96029191.3494   23451306.375  
                
  21180632.914   111304990.404    21180641.980    86731223.5264   21180641.484  
                
 21  8 15 10 34 20.0000000  0 14R20G 1G22G21R 5R 7G27G32R21R22G 8R 6
                                G23G10
  20942709.094   111990098.973                    87103439.073    20942716.867  
  20942708.105  
  24115806.375   126729425.842    24115818.562    98750243.2924   24115818.223  
                
  24403444.773   128240970.139    24403451.570    99928059.6824                 
                
  22813326.289   119884870.620    22813332.770    93416820.8644                 
                
  20987947.805   112192620.418                    87260934.975    20987952.699  
  20987947.609  
  22455440.773   120205748.404                    93493367.613    22455448.633  
  22455439.574  
  21518280.031   113079309.332    21518288.816    88113812.9424   21518289.027  
                
  20931245.086   109994467.049    20931253.848    85710029.4724   20931254.160  
                
  19375167.227   103680464.944                    80640373.380    19375170.801  
  19375165.164  
  22301150.906   119045088.931                    92590640.763    22301154.734  
  22301148.969  
  21247290.859   111655281.362    21247300.625    87004175.1914   21247301.086  
                
  19264861.578   102801029.981                                                  
  19264858.969  
  23456986.086   123267300.316    23456994.379    96052482.6784   23456994.355  
                
  21183831.977   111321801.577    21183841.031    86744323.1434   21183840.543  
                
 21  8 15 10 34 30.0000000  0 14R20G 1G22G21R 5R 7G27G32R21R22G 8R 6
                                G23G10
  20948442.711   112020759.162                    87127285.872    20948450.488  
  20948441.707  
  24109388.312   126695698.849    24109400.574    98723962.5744   24109400.230  
                
  24397888.602   128211772.619    24397895.375    99905308.3834                 
                
  22808908.320   119861654.070    22808914.801    93398730.0544                 
                
  20994038.047   112225176.179                    87286256.117    20994042.953  
  20994037.863  
  22448402.094   120168069.810                    93464062.050    22448409.910  
  22448400.859  
  21522784.969   113102982.896    21522793.730    88132259.8684   21522793.965  
                
  20928759.281   109981404.042    20928768.059    85699850.5124   20928768.367  
                
  19372930.633   103668496.471                    80631064.576    19372934.215  
  19372928.570  
  22293946.547   119006631.592                    92560729.514    22293950.348  
  22293944.664  
  21247789.930   111657903.965    21247799.680    87006218.7724   21247800.148  
                
  19262948.062   102790819.180                                                  
  19262945.426  
  23462675.594   123297198.741    23462683.855    96075780.1224   23462683.836  
                
  21187036.352   111338640.683    21187045.391    86757444.5184   21187044.910  
                
 21  8 15 10 34 40.0000000  0 14R20G 1G22G21R 5R 7G27G32R21R22G 8R 6
                                G23G10
  20954186.344   112051472.872                    87151174.299    20954194.105  
  20954185.367  
  24102971.250   126661976.830    24102983.488    98697685.6634   24102983.121  
                
  24392335.375   128182590.178    24392342.078    99882568.8374                 
                
  22804493.219   119838452.613    22804499.719    93380651.0104                 
                
  21000135.219   112257769.011                    87311606.090    21000140.121  
  21000135.031  
  22441369.750   120130425.251                    93434782.981    22441377.559  
  22441368.531  
  21527299.844   113126708.673    21527308.598    88150747.4744   21527308.844  
                
  20926285.031   109968401.794    20926293.832    85689718.8974   20926294.129  
                
  19370707.492   103656600.038                    80621811.788    19370711.074  
  19370705.434  
  22286745.922   118968194.290                    92530833.841    22286749.703  
  22286744.098  
  21248301.766   111660593.730    21248311.496    87008314.6914   21248311.973  
                
  19261048.312   102780681.822                                                  
  19261045.660  
  23468366.820   123327106.115    23468375.020    96099084.5694   23468375.008  
                
  21190246.250   111355508.799    21190255.270    86770588.5024   21190254.801  
                
 21  8 15 10 34 50.0000000  0 14R20G 1G22G21R 5R 7G27G32R21R22G 8R 6
                                G23G10
  20959939.727   112082238.692                    87175103.281    20959947.488  
  20959938.773  
  24096554.883   126628258.628    24096567.133    98671411.7954   24096566.758  
                
  24386784.789   128153421.766    24386791.398    99859840.2024                 
                
  22800080.766   119815265.120    22800087.285    93362582.8454                 
                
  21006239.117   112290397.819                    87336984.043    21006244.016  
  21006238.895  
  22434343.625   120092813.811                    93405529.690    22434351.383  
  22434342.363  
  21531824.422   113150485.505    21531833.219    88169274.8664   21531833.434  
                
  20923822.148   109955459.264    20923830.980    85679633.8134   20923831.266  
                
  19368497.594   103644774.450                    80612614.114    19368501.176  
  19368495.535  
  22279548.797   118929776.032                    92500953.002    22279552.664  
  22279547.016  
  21248826.164   111663349.481    21248835.875    87010462.0234   21248836.359  
                
  19259162.078   102770616.667                                                  
  19259159.406  
  23474059.508   123357021.341    23474067.672    96122395.1294   23474067.664  
                
  21193461.445   111372404.775    21193470.449    86783754.1934   21193469.992  
                
 21  8 15 10 35  0.0000000  0 14R20G 1G22G21R 5R 7G27G32R21R22G 8R 6
                                G23G10
  20965702.469   112113054.547                    87199071.139    20965710.227  
  20965701.516  
  24090138.852   126594542.056    24090151.090    98645139.1614   24090150.695  
                
  24381236.438   128124265.149    24381243.016    99837120.7764                 
                
  22795670.555   119792089.348    22795677.047    93344523.8144                 
                
  21012349.312   112323060.299                    87362388.197    21012354.215  
  21012349.082  
  22427323.164   120055233.132                    93376300.310    22427330.969  
  22427321.953  
  21536358.273   113174310.984    21536367.121    88187840.1584   21536367.301  
                
  20921370.195   109942574.183    20921379.047    85669593.4984   20921379.324  
                
  19366300.500   103633017.379                    80603469.722    19366304.082  
  19366298.441  
  22272354.859   118891374.370                    92471085.063    22272358.781  
  22272353.086  
  21249362.727   111666169.114    21249372.422    87012659.1414   21249372.914  
                
  19257288.922   102760621.204                                                  
  19257286.230  
  23479753.242   123386942.068    23479761.414    96145709.9654   23479761.395  
                
  21196681.516   111389326.297    21196690.516    86796939.7944   21196690.047  
                
 21  8 15 10 35 10.0000000  0 14R20G 1G22G21R 5R 7G27G32R21R22G 8R 6
                                G23G10
  20971474.984   112143922.626                    87223079.605    20971482.742  
  20971474.004  
  24083723.594   126560829.547    24083735.789    98618869.6784   24083735.387  
                
  24375690.672   128095122.643    24375697.348    99814412.3774                 
                
  22791263.031   119768927.709    22791269.492    93326475.7954                 
                
  21018466.203   112355758.540                    87387820.153    21018471.098  
  21018465.992  
  22420308.930   120017685.752                    93347096.814    22420316.770  
  22420307.785  
  21540901.812   113198187.424    21540910.668    88206445.1634   21540910.855  
                
  20918929.641   109929748.992    20918938.484    85659599.8484   20918938.758  
                
  19364116.719   103621331.528                    80594380.737    19364120.297  
  19364114.664  
  22265164.617   118852992.249                    92441232.342    22265168.559  
  22265162.797  
  21249911.875   111669054.884    21249921.559    87014907.7894   21249922.066  
                
  19255429.352   102750698.256                                                  
  19255426.652  
  23485448.461   123416870.627    23485456.672    96169030.9084   23485456.648  
                
  21199906.883   111406275.677    21199915.887    86810147.1054   21199915.406  
                
 21  8 15 10 35 20.0000000  0 14R20G 1G22G21R 5R 7G27G32R21R22G 8R 6
                                G23G10
  20977257.250   112174842.970                    87247128.741    20977264.992  
  20977256.316  
  24077309.109   126527121.266    24077321.312    98592603.5254   24077320.887  
                
  24370147.703   128065994.501    24370154.383    99791715.1414                 
                
  22786858.234   119745780.448    22786864.676    93308438.9904                 
                
  21024589.789   112388492.575                    87413279.951    21024594.691  
  21024589.582  
  22413301.031   119980172.049                    93317919.518    22413308.832  
  22413299.906  
  21545455.062   113222114.900    21545463.902    88225089.9404   21545464.121  
                
  20916500.516   109916983.872    20916509.359    85649653.0024   20916509.637  
                
  19361946.273   103609717.104                    80585347.288    19361949.859  
  19361944.219  
  22257977.938   118814629.754                    92411394.872    22257981.945  
  22257976.199  
  21250473.617   111672006.848    21250483.297    87017208.0164   21250483.801  
                
  19253583.359   102740847.761                                                  
  19253580.652  
  23491145.188   123446807.155    23491153.430    96192358.0424   23491153.418  
                
  21203137.578   111423253.064    21203146.594    86823376.2364   21203146.105  
                
 21  8 15 10 35 30.0000000  0 14R20G 1G22G21R 5R 7G27G32R21R22G 8R 6
                                G23G10
  20983049.320   112205815.637                    87271218.601    20983057.039  
  20983048.426  
  24070895.438   126493417.289    24070907.637    98566340.6934   24070907.207  
                
  24364607.484   128036880.699    24364614.180    99769029.0814                 
                
  22782456.188   119722647.594    22782462.637    93290413.4044                 
                
  21030720.055   112421262.195                    87438767.433    21030724.965  
  21030719.820  
  22406299.367   119942691.900                    93288768.315    22406307.203  
  22406298.254  
  21550018.016   113246093.343    21550026.867    88243774.4214   21550027.098  
                
  20914082.836   109904278.879    20914091.691    85639753.0164   20914091.961  
                
  19359789.211   103598174.229                    80576369.508    19359792.793  
  19359787.152  
  22250794.977   118776287.054                    92381572.776    22250799.082  
  22250793.328  
  21251047.992   111675025.141    21251057.680    87019559.9374   21251058.168  
                
  19251750.945   102731069.670                                                  
  19251748.207  
  23496843.438   123476751.604    23496851.734    96215691.3494   23496851.695  
                
  21206373.594   111440258.406    21206382.613    86836627.1534   21206382.117  
                
 21  8 15 10 35 40.0000000  0 14R20G 1G22G21R 5R 7G27G32R21R22G 8R 6
                                G23G10
  20988851.031   112236839.826                    87295348.507    20988858.723  
  20988850.199  
  24064482.445   126459717.020    24064494.645    98540080.7654   24064494.219  
                
  24359069.875   128007780.637    24359076.586    99746353.7314                 
                
  22778056.781   119699528.580    22778063.223    93272398.5994                 
                
  21036856.852   112454066.827                    87464282.154    21036861.766  
  21036856.621  
  22399303.875   119905244.924                    93259642.914    22399311.734  
  22399302.805  
  21554590.516   113270121.981    21554599.395    88262498.0274   21554599.617  
                
  20911676.477   109891633.388    20911685.340    85629899.3914   20911685.602  
                
  19357645.414   103586702.367                    80567446.952    19357649.000  
  19357643.367  
  22243615.641   118737963.565                    92351765.647    22243619.738  
  22243614.004  
  21251634.859   111678109.153    21251644.566    87021963.0594   21251645.047  
                
  19249931.961   102721363.327                                                  
  19249929.223  
  23502543.062   123506703.250    23502551.395    96239030.2694   23502551.324  
                
  21209614.789   111457290.970    21209623.816    86849899.2834   21209623.312  
                
 21  8 15 10 35 50.0000000  0 14R20G 1G22G21R 5R 7G27G32R21R22G 8R 6
                                G23G10
  20994662.492   112267916.113                    87319518.945    20994670.156  
  20994661.715  
  24058070.172   126426020.952    24058082.469    98513824.1444   24058082.016  
                
  24353535.000   127978694.844    24353541.727    99723689.4814                 
                
  22773660.070   119676423.854    22773666.500    93254394.9324                 
                
  21043000.258   112486906.766                    87489824.315    21043005.148  
  21043000.055  
  22392314.727   119867831.543                    93230543.640    22392322.555  
  22392313.625  
  21559172.656   113294201.267    21559181.562    88281261.0904   21559181.773  
                
  20909281.531   109879047.933    20909290.402    85620092.5464   20909290.660  
                
  19355514.977   103575301.945                    80558579.960    19355518.562  
  19355512.945  
  22236440.008   118699659.804                    92321973.849    22236444.094  
  22236438.426  
  21252234.289   111681259.154    21252244.008    87024417.6064   21252244.488  
                
  19248126.508   102711729.131                                                  
  19248123.754  
  23508244.148   123536662.589    23508252.484    96262375.2124   23508252.414  
                
  21212861.258   111474351.254    21212870.297    86863193.0004   21212869.785  
                
 21  8 15 10 36  0.0000000  0 14R20G 1G22G21R 5R 7G27G32R21R22G 8R 6
                                G23G10
  21000483.695   112299044.514                    87343729.892    21000491.352  
  21000482.922  
  24051658.883   126392329.469    24051671.121    98487571.0364   24051670.664  
                
  24348002.906   127949623.595    24348009.668    99701036.6134                 
                
  22769266.188   119653333.821    22769272.613    93236402.7064                 
                
  21049150.297   112519782.193                    87515394.085    21049155.199  
  21049150.090  
  22385331.867   119830452.024                    93201470.725    22385339.691  
  22385330.750  
  21563764.461   113318331.338    21563773.379    88300063.7244   21563773.598  
                
  20906898.078   109866522.821    20906906.965    85610332.7244   20906907.215  
                
  19353397.969   103563973.442                    80549768.904    19353401.547  
  19353395.949  
  22229268.070   118661376.194                    92292197.710    22229272.250  
  22229266.570  
  21252846.367   111684475.637    21252856.098    87026923.9504   21252856.566  
                
  19246334.664   102702167.546                                                  
  19246331.914  
  23513946.750   123566629.833    23513955.098    96285726.2904   23513955.031  
                
  21216113.031   111491439.449    21216122.094    86876508.4784   21216121.570  
                
 21  8 15 10 36 10.0000000  0 14R20G 1G22G21R 5R 7G27G32R21R22G 8R 6
                                G23G10
  21006314.477   112330224.110                    87367980.666    21006322.102  
  21006313.750  
  24045248.328   126358641.663    24045260.508    98461320.8314   24045260.078  
                
  24342473.477   127920565.910    24342480.168    99678394.2824                 
                
  22764874.914   119630257.559    22764881.332    93218421.2094                 
                
  21055306.750   112552691.908                    87540990.511    21055311.664  
  21055306.543  
  22378355.281   119793105.582                    93172423.521    22378363.055  
  22378354.098  
  21568365.734   113342511.184    21568374.676    88318905.1514   21568374.879  
                
  20904525.922   109854057.116    20904534.805    85600619.1964   20904535.047  
                
  19351294.250   103552716.014                    80541013.130    19351297.824  
  19351292.246  
  22222099.836   118623112.103                    92262436.777    22222104.051  
  22222098.418  
  21253470.898   111687757.563    21253480.641    87029481.2894   21253481.098  
                
  19244556.242   102692677.588                                                  
  19244553.512  
  23519650.664   123596603.998    23519659.062    96309082.7704   23519658.973  
                
  21219369.938   111508554.583    21219379.012    86889844.9394   21219378.488  
                
 21  8 15 10 36 20.0000000  0 14R20G 1G22G21R 5R 7G27G32R21R22G 8R 6
                                G23G10
  21012154.906   112361455.296                    87392271.578    21012162.492  
  21012154.191  
  24038838.531   126324958.208    24038850.770    98435074.0294   24038850.340  
                
  24336946.836   127891522.578    24336953.383    99655763.1354                 
                
  22760486.367   119607195.675    22760492.781    93200450.9274                 
                
  21061469.727   112585636.521                    87566614.110    21061474.652  
  21061469.516  
  22371385.000   119755793.147                    93143402.765    22371392.762  
  22371383.805  
  21572976.586   113366741.370    21572985.555    88337785.8094   21572985.730  
                
  20902165.211   109841651.533    20902174.066    85590952.5144   20902174.324  
                
  19349203.953   103541530.418                    80532313.222    19349207.516  
  19349201.945  
  22214935.453   118584868.291                    92232691.635    22214939.629  
  22214934.000  
  21254108.000   111691105.541    21254117.758    87032090.0994   21254118.207  
                
  19242791.375   102683259.974                                                  
  19242788.648  
  23525356.023   123626585.699    23525364.438    96332445.1164   23525364.332  
                
  21222632.070   111525697.248    21222641.160    86903202.8624   21222640.641  
                
 21  8 15 10 36 30.0000000  0 14R20G 1G22G21R 5R 7G27G32R21R22G 8R 6
                                G23G10
  21018004.922   112392737.792                    87416602.402    21018012.508  
  21018004.203  
  24032429.492   126291278.738    24032441.809    98408830.3274   24032441.363  
                
  24331422.688   127862493.036    24331429.250    99633142.7314                 
                
  22756100.516   119584147.872    22756106.930    93182491.6084                 
                
  21067639.125   112618615.465                    87592264.391    21067644.070  
  21067638.898  
  22364421.102   119718514.420                    93114408.220    22364428.758  
  22364419.840  
  21577596.938   113391021.408    21577605.918    88356705.3024   21577606.074  
                
  20899815.875   109829305.700    20899824.707    85581332.3914   20899824.984  
                
  19347127.016   103530416.324                    80523668.927    19347130.570  
  19347125.016  
  22207774.789   118546644.338                    92202961.930    22207779.000  
  22207773.285  
  21254757.594   111694519.173    21254767.359    87034750.0624   21254767.805  
                
  19241039.938   102673913.977                                                  
  19241037.242  
  23531062.727   123656574.502    23531071.113    96355813.0144   23531071.004  
                
  21225899.375   111542867.020    21225908.492    86916581.8974   21225907.977  
                
 21  8 15 10 36 40.0000000  0 14R20G 1G22G21R 5R 7G27G32R21R22G 8R 6
                                G23G10
  21023864.516   112424071.607                    87440973.120    21023872.113  
  21023863.816  
  24026021.250   126257603.364    24026033.570    98382589.8244   24026033.137  
                
  24325901.133   127833477.406    24325907.660    99610533.1654                 
                
  22751717.328   119561114.156    22751723.738    93164543.2794                 
                
  21073814.945   112651628.778                    87617941.398    21073819.898  
  21073814.730  
  22357463.453   119681269.179                    93085439.727    22357471.012  
  22357462.133  
  21582226.750   113415351.253    21582235.723    88375663.6114   21582235.883  
                
  20897477.906   109817019.709    20897486.719    85571758.8944   20897487.012  
                
