     2.11           OBSERVATION DATA    M (MIXED)           RINEX VERSION / TYPE
EFT-CORS.RU                             20210817 144832 UTC PGM / RUN BY / DATE 
MDNG                                                        MARKER NAME         
                                                            MARKER NUMBER       
MDNG                EFT-CORS.RU                             OBSERVER / AGENCY   
0                   TRIMBLE BD970       2.0                 REC # / TYPE / VERS 
0                   UNKNOWN EXT NONE                        ANT # / TYPE        
  3463911.2830  3030468.2400  4402179.3760                  APPROX POSITION XYZ 
        0.0000        0.0000        0.0000                  ANTENNA: DELTA H/E/N
     1     1                                                WAVELENGTH FACT L1/2
     6    C1    L1    P2    L2    C2    P1                  # / TYPES OF OBSERV 
    10.000                                                  INTERVAL            
  2021     8    16     8    30    0.0000000     GPS         TIME OF FIRST OBS   
  2021     8    16     9    30    0.0000000     GPS         TIME OF LAST OBS    
     0                                                      RCV CLOCK OFFS APPL 
                                                            END OF HEADER       
 21  8 16  8 30  0.0000000  0 15R12G26R 6R21R22R 5G16G18G27R20G 8G15
                                G10G23R 7
  22988776.906   122801924.638                    95512599.199    22988781.531  
  22988776.438  
  23914323.555   125670601.595    23914335.160    97925174.6694   23914334.844  
                
  19878159.734   106073697.527                                                  
  19878157.238  
  19787937.570   105889268.270                    82358313.206    19787940.988  
  19787935.723  
  22709069.953   121222564.267                    94284238.580    22709072.754  
  22709067.906  
  20594313.078   110088439.822                    85624338.245    20594317.531  
  20594312.766  
  22576338.594   118639464.729    22576345.332    92446362.6354                 
                
  21450625.250   112723826.129    21450632.688    87836764.0884   21450632.656  
                
  21291854.617   111889448.599    21291863.227    87186639.8114   21291863.207  
                
  21043448.234   112528779.333                    87522404.452    21043455.203  
  21043447.406  
  23704157.875   124566177.747    23704167.719    97064608.6954   23704168.246  
                
  23069734.281   121232306.534    23069741.938    94466768.3064   23069741.758  
                
  20769339.250   109143650.307    20769348.457    85047058.3284   20769347.930  
                
  20387134.297   107135151.151    20387141.492    83481971.9914   20387141.426  
                
  23466962.297   125620493.305                    97704817.535    23466969.164  
  23466960.543  
 21  8 16  8 30 10.0000000  0 15R12G26R 6R21R22R 5G16G18G27R20G 8G15
                                G10G23R 7
  22991036.492   122813994.941                    95521987.174    22991041.176  
  22991036.004  
  23920275.398   125701878.875    23920287.031    97949546.5584   23920286.723  
                
  19873509.008   106048880.457                                                  
  19873506.457  
  19785285.867   105875078.496                    82347276.718    19785289.285  
  19785284.027  
  22702769.328   121188931.218                    94258079.577    22702772.195  
  22702767.301  
  20598673.141   110111746.840                    85642465.922    20598677.582  
  20598672.820  
  22580347.094   118660529.515    22580353.820    92462776.7484                 
                
  21454346.008   112743378.862    21454353.402    87851999.9774   21454353.395  
                
  21288087.070   111869649.998    21288095.648    87171212.3354   21288095.652  
                
  21047637.648   112551181.933                    87539828.704    21047644.621  
  21047636.824  
  23698000.492   124533820.356    23698010.336    97039395.1404   23698010.844  
                
  23073194.367   121250489.453    23073202.012    94480936.7954   23073201.824  
                
  20766739.578   109129989.005    20766748.809    85036413.1594   20766748.277  
                
  20388899.242   107144425.989    20388906.438    83489199.1364   20388906.383  
                
  23458499.992   125575194.160                    97669584.892    23458506.848  
  23458498.320  
 21  8 16  8 30 20.0000000  0 15R12G26R 6R21R22R 5G16G18G27R20G 8G15
                                G10G23R 7
  22993310.242   122826140.855                    95531434.026    22993314.895  
  22993309.770  
  23926229.602   125733168.109    23926241.148    97973927.7614   23926240.871  
                
  19868872.219   106024137.783                                                  
  19868869.637  
  19782641.633   105860928.637                    82336271.271    19782645.047  
  19782639.793  
  22696469.172   121155301.344                    94231922.994    22696472.180  
  22696467.320  
  20603046.852   110135126.813                    85660650.336    20603051.289  
  20603046.523  
  22584365.086   118681644.156    22584371.801    92479229.7054                 
                
  21458071.359   112762955.707    21458078.711    87867254.6524   21458078.750  
                
  21284328.555   111849898.899    21284337.121    87155821.8674   21284337.129  
                
  21051834.133   112573622.385                    87557282.357    21051841.098  
  21051833.281  
  23691846.773   124501482.381    23691856.613    97014196.7294   23691857.102  
                
  23076666.242   121268734.213    23076673.859    94495153.4824   23076673.656  
                
  20764149.344   109116377.226    20764158.574    85025806.5794   20764158.039  
                
  20390674.070   107153752.795    20390681.270    83496466.7664   20390681.219  
                
  23450039.867   125529906.375                    97634361.096    23450046.672  
  23450038.219  
 21  8 16  8 30 30.0000000  0 15R12G26R 6R21R22R 5G16G18G27R20G 8G15
                                G10G23R 7
  22995598.141   122838362.344                    95540939.613    22995602.727  
  22995597.664  
  23932185.984   125764469.072    23932197.527    97998318.0934   23932197.266  
                
  19864249.398   105999469.606                                                  
  19864246.797  
  19780004.891   105846818.914                    82325297.045    19780008.305  
  19780003.066  
  22690169.719   121121674.298                    94205768.656    22690172.723  
  22690167.836  
  20607434.164   110158579.508                    85678891.326    20607438.617  
  20607433.840  
  22588392.547   118702808.526    22588399.266    92495721.4064                 
                
  21461801.273   112782556.566    21461808.609    87882528.0424   21461808.656  
                
  21280579.086   111830195.346    21280587.656    87140468.4514   21280587.645  
                
  21056037.695   112596100.740                    87574765.524    21056044.676  
  21056036.832  
  23685696.773   124469163.962    23685706.586    96989013.5474   23685707.059  
                
  23080149.836   121287040.558    23080157.438    94509418.1734   23080157.238  
                
  20761568.523   109102814.918    20761577.738    85015238.5524   20761577.207  
                
  20392458.758   107163131.417    20392465.961    83503774.7754   20392465.914  
                
  23441581.867   125484630.112                    97599146.261    23441588.641  
  23441580.285  
 21  8 16  8 30 40.0000000  0 15R12G26R 6R21R22R 5G16G18G27R20G 8G15
                                G10G23R 7
  22997900.227   122850659.503                    95550504.111    22997904.750  
  22997899.828  
  23938144.656   125795781.993    23938156.172    98022717.7464   23938155.949  
                
  19859640.578   105974876.174                                                  
  19859637.980  
  19777375.695   105832749.550                    82314354.199    19777379.105  
  19777373.879  
  22683870.930   121088050.566                    94179616.864    22683873.832  
  22683869.008  
  20611835.125   110182105.162                    85697189.040    20611839.574  
  20611834.805  
  22592429.492   118724022.746    22592436.215    92512251.9584                 
                
  21465535.820   112802181.715    21465543.137    87897820.3584   21465543.191  
                
  21276838.742   111810539.711    21276847.312    87125152.3724   21276847.301  
                
  21060248.367   112618617.174                    87592278.295    21060255.359  
  21060247.453  
  23679550.578   124436865.464    23679560.332    96963845.8854   23679560.816  
                
  23083645.164   121305408.625    23083652.734    94523730.9464   23083652.551  
                
  20758997.172   109089302.397    20759006.359    85004709.3144   20759005.836  
                
  20394253.352   107172562.104    20394260.562    83511123.3534   20394260.523  
                
  23433126.047   125439366.072                    97563940.923    23433132.902  
  23433124.613  
 21  8 16  8 30 50.0000000  0 15R12G26R 6R21R22R 5G16G18G27R20G 8G15
                                G10G23R 7
  23000216.516   122863032.595                    95560127.614    23000221.027  
  23000216.180  
  23944105.703   125827107.080    23944117.141    98047126.8854   23944116.930  
                
  19855045.852   105950357.883                                                  
  19855043.258  
  19774754.141   105818721.063                    82303443.171    19774757.547  
  19774752.328  
  22677572.688   121054430.601                    94153468.016    22677575.621  
  22677570.863  
  20616249.789   110205704.027                    85715543.722    20616254.250  
  20616249.496  
  22596475.961   118745287.057    22596482.711    92528821.5404                 
                
  21469275.039   112821831.460    21469282.355    87913131.8404   21469282.414  
                
  21273107.578   111790932.353    21273116.145    87109873.9234   21273116.141  
                
  21064466.242   112641172.060                    87609820.966    21064473.234  
  21064465.332  
  23673408.242   124404587.291    23673417.992    96938694.0854   23673418.473  
                
  23087152.289   121323838.723    23087159.844    94538092.0554   23087159.652  
                
  20756435.352   109075839.975    20756444.516    84994219.1194   20756444.004  
                
  20396057.914   107182045.114    20396065.121    83518512.7124   20396065.074  
                
  23424672.609   125394114.453                    97528745.246    23424679.484  
  23424671.223  
 21  8 16  8 31  0.0000000  0 15R12G26R 6R21R22R 5G16G18G27R20G 8G15
                                G10G23R 7
  23002546.969   122875481.412                    95569810.013    23002551.504  
  23002546.637  
  23950068.961   125858444.008    23950080.355    98071545.2564   23950080.141  
                
  19850465.211   105925914.710                                                  
  19850462.621  
  19772140.180   105804733.235                    82292563.748    19772143.578  
  19772138.371  
  22671275.133   121020814.059                    94127321.810    22671278.090  
  22671273.344  
  20620678.070   110229375.652                    85733954.988    20620682.539  
  20620677.805  
  22600531.922   118766601.157    22600538.715    92545429.9134                 
                
  21473018.898   112841505.566    21473026.234    87928462.3084   21473026.277  
                
  21269385.602   111771373.193    21269394.148    87094633.0114   21269394.156  
                
  21068691.242   112663765.129                    87627393.362    21068698.266  
  21068690.340  
  23667269.750   124372329.423    23667279.531    96913558.0924   23667280.008  
                
  23090671.180   121342330.617    23090678.730    94552501.3364   23090678.527  
                
  20753883.039   109062427.470    20753892.188    84983767.8164   20753891.684  
                
  20397872.383   107191580.174    20397879.594    83525942.6264   20397879.539  
                
  23416221.469   125348875.137                    97493559.163    23416228.375  
  23416220.176  
 21  8 16  8 31 10.0000000  0 15R12G26R 6R21R22R 5G16G18G27R20G 8G15
                                G10G23R 7
  23004891.531   122888005.570                    95579550.988    23004896.121  
  23004891.176  
  23956034.445   125889792.557    23956045.773    98095972.6764   23956045.574  
                
  19845898.648   105901546.641                                                  
  19845896.078  
  19769533.836   105790786.138                    82281716.015    19769537.230  
  19769532.039  
  22664978.273   120987200.779                    94101178.148    22664981.148  
  22664976.449  
  20625119.930   110253119.913                    85752422.733    20625124.398  
  20625119.703  
  22604597.312   118787964.827    22604604.117    92562076.9144                 
                
  21476767.367   112861203.900    21476774.738    87943811.6474   21476774.758  
                
  21265672.781   111751862.166    21265681.320    87079429.6094   21265681.320  
                
  21072923.367   112686396.283                    87644995.364    21072930.430  
  21072922.465  
  23661135.094   124340091.799    23661144.883    96888437.9064   23661145.402  
                
  23094201.812   121360884.184    23094209.336    94566958.6514   23094209.125  
                
  20751340.195   109049064.762    20751349.320    84973355.3214   20751348.820  
                
  20399696.719   107201167.120    20399703.934    83533412.9714   20399703.879  
                
  23407772.625   125303648.404                    97458382.838    23407779.613  
  23407771.414  
 21  8 16  8 31 20.0000000  0 15R12G26R 6R21R22R 5G16G18G27R20G 8G15
                                G10G23R 7
  23007250.234   122900605.253                    95589350.741    23007254.906  
  23007249.863  
  23962002.102   125921152.805    23962013.402    98120409.2154   23962013.230  
                
  19841346.164   105877253.748                                                  
  19841343.602  
  19766935.117   105776879.870                    82270900.034    19766938.504  
  19766933.320  
  22658682.094   120953591.364                    94075037.520    22658684.945  
  22658680.246  
  20629575.375   110276936.772                    85770946.952    20629579.840  
  20629575.156  
  22608672.156   118809378.189    22608678.953    92578762.6444                 
                
  21480520.484   112880926.637    21480527.867    87959180.0074   21480527.902  
                
  21261969.164   111732399.541    21261977.699    87064263.9344   21261977.695  
                
  21077162.664   112709065.694                    87662627.114    21077169.750  
  21077161.703  
  23655004.344   124307874.692    23655014.113    96863333.6744   23655014.660  
                
  23097744.164   121379499.427    23097751.652    94581464.0414   23097751.457  
                
  20748806.867   109035752.074    20748815.973    84962981.7984   20748815.480  
                
  20401530.953   107210806.084    20401538.160    83540923.8544   20401538.109  
                
  23399326.195   125258434.379                    97423216.392    23399333.207  
  23399325.020  
 21  8 16  8 31 30.0000000  0 15R12G26R 6R21R22R 5G16G18G27R20G 8G15
                                G10G23R 7
  23009623.031   122913280.253                    95599209.031    23009627.809  
  23009622.648  
  23967971.922   125952524.545    23967983.258    98144854.7024   23967983.078  
                
  19836807.820   105853036.222                                                  
  19836805.285  
  19764344.047   105763014.511                    82260115.864    19764347.438  
  19764342.246  
  22652386.547   120919985.541                    94048899.651    22652389.402  
  22652384.727  
  20634044.352   110300825.967                    85789527.445    20634048.809  
  20634044.172  
  22612756.406   118830841.008    22612763.168    92595486.9024                 
                
  21484278.219   112900673.670    21484285.617    87974567.2884   21484285.664  
                
  21258274.758   111712985.314    21258283.289    87049135.9624   21258283.297  
                
  21081409.070   112731773.236                    87680288.531    21081416.199  
  21081408.062  
  23648877.492   124275677.950    23648887.234    96838245.2984   23648887.773  
                
  23101298.242   121398176.220    23101305.711    94596017.3894   23101305.531  
                
  20746283.039   109022489.297    20746292.125    84952647.1684   20746291.645  
                
  20403375.062   107220496.916    20403382.262    83548475.1474   20403382.211  
                
  23390882.211   125213233.047                    97388059.808    23390889.172  
  23390881.012  
 21  8 16  8 31 40.0000000  0 15R12G26R 6R21R22R 5G16G18G27R20G 8G15
                                G10G23R 7
  23012009.875   122926030.216                    95609125.650    23012014.715  
  23012009.488  
  23973943.844   125983907.326    23973955.191    98169308.7894   23973955.004  
                
  19832283.562   105828893.933                                                  
  19832281.051  
  19761760.555   105749189.756                    82249363.269    19761763.934  
  19761758.754  
  22646091.656   120886382.999                    94022764.359    22646094.488  
  22646089.828  
  20638526.781   110324787.090                    85808163.865    20638531.223  
  20638526.637  
  22616849.992   118852352.889    22616856.723    92612249.3934                 
                
  21488040.508   112920444.648    21488047.922    87989973.2354   21488047.973  
                
  21254589.516   111693619.203    21254598.031    87034045.4914   21254598.051  
                
  21085662.594   112754518.700                    87697979.430    21085669.746  
  21085661.562  
  23642754.516   124243501.488    23642764.266    96813172.7404   23642764.789  
                
  23104863.953   121416914.149    23104871.426    94610618.3764   23104871.230  
                
  20743768.641   109009276.109    20743777.715    84942351.1824   20743777.230  
                
  20405228.961   107230239.222    20405236.145    83556066.5504   20405236.098  
                
  23382440.586   125168044.238                    97352912.977    23382447.461  
  23382439.367  
 21  8 16  8 31 50.0000000  0 15R12G26R 6R21R22R 5G16G18G27R20G 8G15
                                G10G23R 7
  23014410.781   122938855.327                    95619100.770    23014415.629  
  23014410.363  
  23979917.969   126015301.394    23979929.262    98193771.6884   23979929.090  
                
  19827773.398   105804826.855                                                  
  19827770.883  
  19759184.734   105735405.999                    82238642.571    19759188.105  
  19759182.934  
  22639797.492   120852784.421                    93996632.169    22639800.316  
  22639795.664  
  20643022.719   110348820.345                    85826856.390    20643027.133  
  20643022.598  
  22620952.961   118873914.038    22620959.676    92629050.2714                 
                
  21491807.414   112940239.885    21491814.859    88005398.0934   21491814.902  
                
  21250913.508   111674301.672    21250922.020    87018992.8684   21250922.031  
                
  21089923.227   112777302.368                    87715700.031    21089930.418  
  21089922.203  
  23636635.461   124211345.656    23636645.254    96788116.2714   23636645.750  
                
  23108441.367   121435713.554    23108448.855    94625267.2504   23108448.660  
                
  20741263.758   108996112.885    20741272.820    84932094.1254   20741272.332  
                
  20407092.711   107240033.287    20407099.867    83563698.2814   20407099.836  
                
  23374001.484   125122868.481                    97317776.273    23374008.211  
  23374000.152  
 21  8 16  8 32  0.0000000  0 15R12G26R 6R21R22R 5G16G18G27R20G 8G15
                                G10G23R 7
  23016825.742   122951755.626                    95629134.338    23016830.590  
  23016825.309  
  23985894.188   126046706.634    23985905.430    98218243.2794   23985905.285  
                
  19823277.484   105780835.796                                                  
  19823274.969  
  19756616.609   105721663.463                    82227953.934    19756619.973  
  19756614.801  
  22633504.031   120819189.617                    93970502.880    22633506.871  
  22633502.207  
  20647532.125   110372925.640                    85845604.958    20647536.512  
  20647532.035  
  22625065.281   118895524.364    22625071.965    92645889.4794                 
                
  21495578.938   112960059.362    21495586.402    88020841.8334   21495586.449  
                
  21247246.758   111655032.779    21247255.273    87003978.1444   21247255.289  
                
  21094190.992   112800124.051                    87733450.229    21094198.180  
  21094190.012  
  23630520.359   124179210.634    23630530.184    96763076.0104   23630530.660  
                
  23112030.438   121454574.268    23112037.945    94639963.9354   23112037.758  
                
  20738768.367   108982999.621    20738777.410    84921876.0014   20738776.926  
                
  20408966.289   107249879.034    20408973.422    83571370.2964   20408973.410  
                
  23365564.719   125077705.818                    97282649.768    23365571.422  
  23365563.363  
 21  8 16  8 32 10.0000000  0 15R12G26R 6R21R22R 5G16G18G27R20G 8G15
                                G10G23R 7
  23019254.727   122964730.766                    95639226.090    23019259.562  
  23019254.328  
  23991872.578   126078122.860    23991883.711    98242723.4414   23991883.578  
                
  19818795.719   105756920.322                                                  
  19818793.191  
  19754056.172   105707962.020                    82217297.253    19754059.535  
  19754054.371  
  22627211.289   120785598.503                    93944376.463    22627214.109  
  22627209.473  
  20652054.953   110397102.668                    85864409.300    20652059.320  
  20652054.895  
  22629186.938   118917183.731    22629193.590    92662766.9094                 
                
  21499355.055   112979902.982    21499362.547    88036304.3904   21499362.594  
                
  21243589.266   111635812.499    21243597.785    86989001.3124   21243597.805  
                
  21098465.898   112822983.940                    87751230.153    21098473.105  
  21098464.914  
  23624409.211   124147096.425    23624419.078    96738051.9674   23624419.527  
                
  23115631.172   121473496.183    23115638.656    94654708.2944   23115638.465  
                
  20736282.484   108969936.237    20736291.500    84911696.7394   20736291.031  
                
  20410849.688   107259776.352    20410856.785    83579082.4864   20410856.805  
                
  23357130.453   125032556.383                    97247533.555    23357137.105  
  23357129.016  
 21  8 16  8 32 20.0000000  0 15R12G26R 6R21R22R 5G16G18G27R20G 8G15
                                G10G23R 7
  23021697.734   122977780.755                    95649376.084    23021702.566  
  23021697.367  
  23997853.008   126109550.048    23997864.062    98267212.1464   23997863.945  
                
  19814328.195   105733080.789                                                  
  19814325.664  
  19751503.438   105694301.790                    82206672.630    19751506.785  
  19751501.645  
  22620919.273   120752011.316                    93918253.083    22620922.113  
  22620917.477  
  20656591.203   110421351.407                    85883269.422    20656595.547  
  20656591.164  
  22633317.891   118938892.018    22633324.523    92679682.4424                 
                
  21503135.781   112999770.805    21503143.336    88051785.8044   21503143.359  
                
  21239941.055   111616641.039    21239949.578    86974062.5134   21239949.594  
                
  21102747.922   112845881.819                    87769039.573    21102755.129  
  21102746.910  
  23618302.000   124115002.908    23618311.875    96713044.0564   23618312.324  
                
  23119243.547   121492479.295    23119251.020    94669500.3294   23119250.824  
                
  20733806.102   108956922.810    20733815.098    84901556.4134   20733814.648  
                
  20412742.898   107269725.240    20412749.984    83586834.8644   20412750.012  
                
  23348698.688   124987420.290                    97212427.712    23348705.305  
  23348697.168  
 21  8 16  8 32 30.0000000  0 15R12G26R 6R21R22R 5G16G18G27R20G 8G15
                                G10G23R 7
  23024154.766   122990905.651                    95659584.316    23024159.586  
  23024154.418  
  24003835.469   126140988.159    24003846.527    98291709.3584   24003846.426  
                
  19809874.930   105709317.310                                                  
  19809872.395  
  19748958.469   105680683.100                    82196080.301    19748961.789  
  19748956.684  
  22614628.109   120718428.314                    93892132.995    22614630.859  
  22614626.254  
  20661140.883   110445671.911                    85902185.360    20661145.207  
  20661140.844  
  22637458.156   118960649.176    22637464.781    92696636.0614                 
                
  21506921.133   113019662.901    21506928.734    88067286.1284   21506928.738  
                
  21236302.172   111597518.526    21236310.695    86959161.8464   21236310.719  
                
  21107037.102   112868818.006                    87786878.849    21107044.336  
  21107036.125  
  23612198.844   124082930.582    23612208.703    96688052.6264   23612209.148  
                
  23122867.570   121511523.609    23122875.027    94684340.0544   23122874.855  
                
  20731339.250   108943959.465    20731348.223    84891455.1054   20731347.781  
                
  20414645.938   107279725.727    20414653.020    83594627.4524   20414653.047  
                
  23340269.352   124942297.875                    97177332.505    23340276.051  
  23340267.875  
 21  8 16  8 32 40.0000000  0 15R12G26R 6R21R22R 5G16G18G27R20G 8G15
                                G10G23R 7
  23026625.805   123004105.447                    95669850.793    23026630.645  
  23026625.469  
  24009819.945   126172437.126    24009831.105    98316215.0134   24009830.980  
                
  19805435.891   105685629.824                                                  
  19805433.355  
  19746421.234   105667105.889                    82185520.263    19746424.551  
  19746419.461  
  22608337.703   120684849.416                    93866016.104    22608340.336  
  22608335.793  
  20665703.922   110470063.923                    85921156.923    20665708.230  
  20665703.891  
  22641607.719   118982455.188    22641614.363    92713627.7514                 
                
  21510711.102   113039579.289    21510718.738    88082805.3894   21510718.742  
                
  21232672.609   111578445.080    21232681.125    86944299.4284   21232681.156  
                
  21111333.422   112891792.344                    87804747.748    21111340.656  
  21111332.465  
  23606099.695   124050879.338    23606109.523    96663077.6424   23606109.984  
                
  23126503.219   121530629.066    23126510.656    94699227.4354   23126510.500  
                
  20728881.938   108931046.239    20728890.898    84881392.8524   20728890.457  
                
  20416558.781   107289777.795    20416565.875    83602460.2374   20416565.879  
                
  23331842.492   124897189.137                    97142247.945    23331849.375  
  23331841.152  
 21  8 16  8 32 50.0000000  0 16R12G26R 6R21R22G32R 5G16G18G27R20G 8
                                G15G10G23R 7
  23029110.773   123017379.619                    95680175.139    23029115.645  
  23029110.465  
  24015806.461   126203896.668    24015817.691    98340728.9074   24015817.551  
                
  19801011.125   105662018.463                                                  
  19801008.578  
  19743891.758   105653570.070                    82174992.398    19743895.055  
  19743890.000  
  22602047.977   120651274.553                    93839902.287    22602050.562  
  22602046.070  
  24695765.289   129777117.867    24695776.387   101125073.8134   24695776.465  
                
  20670280.305   110494527.281                    85940183.975    20670284.621  
  20670280.273  
  22645766.539   119004309.888    22645773.203    92730657.3774                 
                
  21514505.656   113059519.761    21514513.348    88098343.4054   21514513.320  
                
  21229052.375   111559420.598    21229060.883    86929475.1554   21229060.918  
                
  21115636.852   112914804.729                    87822646.251    21115644.102  
  21115635.926  
  23600004.562   124018849.042    23600014.359    96638118.9654   23600014.848  
                
  23130150.484   121549795.460    23130157.934    94714162.2964   23130157.762  
                
  20726434.133   108918182.948    20726443.094    84871369.5124   20726442.652  
                
  20418481.406   107299881.210    20418488.504    83610333.0234   20418488.500  
                
  23323418.359   124852094.054                    97107174.001    23323425.234  
  23323417.000  
 21  8 16  8 33  0.0000000  0 16R12G26R 6R21R22G32R 5G16G18G27R20G 8
                                G15G10G23R 7
  23031609.734   123030728.543                    95690557.642    23031614.613  
  23031609.434  
  24021795.070   126235366.807    24021806.254    98365251.0824   24021806.129  
                
  19796600.625   105638483.227                                                  
  19796598.082  
  19741370.070   105640076.020                    82164497.033    19741373.363  
  19741368.297  
  22595759.039   120617703.953                    93813791.832    22595761.633  
  22595757.105  
  24689024.781   129741696.471    24689035.922   101097472.7344   24689036.023  
                
  20674870.039   110519062.046                    85959266.558    20674874.363  
  20674870.000  
  22649934.625   119026213.235    22649941.305    92747724.9124                 
                
  21518304.812   113079484.445    21518312.531    88113900.2994   21518312.480  
                
  21225441.484   111540445.292    21225449.973    86914689.2014   21225450.012  
                
  21119947.414   112937855.247                    87840574.438    21119954.703  
  21119946.520  
  23593913.477   123986840.203    23593923.305    96613177.0234   23593923.797  
                
  23133809.352   121569022.890    23133816.812    94729144.7124   23133816.648  
                
  20723995.844   108905369.730    20724004.809    84861385.1984   20724004.355  
                
  20420413.805   107310036.022    20420420.898    83618245.8714   20420420.883  
                
  23314996.820   124807013.108                    97072111.060    23315003.750  
  23314995.477  
 21  8 16  8 33 10.0000000  0 16R12G26R 6R21R22G32R 5G16G18G27R20G 8
                                G15G10G23R 7
  23034122.570   123044151.679                    95700997.867    23034127.449  
  23034122.270  
  24027785.531   126266847.176    24027796.781    98389781.2164   24027796.680  
                
  19792204.430   105615024.252                                                  
  19792201.898  
  19738856.125   105626623.357                    82154033.852    19738859.406  
  19738854.352  
  22589470.961   120584137.442                    93787684.574    22589473.527  
  22589469.008  
  24682283.719   129706272.388    24682294.910   101069869.5494   24682295.035  
                
  20679473.039   110543667.661                    85978404.252    20679477.355  
  20679473.000  
  22654111.883   119048164.864    22654118.570    92764830.0644                 
                
  21522108.531   113099473.074    21522116.258    88129475.8474   21522116.207  
                
  21221839.930   111521518.984    21221848.395    86899941.4374   21221848.457  
                
  21124265.086   112960943.801                    87858532.196    21124272.395  
  21124264.207  
  23587826.398   123954852.449    23587836.230    96588251.5224   23587836.738  
                
  23137479.766   121588311.008    23137487.262    94744174.4074   23137487.113  
                
  20721567.055   108892606.370    20721576.031    84851439.7224   20721575.578  
                
  20422355.930   107320241.952    20422363.004    83626198.5394   20422362.996  
                
  23306578.008   124761945.994                    97037058.867    23306584.863  
  23306576.551  
 21  8 16  8 33 20.0000000  0 16R12G26R 6R21R22G32R 5G16G18G27R20G 8
                                G15G10G23R 7
  23036649.305   123057648.985                    95711495.727    23036654.156  
  23036649.012  
  24033778.031   126298337.716    24033789.207    98414319.2724   24033789.156  
                
  19787822.516   105591641.488                                                  
  19787819.996  
  19736349.961   105613212.366                    82143603.082    19736353.250  
  19736348.188  
  22583183.562   120550574.959                    93761580.419    22583186.172  
  22583181.676  
  24675542.258   129670845.776    24675553.406   101042264.3954   24675553.551  
                
  20684089.281   110568344.066                    85997596.992    20684093.617  
  20684089.254  
  22658298.336   119070164.745    22658305.027    92781972.8074                 
                
  21525916.812   113119485.670    21525924.531    88145070.0654   21525924.465  
                
  21218247.719   111502641.822    21218256.168    86885231.9584   21218256.258  
                
  21128589.867   112984070.282                    87876519.437    21128597.191  
  21128589.023  
  23581743.375   123922886.002    23581753.223    96563342.6234   23581753.719  
                
  23141161.711   121607659.738    23141169.266    94759251.3374   23141169.121  
                
  20719147.758   108879892.905    20719156.754    84841533.1284   20719156.289  
                
  20424307.789   107330498.971    20424314.824    83634191.0224   20424314.844  
                
  23298161.758   124716892.985                    97002017.660    23298168.609  
  23298160.258  
 21  8 16  8 33 30.0000000  0 16R12G26R 6R21R22G32R 5G16G18G27R20G 8
                                G15G10G23R 7
  23039189.930   123071220.464                    95722051.331    23039194.797  
  23039189.621  
  24039772.383   126329838.333    24039783.586    98438865.1844   24039783.570  
                
  19783454.898   105568335.033                                                  
  19783452.387  
  19733851.562   105599842.941                    82133204.636    19733854.840  
  19733849.797  
  22576896.930   120517016.901                    93735479.710    22576899.602  
  22576895.094  
  24668800.273   129635416.701    24668811.438   101014657.3294   24668811.625  
                
  20688718.742   110593091.175                    86016844.742    20688723.102  
  20688718.699  
  22662493.953   119092212.792    22662500.676    92799153.0944                 
                
  21529729.648   113139522.202    21529737.359    88160682.9394   21529737.297  
                
  21214664.883   111483813.860    21214673.316    86870560.8244   21214673.410  
                
  21132921.734   113007234.643                    87894536.162    21132929.082  
  21132920.945  
  23575664.453   123890941.057    23575674.297    96538450.4654   23575674.770  
                
  23144855.172   121627069.036    23144862.789    94774375.4614   23144862.629  
                
  20716737.961   108867229.343    20716746.980    84831665.4214   20716746.496  
                
  20426269.352   107340807.014    20426276.352    83642223.2624   20426276.395  
                
  23289748.141   124671854.193                    96966987.512    23289755.004  
  23289746.586  
 21  8 16  8 33 40.0000000  0 16R12G26R 6R21R22G32R 5G16G18G27R20G 8
                                G15G10G23R 7
  23041744.414   123084866.032                    95732664.544    23041749.270  
  23041744.086  
  24045768.680   126361349.015    24045779.922    98463418.9334   24045779.914  
                
  19779101.641   105545105.184                                                  
  19779099.145  
  19731361.016   105586515.496                    82122838.846    19731364.293  
  19731359.254  
  22570611.070   120483463.111                    93709382.376    22570613.832  
  22570609.273  
  24662057.875   129599985.423    24662069.051   100987048.5394   24662069.273  
                
  20693361.438   110617909.037                    86036147.510    20693365.828  
  20693361.395  
  22666698.727   119114309.009    22666705.484    92816370.9214                 
                
  21533547.055   113159582.827    21533554.758    88176314.5794   21533554.695  
                
  21211091.445   111465035.354    21211099.875    86855928.2214   21211099.984  
                
  21137260.742   113030437.173                    87912582.563    21137268.109  
  21137259.969  
  23569589.602   123859017.535    23569599.438    96513574.9894   23569599.871  
                
  23148560.172   121646538.978    23148567.855    94789546.8334   23148567.688  
                
  20714337.688   108854615.846    20714346.738    84821836.7254   20714346.242  
                
  20428240.633   107351166.189    20428247.602    83650295.3384   20428247.668  
                
  23281337.281   124626829.773                    96931968.540    23281344.078  
  23281335.645  
 21  8 16  8 33 50.0000000  0 16R12G26R 6R21R22G32R 5G16G18G27R20G 8
                                G15G10G23R 7
  23044312.727   123098585.529                    95743335.251    23044317.590  
  23044312.336  
  24051766.867   126392869.542    24051778.102    98487980.3664   24051778.094  
                
  19774762.750   105521952.068                                                  
  19774760.246  
  19728878.273   105573229.836                    82112505.555    19728881.551  
  19728876.531  
  22564326.117   120449913.582                    93683288.291    22564328.891  
  22564324.309  
  24655315.102   129564551.882    24655326.262   100959437.9874   24655326.539  
                
  20698017.305   110642797.290                    86055505.022    20698021.711  
  20698017.242  
  22670912.641   119136453.197    22670919.422    92833626.1234                 
                
  21537369.023   113179667.354    21537376.715    88191964.8524   21537376.652  
                
  21207527.398   111446306.169    21207535.828    86841334.0564   21207535.941  
                
  21141606.844   113053677.624                    87930658.446    21141614.203  
  21141606.102  
  23563518.820   123827115.385    23563528.652    96488716.1754   23563529.098  
                
  23152276.672   121666069.280    23152284.426    94804765.2554   23152284.242  
                
  20711946.922   108842052.249    20711956.000    84812046.9184   20711955.492  
                
  20430221.609   107361576.254    20430228.566    83658407.0744   20430228.637  
                
  23272929.094   124581819.800                    96896960.786    23272935.824  
  23272927.395  
 21  8 16  8 34  0.0000000  0 16R12G26R 6R21R22G32R 5G16G18G27R20G 8
                                G15G10G23R 7
  23046894.906   123112379.020                    95754063.514    23046899.746  
  23046894.480  
  24057766.977   126424399.931    24057778.188    98512549.4844   24057778.172  
                
  19770438.195   105498875.486                                                  
  19770435.684  
  19726403.398   105559986.223                    82102204.967    19726406.676  
  19726401.652  
  22558042.102   120416368.711                    93657197.839    22558044.836  
  22558040.246  
  24648571.977   129529116.355    24648583.078   100931825.8804   24648583.387  
                
  20702686.367   110667756.033                    86074917.367    20702690.797  
  20702686.305  
  22675135.695   119158645.458    22675142.508    92850918.7764                 
                
  21541195.562   113199775.898    21541203.250    88207633.8384   21541203.195  
                
  21203972.797   111427626.592    21203981.223    86826778.5394   21203981.332  
                
  21145960.047   113076956.144                    87948763.953    21145967.410  
  21145959.348  
  23557452.195   123795235.104    23557462.012    96463874.4114   23557462.469  
                
  23156004.672   121685660.066    23156012.488    94820030.8094   23156012.273  
                
  20709565.672   108829538.730    20709574.766    84802296.1264   20709574.242  
                
  20432212.281   107372037.304    20432219.238    83666558.5484   20432219.297  
                
  23264523.617   124536824.375                    96861964.361    23264530.289  
  23264521.863  
 21  8 16  8 34 10.0000000  0 16R12G26R 6R21R22G32R 5G16G18G27R20G 8
                                G15G10G23R 7
  23049490.883   123126246.307                    95764849.160    23049495.738  
  23049490.352  
  24063768.797   126455940.076    24063780.121    98537126.1904   24063780.105  
                
  19766128.062   105475875.859                                                  
  19766125.570  
  19723936.367   105546784.674                    82091937.103    19723939.637  
  19723934.621  
  22551758.852   120382828.285                    93631110.867    22551761.547  
  22551757.020  
  24641828.398   129493678.832    24641839.488   100904212.2214   24641839.836  
                
  20707368.555   110692784.996                    86094384.335    20707372.992  
  20707368.492  
  22679367.875   119180885.635    22679374.695    92868248.7724                 
                
  21545026.664   113219908.442    21545034.363    88223321.5294   21545034.293  
                
  21200427.633   111408996.631    21200436.051    86812261.6894   21200436.160  
                
  21150320.391   113100272.744                    87966899.073    21150327.766  
  21150319.727  
  23551389.727   123763376.645    23551399.512    96439049.6354   23551399.949  
                
  23159744.180   121705311.250    23159752.043    94835343.4134   23159751.836  
                
  20707193.945   108817075.247    20707203.059    84792584.3264   20707202.523  
                
  20434212.641   107382549.252    20434219.602    83674749.6804   20434219.660  
                
  23256120.852   124491843.799                    96826979.490    23256127.512  
  23256119.105  
 21  8 16  8 34 20.0000000  0 16R12G26R 6R21R22G32R 5G16G18G27R20G 8
                                G15G10G23R 7
  23052100.680   123140187.477                    95775692.256    23052105.555  
  23052100.059  
  24069772.508   126487490.016    24069783.898    98561710.5384   24069783.891  
                
  19761832.367   105452953.243                                                  
  19761829.906  
  19721477.266   105533625.479                    82081702.172    19721480.531  
  19721475.523  
  22545476.641   120349292.808                    93605027.717    22545479.129  
  22545474.727  
  24635084.492   129458239.646    24635095.574   100876597.2664   24635095.953  
                
  20712063.906   110717884.282                    86113905.992    20712068.359  
  20712063.828  
  22683609.172   119203173.765    22683615.992    92885616.1394                 
                
  21548862.359   113240065.115    21548870.078    88239028.0204   21548869.969  
                
  21196891.953   111390416.517    21196900.359    86797783.6834   21196900.480  
                
  21154687.836   113123627.293                    87985063.727    21154695.203  
  21154687.199  
  23545331.477   123731540.295    23545341.246    96414242.0994   23545341.668  
                
  23163495.172   121725022.856    23163503.098    94850703.1084   23163502.902  
                
  20704831.781   108804661.967    20704840.914    84782911.6454   20704840.371  
                
  20436222.711   107393112.190    20436229.684    83682980.5414   20436229.734  
                
  23247720.867   124446878.306                    96792006.363    23247727.531  
  23247719.176  
 21  8 16  8 34 30.0000000  0 16R12G26R 6R21R22G32R 5G16G18G27R20G 8
                                G15G10G23R 7
  23054724.289   123154202.330                    95786592.700    23054729.137  
  23054723.676  
  24075778.156   126519049.471    24075789.480    98586302.3084   24075789.500  
                
  19757551.078   105430107.565                                                  
  19757548.637  
  19719026.047   105520508.521                    82071500.093    19719029.309  
  19719024.312  
  22539195.211   120315761.897                    93578948.130    22539197.582  
  22539193.223  
  24628340.203   129422798.681    24628351.312   100848980.9204   24628351.723  
                
  20716772.359   110743053.613                    86133482.133    20716776.812  
  20716772.297  
  22687859.508   119225509.386    22687866.316    92903020.5044                 
                
  21552702.609   113260245.742    21552710.324    88254753.1724   21552710.207  
                
  21193365.758   111371886.220    21193374.145    86783344.4904   21193374.273  
                
  21159062.398   113147019.974                    88003258.010    21159069.777  
  21159061.766  
  23539277.375   123699725.876    23539287.160    96389451.6634   23539287.574  
                
  23167257.617   121744794.735    23167265.598    94866109.7454   23167265.414  
                
  20702479.141   108792298.760    20702488.289    84773277.9824   20702487.738  
                
  20438242.445   107403725.926    20438249.418    83691250.9774   20438249.453  
                
  23239323.750   124401927.787                    96757044.880    23239330.344  
  23239322.059  
 21  8 16  8 34 40.0000000  0 16R12G26R 6R21R22G32R 5G16G18G27R20G 8
                                G15G10G23R 7
  23057361.641   123168290.692                    95797550.332    23057366.418  
  23057361.004  
  24081785.578   126550618.357    24081796.836    98610901.4334   24081796.871  
                
  19753284.281   105407339.176                                                  
  19753281.859  
  19716582.734   105507433.821                    82061330.888    19716586.004  
  19716580.996  
  22532914.539   120282235.614                    93552872.148    22532916.926  
  22532912.598  
  24621595.672   129387356.099    24621606.734   100821363.3154   24621607.195  
                
  20721493.883   110768292.864                    86153112.653    20721498.340  
  20721493.812  
  22692118.875   119247892.511    22692125.691    92920461.8994                 
                
  21556547.422   113280450.342    21556555.121    88270497.0074   21556555.008  
                
  21189849.055   111353405.805    21189857.426    86768944.1674   21189857.566  
                
  21163444.078   113170450.650                    88021481.865    21163451.445  
  21163443.430  
  23533227.477   123667933.558    23533237.293    96364678.4424   23533237.699  
                
  23171031.500   121764626.775    23171039.520    94881563.2694   23171039.359  
                
  20700136.039   108779985.657    20700145.207    84763683.3584   20700144.652  
                
  20440271.828   107414390.395    20440278.801    83699560.9544   20440278.840  
                
  23230929.422   124356992.551                    96722095.293    23230936.023  
  23230927.789  
 21  8 16  8 34 50.0000000  0 16R12G26R 6R21R22G32R 5G16G18G27R20G 8
                                G15G10G23R 7
  23060012.734   123182452.356                    95808564.914    23060017.434  
  23060012.047  
  24087794.750   126582196.402    24087805.961    98635507.6804   24087806.004  
                
  19749031.914   105384647.722                                                  
  19749029.480  
  19714147.320   105494401.448                    82051194.586    19714150.582  
  19714145.598  
  22526634.867   120248714.050                    93526799.841    22526637.223  
  22526632.895  
  24614850.750   129351911.793    24614861.820   100793744.3704   24614862.332  
                
  20726228.438   110793601.713                    86172797.302    20726232.891  
  20726228.355  
  22696387.258   119270322.989    22696394.074    92937940.1814                 
                
  21560396.758   113300678.688    21560404.434    88286259.3504   21560404.320  
                
  21186341.820   111334975.184    21186350.188    86754582.6474   21186350.324  
                
  21167832.797   113193919.050                    88039735.065    21167840.152  
  21167832.129  
  23527181.773   123636163.205    23527191.605    96339922.3394   23527192.008  
                
  23174816.789   121784518.675    23174824.836    94897063.4594   23174824.676  
                
  20697802.438   108767722.466    20697811.633    84754127.6314   20697811.062  
                
  20442310.836   107425105.383    20442317.801    83707910.2954   20442317.844  
                
  23222537.867   124312072.546                    96687157.565    23222544.555  
  23222536.348  
 21  8 16  8 35  0.0000000  0 16R12G26R 6R21R22G32R 5G16G18G27R20G 8
                                G15G10G23R 7
  23062677.578   123196687.361                    95819636.600    23062682.223  
  23062676.918  
  24093805.664   126613783.621    24093816.855    98660121.0844   24093816.879  
                
  19744794.023   105362033.557                                                  
  19744791.574  
  19711719.820   105481411.372                    82041091.207    19711723.078  
  19711718.094  
  22520356.109   120215197.310                    93500731.271    22520358.410  
  22520354.090  
  24608105.594   129316465.980    24608116.652   100766124.2584   24608117.191  
                
  20730975.992   110818980.082                    86192536.032    20730980.426  
  20730975.918  
  22700664.641   119292800.780    22700671.461    92955455.3274                 
                
  21564250.633   113320930.923    21564258.266    88302040.3054   21564258.172  
                
  21182844.102   111316594.546    21182852.457    86740260.0734   21182852.594  
                
  21172228.617   113217425.485                    88058017.826    21172235.988  
  21172227.926  
  23521140.281   123604414.883    23521150.074    96315183.3844   23521150.492  
                
  23178613.516   121804470.652    23178621.586    94912610.4504   23178621.453  
                
  20695478.352   108755509.328    20695487.570    84744610.9024   20695486.980  
                
  20444359.453   107435870.944    20444366.406    83716299.0374   20444366.469  
                
  23214149.242   124267167.807                    96652231.692    23214155.922  
  23214147.762  
 21  8 16  8 35 10.0000000  0 16R12G26R 6R21R22G32R 5G16G18G27R20G 8
                                G15G10G23R 7
  23065356.125   123210995.667                    95830765.303    23065360.727  
  23065355.535  
  24099818.352   126645380.045    24099829.453    98684741.6624   24099829.508  
                
  19740570.641   105339496.802                                                  
  19740568.188  
  19709300.305   105468464.025                    82031021.047    19709303.555  
  19709298.578  
  22514078.234   120181685.444                    93474666.505    22514080.523  
  22514076.145  
  24601360.281   129281018.939    24601371.262   100738503.1764   24601371.816  
                
  20735736.570   110844428.080                    86212328.913    20735740.984  
  20735736.484  
  22704951.031   119315325.882    22704957.867    92973007.3494                 
                
  21568109.070   113341207.150    21568116.641    88317839.9594   21568116.586  
                
  21179355.930   111298264.114    21179364.277    86725976.6204   21179364.406  
                
  21176631.562   113240970.076                    88076330.284    21176638.941  
  21176630.852  
  23515103.047   123572689.064    23515112.816    96290461.9824   23515113.242  
                
  23182421.641   121824482.596    23182429.730    94928204.1594   23182429.609  
                
  20693163.820   108743346.392    20693173.074    84735133.2924   20693172.473  
                
  20446417.703   107446687.149    20446424.652    83724727.2494   20446424.730  
                
  23205763.484   124222278.782                    96617318.051    23205770.215  
  23205762.102  
 21  8 16  8 35 20.0000000  0 16R12G26R 6R21R22G32R 5G16G18G27R20G 8
                                G15G10G23R 7
  23068048.391   123225377.264                    95841950.970    23068052.992  
  23068047.777  
  24105832.633   126676985.534    24105843.820    98709369.2874   24105843.898  
                
  19736361.805   105317037.582                                                  
  19736359.359  
  19706888.781   105455559.464                    82020984.163    19706892.027  
  19706887.051  
  22507801.172   120148178.645                    93448605.680    22507803.641  
  22507799.145  
  24594614.734   129245570.693    24594625.648   100710881.1564   24594626.203  
                
  20740510.148   110869945.548                    86232175.822    20740514.535  
  20740510.055  
  22709246.406   119337898.146    22709253.242    92990596.1194                 
                
  21571972.070   113361507.299    21571979.586    88333658.2564   21571979.547  
                
  21175877.328   111279983.923    21175885.672    86711732.3204   21175885.793  
                
  21181041.609   113264552.703                    88094672.305    21181049.027  
  21181040.902  
  23509070.086   123540985.825    23509079.844    96265758.1714   23509080.273  
                
  23186241.156   121844554.398    23186249.293    94943844.5184   23186249.133  
                
  20690858.844   108731233.621    20690868.117    84725694.7694   20690867.496  
                
  20448485.586   107457553.898    20448492.535    83733194.8444   20448492.617  
                
  23197380.695   124177405.449                    96582416.616    23197387.430  
  23197379.352  
 21  8 16  8 35 30.0000000  0 16R12G26R 6R21R22G32R 5G16G18G27R20G 8
                                G15G10G23R 7
  23070754.320   123239831.785                    95853193.338    23070758.957  
  23070753.730  
  24111848.609   126708599.751    24111859.859    98734003.7004   24111859.930  
                
  19732167.469   105294655.821                                                  
  19732165.020  
  19704485.172   105442697.285                    82010980.241    19704488.418  
  19704483.422  
  22501525.109   120114676.808                    93422548.692    22501527.629  
  22501523.086  
  24587868.961   129210121.126    24587879.809   100683258.1054   24587880.352  
                
  20745296.625   110895531.937                    86252076.353    20745300.996  
  20745296.512  
  22713550.703   119360517.325    22713557.543    93008221.4404                 
                
  21575839.578   113381831.166    21575847.047    88349495.0214   21575847.039  
                
  21172408.258   111261753.830    21172416.594    86697527.0534   21172416.715  
                
  21185458.727   113288173.097                    88113043.715    21185466.176  
  21185458.023  
  23503041.367   123509304.835    23503051.113    96241071.6784   23503051.574  
                
  23190072.016   121864685.799    23190080.172    94959531.3254   23190080.000  
                
  20688563.367   108719170.794    20688572.648    84716295.1694   20688572.020  
                
  20450563.023   107468470.921    20450569.969    83741701.6084   20450570.062  
                
  23189000.883   124132547.893                    96547527.443    23189007.594  
  23188999.555  
 21  8 16  8 35 40.0000000  0 16R12G26R 6R21R22G32R 5G16G18G27R20G 8
                                G15G10G23R 7
  23073473.906   123254359.232                    95864492.470    23073478.586  
  23073473.324  
  24117866.320   126740222.828    24117877.543    98758645.0374   24117877.609  
                
  19727987.688   105272351.727                                                  
  19727985.254  
  19702089.594   105429878.055                    82001009.735    19702092.832  
  19702087.816  
  22495250.078   120081180.220                    93396495.812    22495252.621  
  22495248.051  
  24581122.898   129174670.565    24581133.812   100655634.2864   24581134.367  
                
  20750096.039   110921187.562                    86272030.726    20750100.398  
  20750095.914  
  22717863.922   119383183.456    22717870.762    93025883.3664                 
                
  21579711.625   113402178.950    21579719.066    88365350.4244   21579719.078  
                
  21168948.773   111243574.141    21168957.105    86683361.0654   21168957.230  
                
  21189882.922   113311831.573                    88131444.737    21189890.438  
  21189882.238  
  23497016.984   123477646.576    23497026.754    96216402.9234   23497027.215  
                
  23193914.266   121884877.011    23193922.422    94975264.7264   23193922.242  
                
  20686277.430   108707158.153    20686286.707    84706934.6754   20686286.094  
                
  20452650.055   107479438.385    20452656.996    83750247.6784   20452657.102  
                
  23180624.172   124087706.376                    96512650.751    23180630.785  
  23180622.785  
 21  8 16  8 35 50.0000000  0 16R12G26R 6R21R22G32R 5G16G18G27R20G 8
                                G15G10G23R 7
  23076207.094   123268959.423                    95875848.133    23076211.816  
  23076206.504  
  24123885.664   126771854.446    24123896.879    98783293.0454   24123896.906  
                
  19723822.500   105250125.443                                                  
  19723820.074  
  19699702.008   105417101.601                    81991072.497    19699705.246  
  19699700.211  
  22488976.008   120047688.558                    93370446.752    22488978.488  
  22488973.961  
  24574376.672   129139218.939    24574387.633   100628009.6474   24574388.184  
                
  20754908.344   110946912.039                    86292038.649    20754912.695  
  20754908.223  
  22722186.047   119405896.293    22722192.883    93043581.6614                 
                
  21583588.203   113422550.460    21583595.648    88381224.3264   21583595.668  
                
  21165498.867   111225444.783    21165507.188    86669234.3004   21165507.309  
                
  21194314.250   113335527.769                    88149875.095    21194321.770  
  21194313.586  
  23490996.906   123446010.945    23491006.676    96191751.7934   23491007.145  
                
  23197767.844   121905127.752    23197775.953    94991044.5144   23197775.773  
                
  20684001.023   108695195.553    20684010.285    84697613.1724   20684009.684  
                
