     2.11           OBSERVATION DATA    M (MIXED)           RINEX VERSION / TYPE
EFT-CORS.RU                             20210817 150609 UTC PGM / RUN BY / DATE 
MDNG                                                        MARKER NAME         
                                                            MARKER NUMBER       
MDNG                EFT-CORS.RU                             OBSERVER / AGENCY   
0                   TRIMBLE BD970       2.0                 REC # / TYPE / VERS 
0                   UNKNOWN EXT NONE                        ANT # / TYPE        
  3463911.2830  3030468.2400  4402179.3760                  APPROX POSITION XYZ 
        0.0000        0.0000        0.0000                  ANTENNA: DELTA H/E/N
     1     1                                                WAVELENGTH FACT L1/2
     6    C1    L1    P2    L2    C2    P1                  # / TYPES OF OBSERV 
    10.000                                                  INTERVAL            
  2021     8    14     8    30    0.0000000     GPS         TIME OF FIRST OBS   
  2021     8    14     9    30    0.0000000     GPS         TIME OF LAST OBS    
     0                                                      RCV CLOCK OFFS APPL 
                                                            END OF HEADER       
 21  8 14  8 30  0.0000000  0 16R10G15G26R 4G 8G18G27R 3R 9G10G23G16
                                R18R20R 5R19
  22998501.109   122594947.499                                                  
  22998500.297  
  22913975.312   120413787.394    22913982.812    93828967.3624   22913982.527  
                
  23622553.562   124137338.578    23622564.535    96730444.3304   23622564.430  
                
  19958169.102   106875133.413                    83125104.434    19958172.395  
  19958168.129  
  24013473.016   126191653.861    24013482.945    98331199.4634   24013483.543  
                
  21272898.797   111789843.501    21272905.762    87109010.2714   21272905.879  
                
  21486171.727   112910613.754    21486180.031    87982332.7604   21486180.070  
                
  20297380.672   108653508.269                    84508296.305    20297384.754  
  20297379.242  
  23536726.906   125684810.899                    97754834.897    23536731.293  
  23536725.941  
  20907835.688   109871452.091    20907844.742    85614181.1024   20907844.219  
                
  20312098.812   106740822.400    20312105.820    83174718.7274   20312105.629  
                
  22391951.281   117670516.747    22391957.742    91691339.4594                 
                
  20805886.898   111063233.180                    86382516.238    20805890.820  
  20805885.426  
  22833259.938   122099678.295                    94966472.785    22833266.816  
  22833258.773  
  23428038.180   125236284.995                    97406006.355    23428045.180  
  23428038.094  
  19631710.492   105016453.916                    81679494.309    19631713.871  
  19631708.641  
 21  8 14  8 30 10.0000000  0 16R10G15G26R 4G 8G18G27R 3R 9G10G23G16
                                R18R20R 5R19
  23000523.555   122605728.348                                                  
  23000522.711  
  22916838.836   120428835.333    22916846.316    93840693.0234   22916846.047  
                
  23628362.742   124167865.940    23628373.691    96754231.8724   23628373.605  
                
  19953544.273   106850367.740                    83105842.251    19953547.559  
  19953543.301  
  24007148.391   126158417.869    24007158.367    98305301.3094   24007158.949  
                
  21276386.438   111808171.160    21276393.438    87123291.5634   21276393.523  
                
  21481978.758   112888579.598    21481987.062    87965163.2814   21481987.109  
                
  20300604.922   108670767.929                    84521720.484    20300609.000  
  20300603.465  
  23542904.695   125717800.276                    97780493.280    23542909.141  
  23542903.734  
  20904773.852   109855362.092    20904782.922    85601643.4424   20904782.395  
                
  20313361.852   106747459.783    20313368.840    83179890.7154   20313368.664  
                
  22395476.844   117689043.639    22395483.246    91705775.9944                 
                
  20809793.625   111084087.536                    86398736.295    20809797.562  
  20809792.148  
  22827071.156   122066584.216                    94940732.945    22827077.996  
  22827069.957  
  23419484.477   125190560.007                    97370442.476    23419491.336  
  23419484.258  
  19630278.391   105008793.176                    81673535.958    19630281.766  
  19630276.551  
 21  8 14  8 30 20.0000000  0 16R10G15G26R 4G 8G18G27R 3R 9G10G23G16
                                R18R20R 5R19
  23002560.617   122616587.017                                                  
  23002559.762  
  22919714.742   120443948.330    22919722.211    93852469.3884   22919721.938  
                
  23634175.242   124198410.909    23634186.219    96778033.1194   23634186.121  
                
  19948933.672   106825678.168                    83086639.262    19948936.941  
  19948932.695  
  24000826.789   126125197.431    24000836.730    98279415.2534   24000837.309  
                
  21279878.891   111826524.047    21279885.910    87137592.5034   21279885.988  
                
  21477794.117   112866589.153    21477802.430    87948027.8754   21477802.480  
                
  20303844.172   108688107.891                    84535207.120    20303848.250  
  20303842.707  
  23549088.102   125750819.817                    97806175.103    23549092.629  
  23549087.234  
  20901721.336   109839321.041    20901730.434    85589143.9324   20901729.883  
                
  20314635.328   106754151.945    20314642.305    83185105.3924   20314642.145  
                
  22399012.766   117707624.998    22399019.133    91720254.9694                 
                
  20813707.695   111104981.054                    86414986.809    20813711.637  
  20813706.223  
  22820882.664   122033491.868                    94914994.469    22820889.574  
  22820881.516  
  23410932.758   125144846.046                    97334887.174    23410939.527  
  23410932.484  
  19628854.203   105001174.738                    81667610.506    19628857.586  
  19628852.371  
 21  8 14  8 30 30.0000000  0 16R10G15G26R 4G 8G18G27R 3R 9G10G23G16
                                R18R20R 5R19
  23004612.234   122627523.212                                                  
  23004611.418  
  22922603.008   120459126.290    22922610.453    93864296.3544   22922610.164  
                
  23639991.102   124228973.350    23640002.094    96801847.9974   23640001.961  
                
  19944337.312   106801064.882                    83067495.610    19944340.562  
  19944336.336  
  23994508.211   126091992.919    23994518.113    98253541.6304   23994518.668  
                
  21283376.125   111844902.144    21283383.180    87151913.0994   21283383.246  
                
  21473617.805   112844642.522    21473626.117    87930926.6114   21473626.172  
                
  20307098.484   108705528.469                    84548756.464    20307102.551  
  20307097.023  
  23555277.211   125783869.254                    97831880.202    23555281.734  
  23555276.348  
  20898678.148   109823328.987    20898687.258    85576682.6004   20898686.695  
                
  20315919.211   106760898.875    20315926.172    83190362.7314   20315926.020  
                
  22402559.047   117726260.805    22402565.371    91734776.3764                 
                
  20817629.078   111125913.627                    86431267.693    20817633.016  
  20817627.598  
  22814694.484   122000401.150                    94889257.251    22814701.441  
  22814693.352  
  23402383.031   125099143.100                    97299340.458    23402389.809  
  23402382.781  
  19627437.922   104993598.584                    81661717.952    19627441.301  
  19627436.102  
 21  8 14  8 30 40.0000000  0 16R10G15G26R 4G 8G18G27R 3R 9G10G23G16
                                R18R20R 5R19
  23006678.375   122638536.857                                                  
  23006677.523  
  22925503.617   120474369.166    22925511.027    93876173.9154   22925510.746  
                
  23645810.297   124259553.153    23645821.223    96825676.4104   23645821.090  
                
  19939755.211   106776527.947                    83048411.333    19939758.434  
  19939754.238  
  23988192.625   126058804.378    23988202.465    98227680.4134   23988203.016  
                
  21286878.156   111863305.425    21286885.230    87166253.3084   21286885.285  
                
  21469449.859   112822739.794    21469458.168    87913859.5544   21469458.250  
                
  20310367.797   108723029.331                    84562368.231    20310371.855  
  20310366.312  
  23561471.875   125816948.432                    97857608.428    23561476.445  
  23561471.023  
  20895644.281   109807385.925    20895653.391    85564259.4404   20895652.824  
                
  20317213.516   106767700.499    20317220.457    83195662.6964   20317220.324  
                
  22406115.680   117744951.012    22406121.973    91749340.1694                 
                
  20821557.789   111146885.302                    86447578.995    20821561.738  
  20821556.289  
  22808506.664   121967312.209                    94863521.452    22808513.656  
  22808505.543  
  23393835.492   125053451.282                    97263802.396    23393842.176  
  23393835.195  
  19626029.578   104986064.900                    81655858.413    19626032.969  
  19626027.773  
 21  8 14  8 30 50.0000000  0 16R10G15G26R 4G 8G18G27R 3R 9G10G23G16
                                R18R20R 5R19
  23008759.023   122649627.908                                                  
  23008758.172  
  22928416.555   120489676.842    22928423.914    93888101.9724   22928423.664  
                
  23651632.750   124290150.190    23651643.605    96849518.2514   23651643.496  
                
  19935187.367   106752067.360                    83029386.446    19935190.578  
  19935186.395  
  23981880.016   126025631.640    23981889.859    98201831.5564   23981890.445  
                
  21290384.969   111881733.814    21290392.066    87180613.0934   21290392.113  
                
  21465290.266   112800880.992    21465298.570    87896826.7254   21465298.668  
                
  20313652.047   108740610.226                    84576042.267    20313656.094  
  20313650.559  
  23567672.117   125850057.043                    97883359.557    23567676.648  
  23567671.176  
  20892619.734   109791491.851    20892628.852    85551874.4494   20892628.277  
                
  20318518.203   106774556.739    20318525.129    83201005.2114   20318525.020  
                
  22409682.633   117763695.457    22409688.914    91763946.2124                 
                
  20825493.797   111167895.984                    86463920.622    20825497.754  
  20825492.273  
  22802319.156   121934224.924                    94837786.905    22802326.184  
  22802318.051  
  23385290.023   125007770.835                    97228273.183    23385296.688  
  23385289.727  
  19624629.180   104978573.749                    81650031.963    19624632.590  
  19624627.371  
 21  8 14  8 31  0.0000000  0 16R10G15G26R 4G 8G18G27R 3R 9G10G23G16
                                R18R20R 5R19
  23010854.227   122660796.469                                                  
  23010853.418  
  22931341.875   120505049.550    22931349.191    93900080.6894   22931348.965  
                
  23657458.508   124320764.583    23657469.297    96873373.6124   23657469.230  
                
  19930633.883   106727683.655                    83010421.351    19930637.074  
  19930632.918  
  23975570.461   125992475.084    23975580.387    98175995.3024   23975580.941  
                
  21293896.602   111900187.570    21293903.715    87194992.6254   21293903.742  
                
  21461139.094   112779066.439    21461147.379    87879828.3724   21461147.500  
                
  20316951.305   108758271.444                    84589778.778    20316955.352  
  20316949.773  
  23573877.945   125883195.410                    97909133.816    23573882.402  
  23573876.887  
  20889604.562   109775647.012    20889613.688    85539527.8234   20889613.098  
                
  20319833.312   106781467.761    20319840.227    83206390.4224   20319840.129  
                
  22413259.930   117782494.285    22413266.215    91778594.6474                 
                
  20829437.172   111188945.979                    86480292.832    20829441.152  
  20829435.629  
  22796132.055   121901139.777                    94812054.017    22796139.066  
  22796130.973  
  23376746.758   124962102.088                    97192753.074    23376753.434  
  23376746.438  
  19623236.797   104971125.428                    81644238.829    19623240.223  
  19623235.000  
 21  8 14  8 31 10.0000000  0 16R10G15G26R 4G 8G18G27R 3R 9G10G23G16
                                R18R20R 5R19
  23012963.891   122672042.050                                                  
  23012963.160  
  22934279.500   120520486.913    22934286.805    93912109.8144   22934286.586  
                
  23663287.469   124351395.969    23663298.293    96897242.2054   23663298.215  
                
  19926094.695   106703376.542                    82991515.835    19926097.883  
  19926093.734  
  23969263.961   125959334.361    23969273.918    98150171.3794   23969274.461  
                
  21297413.000   111918666.366    21297420.125    87209391.6904   21297420.152  
                
  21456996.305   112757295.983    21457004.586    87862864.3824   21457004.719  
                
  20320265.484   108776012.591                    84603577.439    20320269.531  
  20320263.922  
  23580089.227   125916362.888                    97934930.732    23580093.602  
  23580088.086  
  20886598.703   109759851.164    20886607.840    85527219.3854   20886607.246  
                
  20321158.789   106788433.258    20321165.699    83211818.0854   20321165.617  
                
  22416847.508   117801347.141    22416853.797    91793285.1744                 
                
  20833387.867   111210035.076                    86496695.461    20833391.891  
  20833386.297  
  22789945.258   121868056.392                    94786322.539    22789952.262  
  22789944.156  
  23368205.750   124916444.905                    97157241.957    23368212.324  
  23368205.348  
  19621852.336   104963719.460                    81638478.626    19621855.762  
  19621850.547  
 21  8 14  8 31 20.0000000  0 16R10G15G26R 4G 8G18G27R 3R 9G10G23G16
                                R18R20R 5R19
  23015088.078   122683365.059                                                  
  23015087.391  
  22937229.469   120535989.177    22937236.754    93924189.4764   22937236.543  
                
  23669119.648   124382044.344    23669130.500    96921124.0514   23669130.434  
                
  19921569.859   106679146.281                    82972670.089    19921573.047  
  19921568.906  
  23962960.594   125926209.979    23962970.543    98124360.1714   23962971.070  
                
  21300934.195   111937170.348    21300941.316    87223810.3754   21300941.348  
                
  21452861.938   112735569.819    21452870.234    87845934.9094   21452870.367  
                
  20323594.609   108793833.724                    84617438.310    20323598.656  
  20323593.016  
  23586306.008   125949559.514                    97960750.308    23586310.285  
  23586304.832  
  20883602.211   109744104.482    20883611.352    85514949.2474   20883610.758  
                
  20322494.656   106795453.336    20322501.562    83217288.2774   20322501.488  
                
  22420445.375   117820254.045    22420451.684    91808017.8204                 
                
  20837345.875   111231163.216                    86513128.426    20837349.902  
  20837344.277  
  22783758.758   121834974.946                    94760592.506    22783765.812  
  22783757.676  
  23359666.961   124870799.556                    97121740.050    23359673.402  
  23359666.449  
  19620475.891   104956356.363                    81632751.768    19620479.320  
  19620474.121  
 21  8 14  8 31 30.0000000  0 15R10G15G26R 4G 8G18G27R 3G10G23G16R18
                                R20R 5R19
  23017226.570   122694764.351                                                  
  23017225.906  
  22940191.594   120551555.332    22940198.883    93936318.9494   22940198.676  
                
  23674954.828   124412708.772    23674965.723    96945018.4084   23674965.684  
                
  19917059.234   106654992.082                    82953883.490    19917062.410  
  19917058.289  
  23956660.203   125893101.199    23956670.188    98098561.1564   23956670.703  
                
  21304460.023   111955698.666    21304467.152    87238248.0194   21304467.180  
                
  21448735.875   112713887.195    21448744.191    87829039.3664   21448744.320  
                
  20326938.516   108811733.964                    84631360.732    20326942.570  
  20326936.906  
  20880614.906   109728406.117    20880624.043    85502716.7634   20880623.461  
                
  20323840.750   106802527.081    20323847.672    83222800.2904   20323847.582  
                
  22424053.367   117839214.133    22424059.711    91822791.9074                 
                
  20841311.102   111252329.806                    86529591.323    20841315.148  
  20841309.480  
  22777572.602   121801894.748                    94734863.453    22777579.609  
  22777571.512  
  23351130.141   124825165.190                    97086246.677    23351136.555  
  23351129.598  
  19619107.258   104949035.071                    81627057.432    19619110.703  
  19619105.496  
 21  8 14  8 31 40.0000000  0 15R10G15G26R 4G 8G18G27R 3G10G23G16R18
                                R20R 5R19
  23019379.602   122706241.218                                                  
  23019378.949  
  22943166.109   120567186.538    22943173.395    93948499.1184   22943173.184  
                
  23680793.344   124443390.466    23680804.238    96968926.2064   23680804.230  
                
  19912563.086   106630915.401                    82935157.198    19912566.254  
  19912562.137  
  23950363.039   125860009.311    23950372.988    98072775.2744   23950373.527  
                
  21307990.727   111974252.573    21307997.867    87252705.6054   21307997.875  
                
  21444618.359   112692249.504    21444626.680    87812178.8304   21444626.812  
                
  20330297.383   108829714.323                    84645345.451    20330301.461  
  20330295.734  
  20877637.055   109712757.401    20877646.172    85490522.9644   20877645.609  
                
  20325197.281   106809655.758    20325204.215    83228355.1014   20325204.117  
                
  22427671.703   117858228.596    22427678.066    91837608.3684                 
                
  20845283.719   111273535.877                    86546084.914    20845287.770  
  20845282.121  
  22771386.898   121768817.020                    94709136.347    22771393.914  
  22771385.750  
  23342595.656   124779543.378                    97050763.066    23342602.043  
  23342595.090  
  19617746.766   104941757.334                    81621396.967    19617750.207  
  19617745.012  
 21  8 14  8 31 50.0000000  0 15R10G15G26R 4G 8G18G27R 3G10G23G16R18
                                R20R 5R19
  23021547.117   122717795.287                                                  
  23021546.453  
  22946152.961   120582882.596    22946160.230    93960729.8034   22946160.039  
                
  23686635.016   124474089.117    23686646.016    96992847.2024   23686646.000  
                
  19908081.383   106606916.119                    82916491.090    19908084.539  
  19908080.438  
  23944069.047   125826934.271    23944079.000    98047002.5254   23944079.562  
                
  21311526.250   111992831.908    21311533.395    87267182.9964   21311533.387  
                
  21440509.359   112670656.624    21440517.691    87795353.2134   21440517.816  
                
  20333671.180   108847774.632                    84659392.354    20333675.266  
  20333669.520  
  20874668.609   109697158.171    20874677.711    85478367.7274   20874677.156  
                
  20326564.219   106816839.126    20326571.164    83233952.5324   20326571.059  
                
  22431300.328   117877297.145    22431306.680    91852466.9644                 
                
  20849263.734   111294781.436                    86562609.248    20849267.797  
  20849262.164  
  22765201.484   121735741.673                    94683411.111    22765208.629  
  22765199.098  
  23334063.492   124733934.052                    97015289.171    23334069.848  
  23334062.926  
  19616394.320   104934522.685                    81615770.016    19616397.754  
  19616392.574  
 21  8 14  8 32  0.0000000  0 15R10G15G26R 4G 8G18G27R 3G10G23G16R18
                                R20R 5R19
  23023729.109   122729426.533                                                  
  23023728.445  
  22949152.109   120598643.271    22949159.371    93973010.8624   22949159.211  
                
  23692479.898   124504804.464    23692490.996    97016781.2204   23692490.961  
                
  19903614.141   106582994.254                    82897885.207    19903617.301  
  19903613.188  
  23937778.242   125793875.932    23937788.195    98021242.8034   23937788.758  
                
  21315066.586   112011436.456    21315073.723    87281680.0444   21315073.723  
                
  21436408.891   112649108.532    21436417.238    87778562.4984   21436417.352  
                
  20337059.891   108865914.698                    84673501.280    20337063.992  
  20337058.230  
  20871709.570   109681608.307    20871718.652    85466250.9554   20871718.113  
                
  20327941.539   106824076.992    20327948.492    83239592.4264   20327948.375  
                
  22434939.211   117896419.581    22434945.551    91867367.5604                 
                
  20853251.117   111316066.247                    86579164.098    20853255.195  
  20853249.551  
  22759016.555   121702668.625                    94657687.658    22759023.828  
  22759015.148  
  23325533.617   124688337.238                    96979825.022    23325539.996  
  23325533.086  
  19615049.945   104927331.153                    81610176.615    19615053.395  
  19615048.199  
 21  8 14  8 32 10.0000000  0 15R10G15G26R 4G 8G18G27R 3G10G23G16R18
                                R20R 5R19
  23025925.484   122741134.418                                                  
  23025924.809  
  22952163.508   120614468.278    22952170.746    93985342.0354   22952170.609  
                
  23698327.922   124535536.140    23698339.094    97040727.9654   23698339.023  
                
  19899161.297   106559149.549                    82879339.339    19899164.465  
  19899160.340  
  23931490.562   125760834.034    23931500.523    97995495.8824   23931501.059  
                
  21318611.672   112030065.972    21318618.816    87296196.5444   21318618.801  
                
  21432316.906   112627605.023    21432325.254    87761806.5164   21432325.363  
                
  20340463.414   108884134.085                    84687671.918    20340467.539  
  20340461.758  
  20868759.867   109666107.559    20868768.938    85454172.4564   20868768.398  
                
  20329329.156   106831369.032    20329336.105    83245274.5364   20329335.992  
                
  22438588.273   117915595.544    22438594.613    91882309.8684                 
                
  20857245.797   111337390.101                    86595749.303    20857249.871  
  20857244.242  
  22752832.234   121669597.702                    94631965.813    22752839.414  
  22752831.098  
  23317006.211   124642752.769                    96944370.469    23317012.453  
  23317005.535  
  19613713.594   104920182.499                    81604616.534    19613717.059  
  19613711.855  
 21  8 14  8 32 20.0000000  0 15R10G15G26R 4G 8G18G27R 3G10G23G16R18
                                R20R 5R19
  23028136.219   122752918.920                                                  
  23028135.555  
  22955187.164   120630357.654    22955194.371    93997723.3564   22955194.227  
                
  23704179.047   124566284.123    23704190.266    97064687.4104   23704190.188  
                
  19894722.914   106535382.261                    82860853.691    19894726.082  
  19894721.922  
  23925206.062   125727808.860    23925216.012    97969761.9964   23925216.562  
                
  21322161.516   112048720.504    21322168.672    87310732.5474   21322168.652  
                
  21428233.438   112606146.258    21428241.777    87745085.4044   21428241.895  
                
  20343881.734   108902432.663                    84701904.142    20343885.867  
  20343880.070  
  20865819.539   109650656.030    20865828.590    85442132.3114   20865828.055  
                
  20330727.109   106838715.303    20330734.066    83250998.9054   20330733.953  
                
  22442247.523   117934825.029    22442253.883    91897293.8694                 
                
  20861247.797   111358752.918                    86612364.810    20861251.859  
  20861246.258  
  22746648.172   121636528.980                    94606245.695    22746655.383  
  22746647.141  
  23308481.016   124597180.858                    96908925.685    23308487.277  
  23308480.363  
  19612385.312   104913077.033                    81599090.068    19612388.773  
  19612383.598  
 21  8 14  8 32 30.0000000  0 15R10G15G26R 4G 8G18G27R 3G10G23G16R18
                                R20R 5R19
  23030361.352   122764780.026                                                  
  23030360.672  
  22958223.070   120646311.424    22958230.215    94010154.8744   22958230.082  
                
  23710033.266   124597048.417    23710044.539    97088659.5654   23710044.461  
                
  19890299.023   106511692.563                    82842428.383    19890302.195  
  19890298.000  
  23918924.789   125694800.722    23918934.742    97944041.3904   23918935.301  
                
  21325716.148   112067400.170    21325723.309    87325288.1204   21325723.270  
                
  21424158.523   112584732.446    21424166.859    87728399.3204   21424166.980  
                
  20347314.898   108920810.655                    84716198.143    20347319.043  
  20347313.266  
  20862888.602   109635253.847    20862897.617    85430130.6184   20862897.105  
                
  20332135.383   106846115.860    20332142.344    83256765.5744   20332142.230  
                
  22445916.969   117954108.023    22445923.328    91912319.5754                 
                
  20865257.148   111380154.993                    86629010.879    20865261.195  
  20865255.625  
  22740464.625   121603462.668                    94580527.509    22740471.855  
  22740463.586  
  23299958.156   124551621.767                    96873490.862    23299964.473  
  23299957.590  
  19611065.078   104906014.642                    81593597.091    19611068.551  
  19611063.375  
 21  8 14  8 32 40.0000000  0 15R10G15G26R 4G 8G18G27R 3G10G23G16R18
                                R20R 5R19
  23032600.867   122776717.759                                                  
  23032600.199  
  22961271.227   120662329.537    22961278.309    94022636.5144   22961278.207  
                
  23715890.609   124627828.770    23715901.910    97112644.2454   23715901.805  
                
  19885889.602   106488080.420                    82824063.395    19885892.793  
  19885888.566  
  23912646.695   125661809.224    23912656.613    97918333.7404   23912657.188  
                
  21329275.531   112086104.810    21329282.703    87339863.1654   21329282.664  
                
  21420092.156   112563363.533    21420100.496    87711748.2284   21420100.633  
                
  20350762.812   108939267.650                    84730553.582    20350766.961  
  20350761.172  
  20859967.031   109619900.912    20859976.008    85418167.3004   20859975.523  
                
  20333553.953   106853570.512    20333560.926    83262574.4034   20333560.812  
                
  22449596.555   117973444.332    22449602.930    91927386.8184                 
                
  20869273.820   111401596.199                    86645687.358    20869277.871  
  20869272.301  
  22734281.445   121570398.651                    94554811.043    22734288.688  
  22734280.465  
  23291437.742   124506075.443                    96838065.966    23291444.074  
  23291437.207  
  19609752.953   104898995.630                    81588137.864    19609756.430  
  19609751.246  
 21  8 14  8 32 50.0000000  0 15R10G15G26R 4G 8G18G27R 3G10G23G16R18
                                R20R 5R19
  23034854.688   122788731.763                                                  
  23034854.020  
  22964331.594   120678411.792    22964338.602    94035168.1394   22964338.539  
                
  23721750.844   124658625.016    23721762.234    97136641.2944   23721762.141  
                
  19881494.672   106464545.892                    82805758.768    19881497.879  
  19881493.613  
  23906371.797   125628834.486    23906381.648    97892639.1204   23906382.250  
                
  21332839.633   112104834.301    21332846.801    87354457.5624   21332846.738  
                
  21416034.320   112542039.516    21416042.660    87695132.1154   21416042.809  
                
  20354225.469   108957803.572                    84744970.404    20354229.625  
  20354223.820  
  20857054.766   109604596.849    20857063.719    85406242.0644   20857063.258  
                
  20334982.789   106861079.115    20334989.766    83268425.2634   20334989.641  
                
  22453286.250   117992833.759    22453292.637    91942495.4594                 
                
  20873297.781   111423076.298                    86662394.090    20873301.809  
  20873296.270  
  22728098.766   121537337.035                    94529096.449    22728106.000  
  22728097.809  
  23282919.852   124460541.990                    96802651.099    23282926.070  
  23282919.207  
  19608448.883   104892019.669                    81582712.120    19608452.355  
  19608447.195  
 21  8 14  8 33  0.0000000  0 15R10G15G26R 4G 8G18G27R 3G10G23G16R18
                                R20R 5R19
  23037122.852   122800822.319                                                  
  23037122.199  
  22967404.164   120694558.270    22967411.129    94047749.8154   22967411.105  
                
  23727614.109   124689437.261    23727625.574    97160650.8124   23727625.531  
                
  19877114.305   106441089.324                    82787514.789    19877117.523  
  19877113.238  
  23900100.195   125595877.137    23900109.980    97866958.0774   23900110.613  
                
  21336408.508   112123588.893    21336415.664    87369071.5274   21336415.598  
                
  21411985.094   112520760.719    21411993.418    87678551.2364   21411993.586  
                
  20357702.867   108976418.356                    84759448.567    20357707.043  
  20357701.238  
  20854151.953   109589342.514    20854160.883    85394355.5724   20854160.434  
                
  20336421.930   106868641.862    20336428.910    83274318.3154   20336428.781  
                
  22456986.078   118012276.464    22456992.488    91957645.6134                 
                
  20877329.078   111444595.641                    86679131.345    20877333.102  
  20877327.551  
  22721916.531   121504277.955                    94503383.870    22721923.805  
  22721915.586  
  23274404.406   124415021.617                    96767246.403    23274410.531  
  23274403.664  
  19607152.875   104885086.941                    81577319.996    19607156.352  
  19607151.207  
 21  8 14  8 33 10.0000000  0 15R10G15G26R 4G 8G18G27R 3G10G23G16R18
                                R20R 5R19
  23039405.445   122812989.861                                                  
  23039404.762  
  22970489.055   120710769.447    22970496.016    94060381.8894   22970496.000  
                
  23733480.602   124720265.878    23733492.086    97184673.1074   23733492.043  
                
  19872748.602   106417711.254                    82769331.855    19872751.820  
  19872747.500  
  23893831.961   125562937.292    23893841.664    97841290.6824   23893842.324  
                
  21339982.258   112142369.040    21339989.391    87383705.3994   21339989.316  
                
  21407944.586   112499527.705    21407952.898    87662006.0344   21407953.070  
                
  20361195.117   108995112.662                    84773988.582    20361199.301  
  20361193.512  
  20851258.656   109574138.110    20851267.539    85382507.9894   20851267.105  
                
  20337871.461   106876259.190    20337878.441    83280253.9014   20337878.316  
                
  22460696.125   118031772.840    22460702.543    91972837.5974                 
                
  20881367.820   111466154.664                    86695899.482    20881371.848  
  20881366.297  
  22715734.852   121471221.916                    94477673.597    22715742.117  
  22715733.906  
  23265891.445   124369515.195                    96731852.557    23265897.590  
  23265890.723  
  19605865.125   104878198.328                    81571962.191    19605868.621  
  19605863.457  
 21  8 14  8 33 20.0000000  0 15R10G15G26R 4G 8G18G27R 3G10G23G16R18
                                R20R 5R19
  23041702.125   122825232.464                                                  
  23041701.453  
  22973585.930   120727043.616    22973592.934    94073063.0474   22973592.906  
                
  23739349.883   124751109.039    23739361.414    97208706.7244   23739361.328  
                
  19868397.242   106394410.013                    82751208.673    19868400.461  
  19868396.102  
  23887566.844   125530013.803    23887576.523    97815636.0254   23887577.172  
                
  21343560.539   112161172.992    21343567.648    87398357.8344   21343567.586  
                
  21403912.484   112478338.852    21403920.789    87645495.2444   21403920.961  
                
  20364701.844   109013884.429                    84788588.854    20364706.027  
  20364700.277  
  20848374.531   109558981.928    20848383.359    85370697.9864   20848382.965  
                
  20339331.047   106883929.339    20339338.023    83286230.6404   20339337.902  
                
  22464416.047   118051321.094    22464422.461    91988069.9824                 
                
  20885413.656   111487751.556                    86712697.045    20885417.680  
  20885412.125  
  22709553.398   121438167.267                    94451964.409    22709560.707  
  22709552.543  
  23257380.750   124324021.149                    96696468.343    23257386.953  
  23257380.109  
  19604585.312   104871352.122                    81566637.356    19604588.805  
  19604583.637  
 21  8 14  8 33 30.0000000  0 15R10G15G26R 4G 8G18G27R 3G10G23G16R18
                                R20R 5R19
  23044013.148   122837551.453                                                  
  23044012.465  
  22976695.023   120743382.025    22976702.059    94085794.2694   22976702.035  
                
  23745222.242   124781968.082    23745233.707    97232752.7164   23745233.609  
                
  19864060.539   106371187.248                    82733146.527    19864063.754  
  19864059.367  
  23881305.023   125497107.709    23881314.664    97789994.9214   23881315.305  
                
  21347143.609   112180002.175    21347150.684    87413029.9134   21347150.641  
                
  21399889.070   112457195.664    21399897.363    87629020.0364   21399897.535  
                
  20368223.312   109032735.133                    84803250.512    20368227.508  
  20368221.766  
  20845499.859   109543875.424    20845508.637    85358926.6884   20845508.270  
                
  20340800.930   106891653.670    20340807.898    83292249.6074   20340807.781  
                
  22468146.078   118070922.547    22468152.535    92003343.8364                 
                
  20889466.883   111509387.939                    86729525.331    20889470.891  
  20889465.355  
  22703372.531   121405115.380                    94426257.424    22703379.832  
  22703371.711  
  23248872.625   124278540.839                    96661094.787    23248878.840  
  23248872.078  
  19603313.672   104864549.639                    81561346.543    19603317.172  
  19603311.992  
 21  8 14  8 33 40.0000000  0 15R10G15G26R 4G 8G18G27R 3G10G23G16R18
                                R20R 5R19
  23046338.453   122849946.536                                                  
  23046337.719  
  22979816.320   120759784.489    22979823.375    94098575.4084   22979823.355  
                
  23751097.492   124812842.762    23751108.930    97256810.8984   23751108.875  
                
  19859738.484   106348042.864                    82715145.362    19859741.691  
  19859737.305  
  23875046.547   125464219.224    23875056.148    97764367.5384   23875056.770  
                
  21350731.461   112198856.435    21350738.488    87427721.5514   21350738.477  
                
  21395874.336   112436098.087    21395882.605    87612580.3664   21395882.789  
                
  20371759.477   109051664.469                    84817973.332    20371763.684  
  20371757.934  
  20842634.625   109528818.493    20842643.371    85347194.0184   20842643.016  
                
  20342281.109   106899432.021    20342288.070    83298310.6574   20342287.949  
                
  22471886.195   118090576.966    22471892.699    92018658.9614                 
                
  20893527.477   111531063.572                    86746384.170    20893531.453  
  20893525.949  
  22697192.242   121372066.433                    94400552.707    22697199.520  
  22697191.316  
  23240367.164   124233074.334                    96625731.971    23240373.305  
  23240366.621  
  19602050.219   104857790.960                    81556089.786    19602053.719  
  19602048.559  
 21  8 14  8 33 50.0000000  0 15R10G15G26R 4G 8G18G27R 3G10G23G16R18
                                R20R 5R19
  23048677.977   122862417.453                                                  
  23048677.176  
  22982949.734   120776250.652    22982956.832    94111406.1824   22982956.797  
                
  23756975.641   124843732.623    23756987.090    97280880.8964   23756987.031  
                
  19855431.008   106324976.576                    82697204.917    19855434.188  
  19855429.836  
  23868791.375   125431348.037    23868800.926    97738753.6414   23868801.562  
                
  21354324.000   112217735.419    21354331.000    87442432.4344   21354331.012  
                
  21391868.227   112415045.869    21391876.473    87596176.0444   21391876.680  
                
  20375310.242   109070671.981                    84832756.938    20375314.461  
  20375308.719  
  20839778.758   109513810.792    20839787.480    85335499.7044   20839787.129  
                
  20343771.477   106907263.966    20343778.426    83304413.4754   20343778.316  
                
  22475636.305   118110283.926    22475642.836    92034015.0204                 
                
  20897595.328   111552778.013                    86763273.180    20897599.293  
  20897593.777  
  22691012.375   121339019.999                    94374849.928    22691019.676  
  22691011.445  
  23231864.172   124187621.368                    96590379.688    23231870.344  
  23231863.660  
  19600794.867   104851075.703                    81550866.812    19600798.375  
  19600793.211  
 21  8 14  8 34  0.0000000  0 15R10G15G26R 4G 8G18G27R 3G10G23G16R18
                                R20R 5R19
  23051031.766   122874964.372                                                  
  23051030.984  
  22986095.289   120792780.617    22986102.453    94124286.6704   22986102.395  
                
  23762856.719   124874637.736    23762868.164    97304962.7834   23762868.102  
                
  19851138.188   106301988.754                    82679325.515    19851141.348  
  19851137.031  
  23862539.523   125398494.427    23862548.984    97713153.4334   23862549.664  
                
  21357921.289   112236639.311    21357928.266    87457162.7404   21357928.289  
                
  21387870.805   112394039.276    21387879.023    87579807.2714   21387879.246  
                
  20378875.633   109089757.765                    84847601.439    20378879.871  
  20378874.133  
  20836932.289   109498852.538    20836940.992    85323843.9284   20836940.645  
                
  20345272.070   106915149.657    20345279.020    83310558.1744   20345278.922  
                
  22479396.445   118130043.550    22479402.969    92049412.1284                 
                
  20901670.500   111574531.551                    86780192.569    20901674.430  
  20901668.941  
  22684833.156   121305976.308                    94349149.290    22684840.324  
  22684832.156  
  23223363.828   124142182.372                    96555038.284    23223369.992  
  23223363.328  
  19599547.742   104844404.395                    81545678.021    19599551.266  
  19599546.090  
 21  8 14  8 34 10.0000000  0 15R10G15G26R 4G 8G18G27R 3G10G23G16R18
                                R20R 5R19
  23053399.727   122887586.959                                                  
  23053398.906  
  22989252.938   120809374.148    22989260.184    94137216.6974   22989260.078  
                
  23768740.758   124905557.887    23768752.090    97329056.4104   23768752.023  
                
  19846860.016   106279079.404                    82661507.142    19846863.176  
  19846858.883  
  23856291.000   125365658.157    23856300.391    97687566.7394   23856301.090  
                
  21361523.289   112255567.963    21361530.242    87471912.3304   21361530.277  
                
  21383882.055   112373078.298    21383890.246    87563474.0424   21383890.480  
                
  20382455.625   109108921.697                    84862506.723    20382459.883  
  20382454.137  
  20834095.219   109483943.632    20834103.898    85312226.6054   20834103.566  
                
  20346782.867   106923088.940    20346789.820    83316744.6324   20346789.723  
                
  22483166.562   118149855.657    22483173.070    92064850.1234                 
                
  20905752.961   111596324.026                    86797142.263    20905756.859  
  20905751.391  
  22678654.328   121272935.420                    94323450.800    22678661.492  
  22678653.352  
  23214866.031   124096757.417                    96519707.810    23214872.266  
  23214865.617  
  19598308.727   104837776.549                    81540523.028    19598312.254  
  19598307.062  
 21  8 14  8 34 20.0000000  0 15R10G15G26R 4G 8G18G27R 3G10G23G16R18
                                R20R 5R19
  23055781.906   122900285.240                                                  
  23055781.094  
  22992422.734   120826031.470    22992430.066    94150196.4274   22992429.926  
                
  23774627.531   124936493.158    23774638.867    97353161.8044   23774638.820  
                
  19842596.539   106256248.699                    82643749.937    19842599.695  
  19842595.434  
  23850045.930   125332839.979    23850055.246    97661994.1284   23850055.953  
                
  21365130.031   112274521.550    21365136.973    87486681.3554   21365137.008  
                
  21379902.039   112352163.189    21379910.215    87547176.5594   21379910.457  
                
  20386050.172   109128163.560                    84877472.614    20386054.438  
  20386048.711  
  20831267.570   109469084.286    20831276.230    85300647.8984   20831275.898  
                
  20348303.883   106931081.946    20348310.840    83322972.9484   20348310.734  
                
  22486946.680   118169720.307    22486953.152    92080329.0634                 
                
  20909842.773   111618155.766                    86814122.507    20909846.684  
  20909841.188  
  22672476.023   121239897.373                    94297754.590    22672483.227  
  22672475.051  
  23206370.906   124051346.591                    96484388.315    23206377.168  
  23206370.543  
  19597077.945   104831192.725                    81535402.272    19597081.484  
  19597076.258  
 21  8 14  8 34 30.0000000  0 15R10G15G26R 4G 8G18G27R 3G10G23G16R18
                                R20R 5R19
  23058178.227   122913058.979                                                  
  23058177.395  
  22995604.617   120842752.357    22995612.039    94163225.6924   22995611.883  
                
  23780517.148   124967443.261    23780528.480    97377278.7454   23780528.445  
                
  19838347.766   106233496.680                    82626053.911    19838350.898  
  19838346.703  
  23843804.219   125300039.507    23843813.496    97636435.3214   23843814.191  
                
  21368741.477   112293499.846    21368748.406    87501469.6354   21368748.457  
                
  21375930.734   112331293.824    21375938.891    87530914.7114   21375939.141  
                
  20389659.258   109147483.259                    84892499.043    20389663.539  
  20389657.816  
  20828449.328   109454274.322    20828457.961    85289107.6634   20828457.641  
                
  20349835.078   106939128.410    20349842.043    83329242.9244   20349841.922  
                
  22490736.727   118189637.163    22490743.172    92095848.6854                 
                
  20913939.883   111640026.395                    86831132.985    20913943.797  
  20913938.266  
  22666298.289   121206862.273                    94272060.643    22666305.508  
  22666297.352  
  23197878.406   124005950.036                    96449079.924    23197884.738  
  23197878.168  
  19595855.367   104824652.722                    81530315.605    19595858.910  
  19595853.676  
 21  8 14  8 34 40.0000000  0 15R10G15G26R 4G 8G18G27R 3G10G23G16R18
                                R20R 5R19
  23060588.750   122925908.399                                                  
  23060587.883  
  22998798.633   120859536.960    22998806.145    94176304.6094   22998805.973  
                
  23786409.617   124998408.331    23786420.980    97401407.3464   23786420.941  
                
  19834113.711   106210823.490                    82608419.223    19834116.836  
  19834112.656  
  23837565.930   125267257.081    23837575.238    97610890.5824   23837575.926  
                
  21372357.688   112312503.110    21372364.590    87516277.3734   21372364.652  
                
  21371968.203   112310470.575    21371976.355    87514688.8104   21371976.605  
                
  20393282.938   109166881.015                    84907586.185    20393287.219  
  20393281.500  
  20825640.531   109439514.011    20825649.145    85277606.1294   20825648.836  
                
  20351376.500   106947228.570    20351383.480    83335554.7404   20351383.336  
                
  22494536.773   118209606.445    22494543.172    92111409.1584                 
                
  20918044.344   111661936.283                    86848173.997    20918048.262  
  20918042.723  
  22660121.203   121173830.282                    94246369.065    22660128.336  
  22660120.262  
  23189388.555   123960568.121                    96413782.922    23189395.062  
  23189388.492  
  19594641.016   104818156.771                    81525263.205    19594644.562  
  19594639.285  
 21  8 14  8 34 50.0000000  0 15R10G15G26R 4G 8G18G27R 3G10G23G16R18
                                R20R 5R19
  23063013.383   122938832.979                                                  
  23063012.480  
  23002004.695   120876384.941    23002012.281    94189432.8974   23002012.117  
                
  23792304.883   125029387.974    23792316.242    97425547.3154   23792316.188  
                
  19829894.352   106188229.028                    82590845.759    19829897.477  
  19829893.301  
  23831330.992   125234492.473    23831340.336    97585359.7144   23831341.027  
                
  21375978.586   112331531.039    21375985.480    87531104.3344   21375985.555  
                
  21368014.398   112289693.216    21368022.551    87498498.6624   21368022.801  
                
  20396921.109   109186356.416                    84922733.720    20396925.398  
  20396919.691  
  20822841.133   109424803.102    20822849.719    85266143.0794   20822849.434  
                
  20352928.055   106955382.077    20352935.043    83341908.1254   20352934.891  
                
  22498346.703   118229627.755    22498353.066    92127010.1724                 
                
  20922156.070   111683885.026                    86865245.245    20922159.996  
  20922154.445  
  22653944.531   121140801.070                    94220679.703    22653951.695  
  22653943.598  
  23180901.539   123915200.634                    96378497.141    23180908.082  
  23180901.480  
  19593434.852   104811704.634                    81520244.872    19593438.410  
  19593433.133  
 21  8 14  8 35  0.0000000  0 15R10G15G26R 4G 8G18G27R 3G10G23G16R18
                                R20R 5R19
  23065452.141   122951832.923                                                  
  23065451.234  
  23005222.828   120893296.340    23005230.488    94202610.6044   23005230.324  
                
  23798202.898   125060382.160    23798214.238    97449698.6204   23798214.195  
                
  19825689.727   106165713.484                    82573333.682    19825692.859  
  19825688.672  
  23825099.469   125201745.706    23825108.840    97559842.7804   23825109.547  
                
  21379604.188   112350583.708    21379611.078    87545950.5634   21379611.160  
                
  21364069.359   112268961.934    21364077.520    87482344.4184   21364077.762  
                
  20400573.742   109205909.236                    84937941.467    20400578.035  
  20400572.340  
  20820051.141   109410141.674    20820059.715    85254718.5974   20820059.438  
                
  20354489.766   106963588.950    20354496.750    83348303.0934   20354496.598  
                
  22502166.539   118249701.093    22502172.867    92142651.7394                 
                
  20926275.133   111705872.879                    86882346.886    20926279.070  
  20926273.477  
  22647768.438   121107774.914                    94194992.740    22647775.680  
  22647767.488  
  23172417.344   123869847.839                    96343222.801    23172423.863  
  23172417.250  
  19592236.914   104805296.493                    81515260.771    19592240.492  
  19592235.180  
 21  8 14  8 35 10.0000000  0 15R10G15G26R 4G 8G18G27R 3G10G23G16R18
                                R20R 5R19
  23067904.992   122964907.985                                                  
  23067904.090  
  23008453.039   120910271.165    23008460.762    94215837.7294   23008460.586  
                
  23804103.648   125091390.870    23804115.004    97473861.2424   23804114.957  
                
  19821499.906   106143277.187                    82555883.227    19821503.027  
  19821498.844  
  23818871.453   125169017.355    23818880.848    97534340.1934   23818881.562  
                
  21383234.508   112369661.143    21383241.410    87560816.0994   21383241.496  
                
  21360133.125   112248276.874    21360141.297    87466226.1934   21360141.531  
                
  20404240.875   109225539.654                    84953209.574    20404245.176  
  20404239.488  
  20817270.594   109395529.817    20817279.156    85243332.7354   20817278.887  
                
  20356061.648   106971849.212    20356068.613    83354739.6684   20356068.465  
                
  22505996.273   118269826.455    22506002.594    92158333.8294                 
                
  20930401.500   111727899.750                    86899478.899    20930405.457  
  20930399.805  
  22641592.977   121074751.937                    94169308.222    22641600.246  
  22641591.988  
  23163935.867   123824509.835                    96307959.941    23163942.395  
  23163935.805  
  19591047.242   104798932.583                    81510311.058    19591050.832  
  19591045.500  
 21  8 14  8 35 20.0000000  0 15R10G15G26R 4G 8G18G27R 3G10G23G16R18
                                R20R 5R19
  23070371.945   122978058.245                                                  
  23070371.016  
  23011695.258   120927309.101    23011703.027    94229114.0414   23011702.832  
                
  23810007.133   125122413.806    23810018.500    97498034.9244   23810018.441  
                
  19817324.820   106120919.845                    82538494.201    19817327.949  
  19817323.746  
  23812646.875   125136306.998    23812656.270    97508851.6084   23812656.961  
                
  21386869.500   112388763.149    21386876.430    87575700.7784   21386876.504  
                
  21356205.648   112227637.905    21356213.828    87450143.8784   21356214.051  
                
  20407922.406   109245247.218                    84968537.669    20407926.727  
  20407921.016  
  20814499.438   109380967.342    20814508.023    85231985.3594   20814507.742  
                
  20357643.633   106980162.619    20357650.578    83361217.6494   20357650.449  
                
  22509835.844   118290003.528    22509842.172    92174056.2164                 
                
  20934535.141   111749965.435                    86916641.070    20934539.109  
  20934533.426  
  22635418.094   121041731.964                    94143626.002    22635425.309  
  22635417.078  
  23155457.148   123779186.690                    96272708.635    23155463.695  
  23155457.152  
  19589865.734   104792612.357                    81505395.326    19589869.328  
  19589863.953  
 21  8 14  8 35 30.0000000  0 15R10G15G26R 4G 8G18G27R 3G10G23G16R18
                                R20R 5R19
  23072852.945   122991283.429                                                  
  23072852.023  
  23014949.516   120944410.342    23014957.316    94242439.6734   23014957.133  
                
  23815913.352   125153451.052    23815924.699    97522219.7714   23815924.621  
                
  19813164.539   106098641.792                    82521166.838    19813167.680  
  19813163.465  
  23806425.758   125103614.963    23806435.145    97483377.3034   23806435.832  
                
  21390509.219   112407889.943    21390516.184    87590604.7724   21390516.238  
                
  21352287.016   112207045.344    21352295.207    87434097.7394   21352295.414  
                
  20411618.430   109265032.232                    84983926.012    20411622.758  
  20411617.039  
  20811737.734   109366454.521    20811746.355    85220676.6754   20811746.051  
                
  20359235.773   106988529.346    20359242.691    83367737.1814   20359242.586  
                
  22513685.273   118310232.452    22513691.625    92189819.0054                 
                
  20938676.102   111772070.169                    86933833.624    20938680.070  
  20938674.391  
  22629243.828   121008715.435                    94117946.487    22629251.012  
  22629242.812  
  23146981.352   123733878.705                    96237469.133    23146987.840  
  23146981.363  
  19588692.570   104786336.748                    81500514.311    19588696.176  
  19588690.762  
 21  8 14  8 35 40.0000000  0 15R10G15G26R 4G 8G18G27R 3G10G23G16R18
                                R20R 5R19
  23075348.031   123004583.499                                                  
  23075347.102  
  23018215.781   120961574.675    23018223.609    94255814.4754   23018223.430  
                
  23821822.258   125184502.404    23821833.566    97546415.6254   23821833.461  
                
  19809019.086   106076443.120                    82503901.212    19809022.227  
  19809018.008  
  23800208.133   125070941.329    23800217.555    97457917.3564   23800218.211  
                
  21394153.625   112427041.373    21394160.629    87605527.9614   21394160.664  
                
  21348377.211   112186499.190    21348385.418    87418087.7504   21348385.609  
                
  20415328.805   109284894.164                    84999374.178    20415333.137  
  20415327.406  
  20808985.453   109351991.227    20808994.109    85209406.5794   20808993.777  
                
  20360838.023   106996949.217    20360844.914    83374298.1224   20360844.828  
                
  22517544.539   118330513.011    22517550.906    92205622.0334                 
                
  20942824.367   111794213.919                    86951056.547    20942828.375  
  20942822.641  
  22623070.109   120975701.841                    94092269.264    22623077.266  
  22623069.031  
  23138508.414   123688585.968                    96202241.497    23138514.836  
  23138508.402  
  19587527.656   104780105.260                    81495667.589    19587531.273  
  19587525.820  
 21  8 14  8 35 50.0000000  0 15R10G15G26R 4G 8G18G27R 3G10G23G16R18
                                R20R 5R19
  23077857.180   123017958.654                                                  
  23077856.258  
  23021494.086   120978802.288    23021501.918    94269238.5784   23021501.723  
                
  23827733.789   125215567.927    23827745.129    97570622.5034   23827745.016  
                
  19804888.477   106054323.940                    82486697.417    19804891.637  
  19804887.379  
  23793994.055   125038286.145    23794003.473    97432471.7454   23794004.098  
                
  21397802.750   112446217.606    21397809.770    87620470.4734   21397809.789  
                
  21344476.273   112165999.654    21344484.500    87402114.0854   21344484.699  
                
  20419053.602   109304833.303                    85014882.396    20419057.941  
  20419052.207  
  20806242.633   109337577.668    20806251.309    85198175.2364   20806250.969  
                
  20362450.406   107005422.346    20362457.273    83380900.5604   20362457.199  
                
  22521413.656   118350845.347    22521420.023    92221465.3984                 
                
  20946979.945   111816396.623                    86968309.742    20946983.980  
  20946978.242  
  22616897.047   120942691.839                    94066594.820    22616904.238  
  22616895.984  
  23130038.398   123643308.672                    96167025.843    23130044.719  
  23130038.316  
  19586371.086   104773918.437                    81490855.616    19586374.707  
  19586369.219  
 21  8 14  8 36  0.0000000  0 15R10G15G26R 4G 8G18G27R 3G10G23G16R18
                                R20R 5R19
  23080380.320   123031408.290                                                  
  23080379.418  
  23024784.336   120996092.688    23024792.148    94282711.6134   23024791.953  
                
  23833648.008   125246647.117    23833659.312    97594840.0384   23833659.207  
                
  19800772.680   106032284.094                    82469555.328    19800775.852  
  19800771.566  
  23787783.500   125005649.349    23787792.922    97407040.4704   23787793.535  
                
  21401456.516   112465418.230    21401463.555    87635432.0004   21401463.574  
                
  21340584.156   112145546.455    21340592.410    87386176.5304   21340592.613  
                
  20422792.734   109324849.168                    85030450.276    20422797.062  
