     2.11           OBSERVATION DATA    M (MIXED)           RINEX VERSION / TYPE
EFT-CORS.RU                             20210817 144941 UTC PGM / RUN BY / DATE 
MDNG                                                        MARKER NAME         
                                                            MARKER NUMBER       
MDNG                EFT-CORS.RU                             OBSERVER / AGENCY   
0                   TRIMBLE BD970       2.0                 REC # / TYPE / VERS 
0                   UNKNOWN EXT NONE                        ANT # / TYPE        
  3463911.2830  3030468.2400  4402179.3760                  APPROX POSITION XYZ 
        0.0000        0.0000        0.0000                  ANTENNA: DELTA H/E/N
     1     1                                                WAVELENGTH FACT L1/2
     6    C1    L1    P2    L2    C2    P1                  # / TYPES OF OBSERV 
    10.000                                                  INTERVAL            
  2021     8    16    22    30    0.0000000     GPS         TIME OF FIRST OBS   
  2021     8    16    23    30    0.0000000     GPS         TIME OF LAST OBS    
     0                                                      RCV CLOCK OFFS APPL 
                                                            END OF HEADER       
 21  8 16 22 30  0.0000000  0 16G17G15G13G14G30R16G24R17R 6G19R15G 1
                                R24R23R14R 5
  20883623.969   109744198.488    20883630.324    85514997.2864   20883630.223  
                
  21478487.445   112870214.178    21478493.988    87950850.2084   21478493.844  
                
  20828190.180   109452891.854    20828196.039    85287997.5894                 
                
  21111236.641   110940342.349    21111243.285    86447059.5104   21111243.215  
                
  22686340.609   119217569.744    22686350.262    92896864.6774   22686350.512  
                
  22887029.516   122258403.700                    95089857.017    22887032.004  
  22887029.016  
  22962108.125   120666684.669    22962117.066    94026037.2044   22962117.188  
                
  21411939.539   114579617.605                    89117475.658    21411943.543  
  21411937.859  
  22001725.492   117405400.096                                                  
  22001723.184  
  21486900.992   112914432.819    21486905.758    87985297.3674                 
                
  19748246.750   105528662.484                    82077858.863    19748250.582  
  19748246.727  
  23939195.195   125801323.032    23939204.730    98027051.2564   23939204.477  
                
  21112366.508   112897323.695                    87809037.865    21112370.605  
  21112365.609  
  23023376.266   123159566.335                                                  
  23023374.355  
  21084315.492   112391301.681                    87415465.762    21084319.469  
  21084315.125  
  21176522.984   113200646.669                    88044950.105    21176527.324  
  21176522.609  
 21  8 16 22 30 10.0000000  0 16G17G15G13G14G30R16G24R17R 6G19R15G 1
                                R24R23R14R 5
  20882892.539   109740354.810    20882898.914    85512002.2094   20882898.812  
                
  21479372.750   112874866.471    21479379.285    87954475.3634   21479379.145  
                
  20831381.289   109469661.254    20831387.191    85301064.6594                 
                
  21114855.086   110959357.384    21114861.746    86461876.4134   21114861.660  
                
  22691464.109   119244493.907    22691473.758    92917844.5434   22691474.020  
                
  22881466.555   122228687.154                    95066744.169    22881469.035  
  22881466.023  
  22956213.578   120635708.570    22956222.488    94001899.9734   22956222.609  
                
  21405395.906   114544601.343                    89090240.778    21405399.879  
  21405394.207  
  21998884.242   117390238.658                                                  
  21998881.914  
  21481724.430   112887229.821    21481729.203    87964100.2424                 
                
  19747143.469   105522766.899                    82073273.406    19747147.281  
  19747143.449  
  23937852.375   125794266.604    23937861.914    98021552.7634   23937861.660  
                
  21112589.328   112898515.261                    87809964.636    21112593.422  
  21112588.391  
  23028844.852   123188819.515                                                  
  23028842.918  
  21088446.578   112413322.634                    87432593.164    21088450.543  
  21088446.242  
  21181627.523   113227933.379                    88066173.085    21181631.859  
  21181627.125  
 21  8 16 22 30 20.0000000  0 16G17G15G13G14G30R16G24R17R 6G19R15G 1
                                R24R23R14R 5
  20882173.172   109736574.497    20882179.574    85509056.5194   20882179.457  
                
  21480270.875   112879586.193    21480277.422    87958153.0694   21480277.277  
                
  20834583.953   109486491.358    20834589.895    85314179.0274                 
                
  21118479.047   110978401.417    21118485.711    86476715.9084   21118485.621  
                
  22696592.891   119271445.773    22696602.562    92938845.9904   22696602.816  
                
  22875905.242   122198979.534                    95043638.254    22875907.695  
  22875904.723  
  22950322.078   120604748.683    22950331.051    93977775.4014   22950331.168  
                
  21398861.867   114509636.502                    89063045.912    21398865.848  
  21398860.160  
  21996058.664   117375160.745                                                  
  21996056.273  
  21476557.164   112860075.735    21476561.953    87942941.2234                 
                
  19746046.391   105516904.466                    82068713.743    19746050.188  
  19746046.387  
  23936521.734   125787274.187    23936531.250    98016104.1354   23936531.012  
                
  21112829.344   112899798.769                    87810962.927    21112833.410  
  21112828.395  
  23034325.633   123218138.106                                                  
  23034323.691  
  21092581.859   112435365.999                    87449737.992    21092585.832  
  21092581.508  
  21186744.711   113255287.617                    88087448.607    21186749.051  
  21186744.289  
 21  8 16 22 30 30.0000000  0 16G17G15G13G14G30R16G24R17R 6G19R15G 1
                                R24R23R14R 5
  20881465.836   109732857.426    20881472.258    85506160.1024   20881472.141  
                
  21481181.820   112884373.247    21481188.375    87961883.2394   21481188.227  
                
  20837798.141   109503382.041    20837804.117    85327340.6034                 
                
  21122108.508   110997474.351    21122115.156    86491577.9434   21122115.062  
                
  22701726.945   119298425.319    22701736.664    92959869.0064   22701736.898  
                
  22870345.555   122169280.583                    95020539.051    22870347.949  
  22870344.977  
  22944433.680   120573804.986    22944442.723    93953663.4534   22944442.812  
                
  21392337.469   114474723.257                    89035891.170    21392341.469  
  21392335.742  
  21993248.789   117360166.739                                                  
  21993246.414  
  21471399.242   112832970.704    21471404.070    87921820.4304                 
                
  19744955.492   105511075.045                    82064179.757    19744959.277  
  19744955.512  
  23935203.273   125780345.814    23935212.785    98010705.4064   23935212.566  
                
  21113086.508   112901173.888                    87812032.483    21113090.547  
  21113085.551  
  23039818.617   123247521.927                                                  
  23039816.684  
  21096721.328   112457431.650                    87466900.162    21096725.316  
  21096720.977  
  21191874.453   113282708.966                    88108776.326    21191878.777  
  21191874.016  
 21  8 16 22 30 40.0000000  0 16G17G15G13G14G30R16G24R17R 6G19R15G 1
                                R24R23R14R 5
  20880770.492   109729203.367    20880776.930    85503312.7804   20880776.805  
                
  21482105.547   112889227.475    21482112.113    87965665.7464   21482111.953  
                
  20841023.820   109520333.123    20841029.836    85340549.2414                 
                
  21125743.430   111016575.997    21125750.043    86506462.3344   21125749.957  
                
  22706866.219   119325432.337    22706875.973    92980913.4294   22706876.184  
                
  22864787.477   122139590.470                    94997446.739    22864789.883  
  22864786.922  
  22938548.352   120542877.496    22938557.418    93929564.1184   22938557.504  
                
  21385822.742   114439861.743                    89008776.653    21385826.746  
  21385820.973  
  21990454.516   117345255.978                                                  
  21990452.141  
  21466250.648   112805914.747    21466255.516    87900737.8844                 
                
  19743870.750   105505278.514                    82059671.345    19743874.527  
  19743870.770  
  23933897.008   125773481.397    23933906.527    98005356.5364   23933906.273  
                
  21113360.812   112902640.766                    87813173.385    21113364.832  
  21113359.836  
  23045323.719   123276970.643                                                  
  23045321.777  
  21100864.938   112479519.408                    87484079.502    21100868.938  
  21100864.582  
  21197016.703   113310197.198                    88130156.055    21197021.016  
  21197016.262  
 21  8 16 22 30 50.0000000  0 16G17G15G13G14G30R16G24R17R 6G19R15G 1
                                R24R23R14R 5
  20880087.180   109725612.537    20880093.633    85500514.7424   20880093.496  
                
  21483042.094   112894149.078    21483048.660    87969500.7594   21483048.508  
                
  20844261.039   109537344.816    20844267.082    85353805.1044                 
                
  21129383.852   111035706.541    21129390.422    86521369.2454   21129390.344  
                
  22712010.766   119352467.053    22712020.527    93001979.4414   22712020.727  
                
  22859231.070   122109909.256                    94974361.361    22859233.465  
  22859230.523  
  22932666.180   120511966.431    22932675.203    93905477.5654   22932675.277  
                
  21379317.750   114405052.266                    88981702.622    21379321.742  
  21379315.969  
  21987676.000   117330429.238                                                  
  21987673.625  
  21461111.445   112778908.047    21461116.332    87879693.7144                 
                
  19742792.219   105499515.155                    82055188.746    19742795.992  
  19742792.238  
  23932602.977   125766681.260    23932612.555    98000057.7324   23932612.266  
                
  21113652.281   112904199.371                    87814385.626    21113656.297  
  21113651.285  
  23050840.992   123306484.472                                                  
  23050839.031  
  21105012.742   112501629.525                    87501276.265    21105016.762  
  21105012.375  
  21202171.484   113337752.381                    88151587.867    21202175.785  
  21202171.051  
 21  8 16 22 31  0.0000000  0 16G17G15G13G14G30R16G24R17R 6G19R15G 1
                                R24R23R14R 5
  20879416.180   109722086.399    20879422.645    85497767.0984   20879422.508  
                
  21483991.703   112899139.293    21483998.270    87973389.2414   21483998.133  
                
  20847510.023   109554418.347    20847516.078    85367109.1404                 
                
  21133030.016   111054867.215    21133036.539    86536299.6394   21133036.473  
                
  22717160.820   119379530.755    22717170.570    93023068.0334   22717170.766  
                
  22853676.625   122080238.516                    94951284.112    22853679.055  
  22853676.043  
  22926787.391   120481073.178    22926796.305    93881404.9014   22926796.410  
                
  21372822.773   114370296.336                    88954670.234    21372826.727  
  21372820.984  
  21984913.438   117315687.764                                                  
  21984911.039  
  21455981.898   112751952.095    21455986.805    87858689.0844                 
                
  19741720.102   105493786.118                    82050732.833    19741723.871  
  19741720.129  
  23931321.445   125759946.730    23931331.047    97994810.0494   23931330.715  
                
  21113961.180   112905851.207                    87815670.387    21113965.184  
  21113960.148  
  23056370.641   123336064.522                                                  
  23056368.629  
  21109164.961   112523763.184                    87518491.335    21109169.012  
  21109164.574  
  21207338.969   113365375.620                    88173072.607    21207343.285  
  21207338.527  
 21  8 16 22 31 10.0000000  0 16G17G15G13G14G30R16G24R17R 6G19R15G 1
                                R24R23R14R 5
  20878756.688   109718620.766    20878763.160    85495066.6084   20878763.016  
                
  21484953.578   112904194.017    21484960.145    87977327.9854   21484960.004  
                
  20850769.977   109571549.537    20850776.039    85380458.1264                 
                
  21136681.109   111074053.826    21136687.590    86551250.2464   21136687.531  
                
  22722315.594   119406619.229    22722325.285    93044175.9154   22722325.504  
                
  22848123.258   122050573.564                    94928211.408    22848125.691  
  22848122.609  
  22920911.219   120450193.643    22920920.062    93857342.9284   22920920.199  
                
  21366337.023   114335589.827                    88927676.292    21366340.988  
  21366335.246  
  21982166.094   117301027.512                                                  
  21982163.703  
  21450861.227   112725042.829    21450866.172    87837720.8274                 
                
  19740653.672   105488087.452                    82046300.539    19740657.441  
  19740653.703  
  23930051.617   125753273.715    23930061.211    97989610.2994   23930060.848  
                
  21114286.703   112907591.950                    87817024.302    21114290.688  
  21114285.656  
  23061911.859   123365706.482                                                  
  23061909.809  
  21113320.859   112545916.451                    87535721.659    21113324.945  
  21113320.473  
  21212518.422   113393062.780                    88194607.070    21212522.723  
  21212517.992  
 21  8 16 22 31 20.0000000  0 16G17G15G13G14G30R16G24R17R 6G19R15G 1
                                R24R23R14R 5
  20878109.406   109715219.249    20878115.883    85492416.0814   20878115.723  
                
  21485928.430   112909316.886    21485934.996    87981319.8344   21485934.855  
                
  20854041.594   109588741.977    20854047.664    85393854.8324                 
                
  21140337.836   111093269.986    21140344.277    86566223.8814   21140344.230  
                
  22727475.781   119433736.126    22727485.402    93065305.9744   22727485.648  
                
  22842571.758   122020918.567                    94905146.416    22842574.199  
  22842571.152  
  22915038.367   120419331.594    22915047.184    93833294.5954   22915047.320  
                
  21359861.258   114300936.755                    88900723.932    21359865.230  
  21359859.480  
  21979434.695   117286452.218                                                  
  21979432.301  
  21445750.148   112698184.022    21445755.102    87816791.8994                 
                
  19739593.586   105482422.715                    82041894.631    19739597.363  
  19739593.609  
  23928794.195   125746665.915    23928803.820    97984461.3644   23928803.402  
                
  21114629.531   112909425.242                    87818450.192    21114633.500  
  21114628.465  
  23067465.328   123395413.831                                                  
  23067463.289  
  21117481.078   112568092.775                    87552969.893    21117485.180  
  21117480.664  
  21217710.500   113420817.395                    88216193.983    21217714.781  
  21217710.094  
 21  8 16 22 31 30.0000000  0 16G17G15G13G14G30R16G24R17R 6G19R15G 1
                                R24R23R14R 5
  20877474.180   109711881.096    20877480.652    85489814.9224   20877480.492  
                
  21486916.094   112914507.043    21486922.660    87985364.1184   21486922.520  
                
  20857324.711   109605994.858    20857330.793    85407298.6314                 
                
  21144000.031   111112514.916    21144006.445    86581219.9354   21144006.414  
                
  22732641.219   119460880.699    22732650.824    93086457.5774   22732651.062  
                
  22837022.016   121991272.722                    94882088.576    22837024.383  
  22837021.395  
  22909168.711   120388486.297    22909177.535    93809259.3024   22909177.645  
                
  21353395.359   114266336.484                    88873812.622    21353399.348  
  21353393.570  
  21976719.047   117271960.856                                                  
  21976716.652  
  21440648.562   112671375.030    21440653.480    87795901.7804                 
                
  19738539.734   105476791.286                    82037514.634    19738543.523  
  19738539.746  
  23927549.031   125740122.639    23927558.664    97979362.7114   23927558.242  
                
  21114989.578   112911350.551                    87819947.667    21114993.547  
  21114988.520  
  23073030.898   123425185.857                                                  
  23073028.875  
  21121645.492   112590291.416                    87570235.501    21121649.578  
  21121645.090  
  21222914.992   113448638.327                    88237832.499    21222919.273  
  21222914.605  
 21  8 16 22 31 40.0000000  0 16G17G15G13G14G30R16G24R17R 6G19R15G 1
                                R24R23R14R 5
  20876850.945   109708606.022    20876857.418    85487262.9204   20876857.266  
                
  21487916.492   112919764.223    21487923.059    87989460.6194   21487922.930  
                
  20860619.250   109623307.805    20860625.355    85420789.2414                 
                
  21147667.625   111131788.225    21147674.020    86596238.1044   21147673.984  
                
  22737811.852   119488052.584    22737821.465    93107630.4704   22737821.680  
                
  22831473.875   121961635.579                    94859037.437    22831476.172  
  22831473.254  
  22903302.188   120357657.556    22903311.031    93785236.9194   22903311.121  
                
  21346939.320   114231788.944                    88846942.304    21346943.266  
  21346937.566  
  21974019.180   117257553.852                                                  
  21974016.836  
  21435556.398   112644615.559    21435561.297    87775050.2484                 
                
  19737492.047   105471192.769                    82033160.234    19737495.852  
  19737492.047  
  23926316.078   125733643.612    23926325.734    97974314.1304   23926325.316  
                
  21115366.758   112913367.528                    87821516.450    21115370.734  
  21115365.680  
  23078608.461   123455022.021                                                  
  23078606.422  
  21125814.031   112612512.094                    87587518.237    21125818.109  
  21125813.621  
  21228131.797   113476525.221                    88259522.294    21228136.066  
  21228131.387  
 21  8 16 22 31 50.0000000  0 16G17G15G13G14G30R16G24R17R 6G19R15G 1
                                R24R23R14R 5
  20876239.773   109705394.226    20876246.238    85484760.2264   20876246.082  
                
  21488929.727   112925088.755    21488936.289    87993609.6074   21488936.172  
                
  20863925.289   109640681.125    20863931.406    85434326.8884                 
                
  21151340.672   111151090.178    21151347.047    86611278.5824   21151347.023  
                
  22742987.758   119515252.038    22742997.359    93128824.8474   22742997.551  
                
  22825927.461   121932007.613                    94835993.492    22825929.766  
  22825926.863  
  22897438.898   120326845.701    22897447.727    93761227.6754   22897447.809  
                
  21340493.227   114197294.546                    88820113.317    21340497.125  
  21340491.512  
  21971335.086   117243231.053                                                  
  21971332.777  
  21430473.734   112617905.973    21430478.648    87754237.6004                 
                
  19736450.578   105465627.485                    82028831.682    19736454.379  
  19736450.570  
  23925095.430   125727229.223    23925105.121    97969315.9164   23925104.676  
                
  21115761.148   112915476.465                    87823156.722    21115765.125  
  21115760.062  
  23084198.023   123484922.391                                                  
  23084196.012  
  21129986.758   112634755.076                    87604818.346    21129990.840  
  21129986.340  
  21233361.023   113504478.387                    88281263.629    21233365.297  
  21233360.590  
 21  8 16 22 32  0.0000000  0 16G17G15G13G14G30R16G24R17R 6G19R15G 1
                                R24R23R14R 5
  20875640.594   109702245.529    20875647.047    85482306.7024   20875646.895  
                
  21489955.703   112930480.281    21489962.266    87997810.7984   21489962.164  
                
  20867242.742   109658114.497    20867248.879    85447911.3324                 
                
  21155019.117   111170420.485    21155025.473    86626341.1544   21155025.457  
                
  22748168.852   119542478.846    22748178.391    93150040.5294   22748178.602  
                
  22820382.727   121902388.435                    94812956.339    22820384.977  
  22820382.152  
  22891578.766   120296050.567    22891587.574    93737231.4704   22891587.680  
                
  21334057.031   114162853.110                    88793325.561    21334060.910  
  21334055.324  
  21968666.773   117228992.441                                                  
  21968664.449  
  21425400.555   112591246.261    21425405.488    87733463.8104                 
                
  19735415.289   105460095.218                    82024528.814    19735419.090  
  19735415.277  
  23923887.055   125720879.265    23923896.746    97964367.9144   23923896.312  
                
  21116172.641   112917676.909                    87824868.200    21116176.621  
  21116171.539  
  23089799.547   123514886.701                                                  
  23089797.566  
  21134163.625   112657020.096                    87622135.562    21134167.695  
  21134163.195  
  21238602.523   113532497.157                    88303056.019    21238606.801  
  21238602.102  
 21  8 16 22 32 10.0000000  0 16G17G15G13G14G30R16G24R17R 6G19R15G 1
                                R24R23R14R 5
  20875053.414   109699159.867    20875059.844    85479902.2934   20875059.707  
                
  21490994.406   112935938.682    21491000.969    88002064.0944   21491000.859  
                
  20870571.594   109675607.716    20870577.730    85461542.4184                 
                
  21158702.930   111189779.004    21158709.273    86641425.7094   21158709.270  
                
  22753355.141   119569732.876    22753364.617    93171277.4494   22753364.871  
                
  22814839.672   121872778.208                    94789926.153    22814841.832  
  22814839.113  
  22885721.828   120265272.121    22885730.629    93713248.2654   22885730.734  
                
  21327630.719   114128464.749                    88766579.072    21327634.629  
  21327629.027  
  21966014.234   117214838.080                                                  
  21966011.906  
  21420336.867   112564636.378    21420341.801    87712728.8444                 
                
  19734386.188   105454596.012                    82020251.658    19734389.984  
  19734386.168  
  23922690.953   125714593.716    23922700.578    97959470.1154   23922700.152  
                
  21116601.273   112919969.016                    87826650.937    21116605.250  
  21116600.145  
  23095412.984   123544914.667                                                  
  23095410.961  
  21138344.617   112679307.155                    87639469.935    21138348.688  
  21138344.172  
  21243856.305   113560581.593                    88324899.461    21243860.582  
  21243855.906  
 21  8 16 22 32 20.0000000  0 16G17G15G13G14G30R16G24R17R 6G19R15G 1
                                R24R23R14R 5
  20874478.266   109696137.485    20874484.664    85477547.1924   20874484.547  
                
  21492045.852   112941464.099    21492052.414    88006369.6114   21492052.293  
                
  20873911.852   109693160.897    20873917.973    85475220.2114                 
                
  21162392.109   111209165.821    21162398.441    86656532.3114   21162398.449  
                
  22758546.617   119597014.218    22758556.086    93192535.6394   22758556.352  
                
  22809298.250   121843176.947                    94766902.977    22809300.375  
  22809297.719  
  22879868.086   120234510.581    22879876.898    93689278.2414   22879876.984  
                
  21321214.398   114094129.814                    88739874.142    21321218.344  
  21321212.703  
  21963377.523   117200768.210                                                  
  21963375.195  
  21415282.703   112538076.576    21415287.625    87692032.8954                 
                
  19733363.250   105449129.778                    82016000.134    19733367.043  
  19733363.238  
  23921507.156   125708372.786    23921516.703    97954622.6534   23921516.316  
                
  21117047.031   112922352.758                    87828504.957    21117051.027  
  21117045.887  
  23101038.297   123575006.254                                                  
  23101036.309  
  21142529.773   112701616.373                    87656821.533    21142533.824  
  21142529.312  
  21249122.312   113588731.422                    88346793.762    21249126.586  
  21249121.910  
 21  8 16 22 32 30.0000000  0 16G17G15G13G14G30R16G24R17R 6G19R15G 1
                                R24R23R14R 5
  20873915.148   109693178.268    20873921.508    85475241.3124   20873921.410  
                
  21493110.047   112947056.453    21493116.605    88010727.2904   21493116.477  
                
  20877263.492   109710773.911    20877269.602    85488944.6404                 
                
  21166086.688   111228580.904    21166093.020    86671660.9374   21166093.031  
                
  22763743.289   119624322.879    22763752.770    93213815.1014   22763753.031  
                
  22803758.500   121813584.583                    94743886.686    22803760.617  
  22803757.949  
  22874017.586   120203766.013    22874026.418    93665321.4404   22874026.492  
                
  21314808.125   114059848.568                    88713210.962    21314812.094  
  21314806.406  
  21960756.656   117186782.765                                                  
  21960754.320  
  21410238.086   112511566.927    21410243.004    87671376.0314                 
                
  19732346.531   105443696.757                    82011774.452    19732350.316  
  19732346.523  
  23920335.664   125702216.522    23920345.152    97949825.5854   23920344.832  
                
  21117509.945   112924828.208                    87830430.320    21117513.969  
  21117508.797  
  23106675.500   123605161.412                                                  
  23106673.496  
  21146719.062   112723947.644                    87674190.288    21146723.117  
  21146718.566  
  21254400.562   113616946.653                    88368738.942    21254404.812  
  21254400.141  
 21  8 16 22 32 40.0000000  0 16G17G15G13G14G30R16G24R17R 6G19R15G 1
                                R24R23R14R 5
  20873364.055   109690282.226    20873370.375    85472984.6624   20873370.309  
                
  21494186.984   112952715.805    21494193.527    88015137.1764   21494193.406  
                
  20880626.531   109728446.774    20880632.633    85502715.7034                 
                
  21169786.617   111248024.184    21169792.961    86686811.5454   21169792.949  
                
  22768945.148   119651658.828    22768954.656    93235115.8334   22768954.934  
                
  22798220.398   121784001.169                    94720877.400    22798222.578  
  22798219.875  
  22868170.336   120173038.490    22868179.219    93641377.9304   22868179.254  
                
  21308411.898   114025621.106                    88686589.605    21308415.855  
  21308410.184  
  21958151.617   117172881.732                                                  
  21958149.254  
  21405203.023   112485107.513    21405207.941    87650758.3144                 
                
  19731336.008   105438296.796                    82007574.478    19731339.805  
  19731336.016  
  23919176.484   125696124.948    23919185.930    97945078.9284   23919185.648  
                
  21117990.016   112927395.370                    87832426.992    21117994.039  
  21117988.867  
  23112324.547   123635380.056                                                  
  23112322.555  
  21150912.477   112746300.876                    87691576.108    21150916.531  
  21150911.992  
  21259691.008   113645227.149                    88390734.894    21259695.242  
  21259690.586  
 21  8 16 22 32 50.0000000  0 16G17G15G13G14G30R16G24R17R 6G19R15G 1
                                R24R23R14R 5
  20872824.938   109687449.147    20872831.223    85470777.0724   20872831.172  
                
  21495276.633   112958441.954    21495283.148    88019599.1094   21495283.043  
                
  20884000.922   109746179.303    20884007.004    85516533.2584                 
                
  21173491.883   111267495.501    21173498.230    86701983.9914   21173498.211  
                
  22774152.180   119679021.884    22774161.684    93256437.6824   22774161.977  
                
  22792683.984   121754426.790                    94697875.131    22792686.230  
  22792683.477  
  22862326.297   120142327.932    22862335.223    93617447.6164   22862335.215  
                
  21302025.727   113991447.357                    88660010.025    21302029.680  
  21302024.004  
  21955562.375   117159065.145                                                  
  21955559.973  
  21400177.523   112458698.321    21400182.430    87630179.7264                 
                
  19730331.641   105432929.758                    82003400.118    19730335.426  
  19730331.652  
  23918029.602   125690098.023    23918039.004    97940382.6094   23918038.742  
                
  21118487.219   112930054.150                    87834494.931    21118491.258  
  21118486.055  
  23117985.406   123665661.792                                                  
  23117983.375  
  21155110.016   112768676.145                    87708979.106    21155114.066  
  21155109.531  
  21264993.602   113673572.637                    88412781.369    21264997.848  
  21264993.168  
 21  8 16 22 33  0.0000000  0 16G17G15G13G14G30R16G24R17R 6G19R15G 1
                                R24R23R14R 5
  20872297.852   109684679.310    20872304.098    85468618.7574   20872304.066  
                
  21496379.008   112964234.988    21496385.496    88024113.1584   21496385.422  
                
  20887386.688   109763971.647    20887392.746    85530397.4234                 
                
  21177202.484   111286994.914    21177208.836    86717178.3404   21177208.812  
                
  22779364.383   119706412.189    22779373.898    93277780.7784   22779374.191  
                
  22787149.211   121724861.170                    94674879.654    22787151.469  
  22787148.668  
  22856485.508   120111634.524    22856494.418    93593530.6894   22856494.402  
                
  21295649.664   113957327.766                    88633472.557    21295653.590  
  21295647.957  
  21952989.008   117145333.191                                                  
  21952986.605  
  21395161.617   112432339.568    21395166.527    87609640.4424                 
                
  19729333.500   105427596.031                    81999251.665    19729337.285  
  19729333.520  
  23916895.047   125684135.923    23916904.453    97935736.8224   23916904.160  
                
  21119001.578   112932804.681                    87836634.226    21119005.621  
  21119000.391  
  23123658.070   123696006.770                                                  
  23123656.047  
  21159311.680   112791073.397                    87726399.196    21159315.730  
  21159311.203  
  21270308.344   113701982.955                    88434878.271    21270312.555  
  21270307.906  
 21  8 16 22 33 10.0000000  0 16G17G15G13G14G30R16G24R17R 6G19R15G 1
                                R24R23R14R 5
  20871782.820   109681972.785    20871789.035    85466509.7834   20871789.020  
                
  21497494.125   112970094.954    21497500.590    88028679.3654   21497500.527  
                
  20890783.820   109781823.685    20890789.863    85544308.1064                 
                
  21180918.453   111306522.429    21180924.789    86732394.5794   21180924.770  
                
  22784581.781   119733829.734    22784591.332    93299145.0884   22784591.613  
                
  22781616.227   121695304.864                    94651891.402    22781618.465  
  22781615.660  
  22850648.023   120080958.406    22850656.895    93569627.2284   22850656.891  
                
  21289283.750   113923262.454                    88606977.329    21289287.668  
  21289282.059  
  21950431.562   117131686.236                                                  
  21950429.223  
  21390155.320   112406031.297    21390160.227    87589140.5004                 
                
  19728341.578   105422295.471                    81995129.020    19728345.363  
  19728341.598  
  23915772.852   125678238.705    23915782.324    97931141.5934   23915781.977  
                
  21119533.055   112935646.769                    87838844.755    21119537.109  
  21119531.871  
  23129342.492   123726414.623                                                  
  23129340.469  
  21163517.500   112813492.726                    87743836.440    21163521.543  
  21163517.027  
  21275635.195   113730458.048                    88457025.575    21275639.406  
  21275634.766  
 21  8 16 22 33 20.0000000  0 16G17G15G13G14G30R16G24R17R 6G19R15G 1
                                R24R23R14R 5
  20871279.789   109679329.332    20871285.984    85464449.9534   20871285.973  
                
  21498621.930   112976021.600    21498628.363    88033297.5314   21498628.312  
                
  20894192.258   109799735.154    20894198.301    85558265.0974                 
                
  21184639.703   111326077.803    21184646.016    86747632.5364   21184646.020  
                
  22789804.320   119761274.346    22789813.914    93320530.4844   22789814.176  
                
  22776084.859   121665757.408                    94628910.055    22776087.129  
  22776084.289  
  22844813.820   120050299.454    22844822.680    93545737.1454   22844822.672  
                
  21282927.992   113889251.510                    88580524.391    21282931.922  
  21282926.277  
  21947889.969   117118123.834                                                  
  21947887.652  
  21385158.617   112379773.463    21385163.488    87568679.8514                 
                
  19727355.820   105417027.936                    81991032.055    19727359.602  
  19727355.852  
  23914662.969   125672406.283    23914672.473    97926596.8514   23914672.082  
                
  21120081.664   112938580.491                    87841126.532    21120085.723  
  21120080.457  
  23135038.641   123756885.265                                                  
  23135036.629  
  21167727.422   112835933.956                    87761290.732    21167731.461  
  21167726.957  
  21280974.125   113758997.696                    88479223.064    21280978.316  
  21280973.703  
 21  8 16 22 33 30.0000000  0 16G17G15G13G14G30R16G24R17R 6G19R15G 1
                                R24R23R14R 5
  20870788.789   109676749.105    20870794.973    85462439.3854   20870794.957  
                
  21499762.445   112982015.119    21499768.855    88037967.8064   21499768.809  
                
  20897612.055   109817706.284    20897618.094    85572268.5744                 
                
  21188366.305   111345661.214    21188372.594    86762892.3334   21188372.613  
                
  22795032.031   119788746.159    22795041.629    93341937.0764   22795041.898  
                
  22770555.227   121636219.277                    94605935.989    22770557.539  
  22770554.672  
  22838982.938   120019657.951    22838991.848    93521860.6664   22838991.828  
                
  21276582.445   113855295.212                    88554113.949    21276586.359  
  21276580.715  
  21945364.289   117104646.362                                                  
  21945361.969  
  21380171.586   112353566.487    21380176.406    87548258.8284                 
                
  19726376.305   105411793.710                    81986960.981    19726380.086  
  19726376.359  
  23913565.461   125666638.869    23913574.961    97922102.7854   23913574.531  
                
  21120647.422   112941605.869                    87843479.593    21120651.480  
  21120646.215  
  23140746.531   123787418.614                                                  
  23140744.543  
  21171941.500   112858397.334                    87778762.245    21171945.543  
  21171941.039  
  21286325.133   113787601.839                    88501470.743    21286329.305  
  21286324.742  
 21  8 16 22 33 40.0000000  0 16G17G15G13G14G30R16G24R17R 6G19R15G 1
                                R24R23R14R 5
  20870309.789   109674231.930    20870315.961    85460477.9574   20870315.941  
                
  21500915.648   112988075.209    21500922.039    88042689.9604   21500922.000  
                
  20901043.125   109835736.691    20901049.160    85586318.2444                 
                
  21192098.172   111365272.343    21192104.461    86778173.7344   21192104.477  
                
  22800264.891   119816244.880    22800274.449    93363364.6534   22800274.762  
                
  22765027.227   121606689.953                    94582968.739    22765029.578  
  22765026.715  
  22833155.344   119989033.699    22833164.293    93497997.6094   22833164.242  
                
  21270247.102   113821393.482                    88527745.958    21270251.008  
  21270245.363  
  21942854.523   117091253.781                                                  
  21942852.180  
  21375194.195   112327410.139    21375199.012    87527877.2634                 
                
  19725402.977   105406592.535                    81982915.629    19725406.758  
  19725403.051  
  23912480.289   125660936.299    23912489.789    97917659.2424   23912489.336  
                
  21121230.305   112944722.830                    87845903.911    21121234.359  
  21121229.082  
  23146466.109   123818014.465                                                  
  23146464.082  
  21176159.664   112880882.550                    87796250.733    21176163.703  
  21176159.199  
  21291688.148   113816270.200                    88523768.359    21291692.297  
  21291687.758  
 21  8 16 22 33 50.0000000  0 16G17G15G13G14G30R16G24R17R 6G19R15G 1
                                R24R23R14R 5
  20869842.820   109671777.978    20869848.980    85458565.7894   20869848.969  
                
  21502081.562   112994202.107    21502087.945    88047464.1664   21502087.895  
                
  20904485.516   109853826.572    20904491.543    85600414.2584                 
                
  21195835.359   111384911.371    21195841.656    86793476.8714   21195841.668  
                
  22805502.906   119843770.776    22805512.477    93384813.3974   22805512.797  
                
  22759501.031   121577169.999                    94560008.741    22759503.352  
  22759500.449  
  22827331.078   119958426.959    22827339.984    93474148.2094   22827339.988  
                
  21263922.039   113787546.727                    88501420.710    21263925.938  
  21263920.305  
  21940360.648   117077946.057                                                  
  21940358.301  
  21370226.492   112301304.739    21370231.363    87507535.4074                 
                
  19724435.859   105401424.535                    81978896.078    19724439.637  
  19724435.941  
  23911407.508   125655298.783    23911417.039    97913266.3854   23911416.578  
                
  21121830.336   112947931.447                    87848399.508    21121834.406  
  21121829.098  
  23152197.352   123848672.742                                                  
  23152195.344  
  21180381.992   112903389.873                    87813756.426    21180386.027  
  21180381.531  
  21297063.141   113845002.656                    88546115.819    21297067.293  
  21297062.746  
 21  8 16 22 34  0.0000000  0 16G17G15G13G14G30R16G24R17R 6G19R15G 1
                                R24R23R14R 5
  20869387.836   109669387.036    20869393.988    85456702.7214   20869393.980  
                
  21503260.156   113000395.712    21503266.539    88052290.3504   21503266.477  
                
  20907939.211   109871975.846    20907945.242    85614556.5484                 
                
  21199577.805   111404578.109    21199584.125    86808801.6094   21199584.125  
                
  22810746.055   119871323.635    22810755.625    93406283.1514   22810755.938  
                
  22753976.484   121547658.958                    94537055.755    22753978.840  
  22753975.910  
  22821510.117   119927837.710    22821519.016    93450312.4304   22821519.035  
                
  21257607.227   113753754.957                    88475138.216    21257611.121  
  21257605.484  
  21937882.703   117064723.298                                                  
  21937880.320  
  21365268.492   112275250.351    21365273.391    87487233.2934                 
                
  19723474.945   105396289.717                    81974902.341    19723478.715  
  19723475.016  
  23910347.094   125649726.330    23910356.609    97908924.2394   23910356.141  
                
  21122447.477   112951231.646                    87850966.334    21122451.570  
  21122446.227  
  23157940.234   123879393.273                                                  
  23157938.305  
  21184608.391   112925918.977                    87831279.053    21184612.426  
  21184607.930  
  21302450.102   113873799.025                    88568512.987    21302454.223  
  21302449.703  
 21  8 16 22 34 10.0000000  0 16G17G15G13G14G30R16G24R17R 6G19R15G 1
                                R24R23R14R 5
  20868944.867   109667059.226    20868951.016    85454888.8454   20868951.020  
                
  21504451.453   113006655.978    21504457.836    88057168.4754   21504457.777  
                
  20911404.188   109890184.425    20911410.234    85628745.0524                 
                
  21203325.547   111424272.597    21203331.875    86824147.9564   21203331.875  
                
  22815994.359   119898903.544    22816003.941    93427773.9754   22816004.242  
                
  22748453.711   121518157.365                    94514110.082    22748456.082  
  22748453.141  
  22815692.516   119897266.066    22815701.410    93426490.3884   22815701.430  
                
  21251302.742   113720018.410                    88448898.679    21251306.617  
  21251300.992  
  21935420.672   117051585.515                                                  
  21935418.281  
  21360320.227   112249247.080    21360325.086    87466971.0044                 
                
  19722520.258   105391188.143                    81970934.456    19722524.031  
  19722520.312  
  23909299.094   125644219.012    23909308.586    97904632.8374   23909308.105  
                
  21123081.781   112954623.569                    87853604.509    21123085.883  
  21123080.527  
  23163694.711   123910175.802                                                  
  23163692.793  
  21188838.906   112948470.011                    87848818.739    21188842.926  
  21188838.453  
  21307849.000   113902659.244                    88590959.825    21307853.121  
  21307848.605  
 21  8 16 22 34 20.0000000  0 16G17G15G13G14G30R16G24R17R 6G19R15G 1
                                R24R23R14R 5
  20868513.891   109664794.493    20868520.039    85453124.1214   20868520.031  
                
  21505655.383   113012982.704    21505661.770    88062098.3964   21505661.691  
                
  20914880.406   109908452.114    20914886.469    85642979.6134                 
                
  21207078.516   111443994.618    21207084.863    86839515.7574   21207084.871  
                
  22821247.781   119926510.318    22821257.359    93449285.7374   22821257.656  
                
  22742932.617   121488664.570                    94491171.255    22742934.949  
  22742932.039  
  22809878.234   119866711.964    22809887.141    93402681.9904   22809887.160  
                
  21245008.609   113686337.168                    88422702.183    21245012.465  
  21245006.863  
  21932974.602   117038532.973                                                  
  21932972.223  
  21355381.664   112223294.861    21355386.520    87446748.5024                 
                
  19721571.750   105386119.657                    81966992.305    19721575.512  
  19721571.789  
  23908263.477   125638776.764    23908272.961    97900392.1304   23908272.469  
                
  21123733.188   112958106.952                    87856313.808    21123737.297  
  21123731.930  
  23169460.773   123941020.293                                                  
  23169458.816  
  21193073.539   112971042.940                    87866375.470    21193077.539  
  21193073.102  
  21313259.797   113931583.061                    88613456.120    21313263.922  
  21313259.387  
 21  8 16 22 34 30.0000000  0 16G17G15G13G14G30R16G24R17R 6G19R15G 1
                                R24R23R14R 5
  20868094.984   109662593.098    20868101.141    85451408.7544   20868101.125  
                
  21506872.031   113019376.210    21506878.402    88067080.3414   21506878.344  
                
  20918367.922   109926779.099    20918373.980    85657260.3834                 
                
  21210836.766   111463744.367    21210843.137    86854905.1684   21210843.137  
                
  22826506.359   119954144.149    22826515.926    93470818.5914   22826516.207  
                
  22737413.250   121459181.073                    94468239.623    22737415.531  
  22737412.684  
  22804067.367   119836175.684    22804076.301    93378887.5264   22804076.332  
                
  21238724.922   113652711.663                    88396549.012    21238728.742  
  21238723.223  
  21930544.516   117025565.585                                                  
  21930542.117  
  21350452.891   112197393.965    21350457.742    87426565.9904                 
                
  19720629.500   105381084.563                    81963076.122    19720633.273  
  19720629.535  
  23907240.312   125633399.854    23907249.754    97896202.3324   23907249.270  
                
  21124401.719   112961681.898                    87859094.321    21124405.832  
  21124400.461  
  23175238.398   123971926.665                                                  
  23175236.445  
  21197312.289   112993637.837                    87883949.286    21197316.297  
  21197311.867  
  21318682.500   113960570.448                    88636001.867    21318686.625  
  21318682.094  
 21  8 16 22 34 40.0000000  0 16G17G15G13G14G30R16G24R17R 6G19R15G 1
                                R24R23R14R 5
  20867688.070   109660454.812    20867694.230    85449742.5614   20867694.211  
                
  21508101.312   113025836.159    21508107.668    88072114.0674   21508107.629  
                
  20921866.648   109945165.019    20921872.707    85671587.0784                 
                
  21214600.242   111483521.591    21214606.637    86870315.9844   21214606.629  
                
  22831770.023   119981804.793    22831779.566    93492372.3474   22831779.840  
                
  22731895.602   121429706.784                    94445315.201    22731897.875  
  22731895.023  
  22798259.867   119805657.125    22798268.766    93355106.8154   22798268.797  
                
  21232451.586   113619141.662                    88370439.035    21232455.379  
  21232449.918  
  21928130.430   117012683.561                                                  
  21928128.059  
  21345533.852   112171544.310    21345538.699    87406423.4004                 
                
  19719693.445   105376082.626                    81959185.730    19719697.207  
  19719693.477  
  23906229.523   125628088.122    23906238.902    97892063.3224   23906238.457  
                
  21125087.336   112965348.295                    87861945.962    21125091.469  
  21125086.078  
  23181027.547   124002894.742                                                  
  23181025.547  
  21201555.164   113016254.662                    87901540.125    21201559.152  
  21201554.750  
  21324117.031   113989621.162                    88658596.862    21324121.176  
  21324116.621  
 21  8 16 22 34 50.0000000  0 16G17G15G13G14G30R16G24R17R 6G19R15G 1
                                R24R23R14R 5
  20867293.148   109658379.451    20867299.301    85448125.3994   20867299.277  
                
  21509343.266   113032362.658    21509349.602    88077199.6554   21509349.574  
                
  20925376.617   109963610.014    20925382.680    85685959.8054                 
                
  21218368.969   111503326.335    21218375.379    86885748.2474   21218375.371  
                
  22837038.828   120009492.365    22837048.367    93513947.0744   22837048.625  
                
  22726379.633   121400241.634                    94422397.892    22726381.953  
  22726379.055  
  22792455.781   119775156.421    22792464.621    93331340.0484   22792464.629  
                
  21226188.734   113585627.742                    88344372.643    21226192.508  
  21226187.090  
  21925732.336   116999886.901                                                  
  21925730.008  
  21340624.602   112145746.043    21340629.453    87386320.8554                 
                
  19718763.602   105371113.868                    81955321.139    19718767.367  
  19718763.629  
  23905231.195   125622841.748    23905240.562    97887975.2514   23905240.133  
                
  21125790.117   112969106.342                    87864868.886    21125794.254  
  21125788.887  
  23186828.211   124033924.367                                                  
  23186826.203  
  21205802.133   113038893.333                    87919147.977    21205806.129  
  21205801.746  
  21329563.406   114018735.139                    88681241.050    21329567.566  
  21329563.012  
 21  8 16 22 35  0.0000000  0 16G17G15G13G14G30R16G24R17R 6G19R15G 1
                                R24R23R14R 5
  20866910.250   109656367.296    20866916.391    85446557.4874   20866916.363  
                
  21510597.867   113038955.644    21510604.195    88082337.0424   21510604.168  
                
  20928897.797   109982113.946    20928903.859    85700378.4554                 
                
  21222142.906   111523158.525    21222149.320    86901201.9014   21222149.312  
                
  22842312.711   120037206.784    22842322.246    93535542.7164   22842322.496  
                
  22720865.438   121370785.760                    94399487.779    22720867.754  
  22720864.875  
  22786655.094   119744673.603    22786663.828    93307587.1994   22786663.879  
                
  21219936.312   113552169.732                    88318349.759    21219940.062  
  21219934.656  
  21923350.219   116987175.457                                                  
  21923347.859  
  21335725.133   112119999.196    21335729.984    87366258.3834                 
                
  19717840.000   105366178.438                    81951482.463    19717843.762  
  19717840.016  
  23904245.266   125617660.695    23904254.664    97883938.0794   23904254.219  
                
  21126510.008   112972955.956                    87867863.029    21126514.141  
  21126508.777  
  23192640.320   124065015.246                                                  
  23192638.344  
  21210053.164   113061553.707                    87936772.713    21210057.191  
  21210052.797  
  21335021.570   114047912.129                    88703934.272    21335025.758  
  21335021.188  
 21  8 16 22 35 10.0000000  0 16G17G15G13G14G30R16G24R17R 6G19R15G 1
                                R24R23R14R 5
  20866539.367   109654418.328    20866545.500    85445038.8114   20866545.477  
                
  21511865.117   113045615.090    21511871.441    88087526.2254   21511871.422  
                
  20932430.188   110000676.802    20932436.266    85714843.0104                 
                
  21225922.078   111543018.153    21225928.492    86916676.9374   21225928.492  
                
  22847591.695   120064948.077    22847601.191    93557159.2994   22847601.469  
                
  22715352.945   121341339.049                    94376584.753    22715355.219  
  22715352.391  
  22780857.859   119714208.833    22780866.574    93283848.4084   22780866.621  
                
  21213694.383   113518767.929                    88292370.577    21213698.113  
  21213692.742  
  21920984.133   116974549.654                                                  
  21920981.773  
  21330835.500   112094304.005    21330840.328    87346236.1564                 
                
  19716922.625   105361276.261                    81947669.664    19716926.379  
  19716922.629  
  23903271.773   125612545.062    23903281.203    97879951.8804   23903280.766  
                
  21127247.039   112976897.227                    87870928.466    21127251.164  
  21127245.812  
  23198463.906   124096167.528                                                  
  23198461.938  
  21214308.320   113084236.093                    87954414.575    21214312.383  
  21214307.949  
  21340491.500   114077152.039                    88726676.424    21340495.680  
  21340491.125  
 21  8 16 22 35 20.0000000  0 16G17G15G13G14G30R16G24R17R 6G19R15G 1
                                R24R23R14R 5
  20866180.516   109652532.544    20866186.641    85443569.3714   20866186.625  
                
  21513145.023   113052340.993    21513151.355    88092767.1784   21513151.312  
                
  20935973.766   110019298.449    20935979.875    85729353.3884                 
                
  21229706.453   111562905.141    21229712.867    86932173.2904   21229712.867  
                
  22852875.805   120092716.167    22852885.230    93578796.7714   22852885.555  
                
  22709842.211   121311901.686                    94353689.045    22709844.441  
  22709841.629  
  22775064.039   119683762.089    22775072.805    93260123.6814   22775072.816  
                
  21207463.008   113485422.596                    88266435.324    21207466.738  
  21207461.359  
  21918634.047   116962009.147                                                  
  21918631.684  
  21325955.719   112068660.536    21325960.531    87326254.2314                 
                
  19716011.484   105356407.408                    81943882.786    19716015.238  
  19716011.504  
  23902310.727   125607494.850    23902320.203    97876016.6734   23902319.789  
                
  21128001.188   112980929.974                    87874065.053    21128005.305  
  21127999.977  
  23204298.914   124127380.893                                                  
  23204296.906  
  21218567.570   113106940.265                    87972073.369    21218571.625  
  21218567.199  
  21345973.188   114106454.815                    88749467.478    21345977.391  
  21345972.797  
 21  8 16 22 35 30.0000000  0 16G17G15G13G14G30R16G24R17R 6G19R15G 1
                                R24R23R14R 5
  20865833.633   109650709.671    20865839.754    85442148.9534   20865839.746  
                
  21514437.531   113059133.172    21514443.875    88098059.7864   21514443.812  
                
  20939528.516   110037978.803    20939534.660    85743909.5014                 
                
  21233496.008   111582819.341    21233502.422    86947690.8524   21233502.422  
                
  22858164.992   120120510.956    22858174.398    93600455.0534   22858174.723  
                
  22704333.164   121282473.502                    94330800.468    22704335.371  
  22704332.609  
  22769273.648   119653333.373    22769282.426    93236413.0014   22769282.418  
                
  21201242.172   113452133.746                    88240544.021    21201245.914  
  21201240.473  
  21916299.961   116949554.047                                                  
  21916297.590  
  21321085.773   112043068.797    21321090.590    87306312.6204                 
                
  19715106.562   105351571.822                    81940121.769    19715110.312  
  19715106.605  
  23901362.133   125602510.025    23901371.652    97872132.4354   23901371.254  
                
  21128772.414   112985054.075                    87877272.693    21128776.547  
  21128771.211  
  23210145.281   124158655.138                                                  
  23210143.242  
  21222830.914   113129666.261                    87989749.130    21222834.941  
  21222830.512  
  21351466.555   114135820.027                    88772307.070    21351470.758  
  21351466.137  
 21  8 16 22 35 40.0000000  0 16G17G15G13G14G30R16G24R17R 6G19R15G 1
                                R24R23R14R 5
  20865498.758   109648949.924    20865504.883    85440777.7244   20865504.871  
                
  21515742.672   113065991.728    21515749.023    88103404.1124   21515748.957  
                
  20943094.445   110056717.909    20943100.629    85758511.3944                 
                
  21237290.758   111602760.842    21237297.164    86963229.6854   21237297.164  
                
  22863459.273   120148332.512    22863468.695    93622134.1824   22863468.996  
                
  22698825.883   121253054.753                    94307919.185    22698828.031  
  22698825.387  
  22763486.711   119622922.859    22763495.449    93212716.4854   22763495.453  
                
  21195031.938   113418901.581                    88214696.783    21195035.668  
  21195030.203  
  21913981.984   116937184.812                                                  
  21913979.609  
  21316225.703   112017528.934    21316230.504    87286411.4234                 
                
  19714207.891   105346769.602                    81936386.712    19714211.641  
  19714207.957  
  23900426.047   125597590.854    23900435.621    97868299.3114   23900435.176  
                
  21129560.750   112989269.659                    87880551.481    21129564.875  
  21129559.555  
  23216003.047   124189990.307                                                  
  23216001.004  
