     2.11           OBSERVATION DATA    M (MIXED)           RINEX VERSION / TYPE
EFT-CORS.RU                             20210817 145333 UTC PGM / RUN BY / DATE 
MDNG                                                        MARKER NAME         
                                                            MARKER NUMBER       
MDNG                EFT-CORS.RU                             OBSERVER / AGENCY   
0                   TRIMBLE BD970       2.0                 REC # / TYPE / VERS 
0                   UNKNOWN EXT NONE                        ANT # / TYPE        
  3463911.2830  3030468.2400  4402179.3760                  APPROX POSITION XYZ 
        0.0000        0.0000        0.0000                  ANTENNA: DELTA H/E/N
     1     1                                                WAVELENGTH FACT L1/2
     6    C1    L1    P2    L2    C2    P1                  # / TYPES OF OBSERV 
    10.000                                                  INTERVAL            
  2021     8    15    16    30    0.0000000     GPS         TIME OF FIRST OBS   
  2021     8    15    17    30    0.0000000     GPS         TIME OF LAST OBS    
     0                                                      RCV CLOCK OFFS APPL 
                                                            END OF HEADER       
 21  8 15 16 30  0.0000000  0 15G16R 1G 4R17R 8R12G22G 7R10G 2G 6G26
                                G 9G 3R 2
  22332087.789   117355941.997    22332094.156    91446223.9354                 
                
  19465884.453   104056339.046                    80932726.450    19465889.957  
  19465883.789  
  20580384.602   108150707.966    20580392.215    84273341.7904   20580392.078  
                
  22723611.008   121598647.362                    94576719.965    22723616.094  
  22723609.402  
  20669836.617   110686085.158                    86089187.521    20669839.805  
  20669836.008  
  23246286.969   124177487.466                    96582486.167    23246292.504  
  23246286.141  
  23949372.125   125854826.311    23949377.957    98068670.9724                 
                
  22503787.492   118258221.250    22503795.637    92149315.7384   22503795.430  
                
  20595662.945   109786502.665                                                  
  20595661.949  
  24967781.836   131206590.177    24967787.422   102238919.0204                 
                
  22711431.039   119349368.792    22711440.867    92999564.3874   22711441.426  
                
  23132700.828   121563211.517    23132710.547    94724617.1774   23132710.449  
                
  20882686.250   109739295.447    20882694.734    85511192.7504   20882694.496  
                
  22167792.727   116492586.656    22167802.223    90773493.1744   22167802.621  
                
  22950799.547   122469869.654                    95254335.913    22950803.996  
  22950797.430  
 21  8 15 16 30 10.0000000  0 15G16R 1G 4R17R 8R12G22G 7R10G 2G 6G26
                                G 9G 3R 2
  22329813.102   117343988.520    22329819.520    91436909.5354                 
                
  19464229.305   104047491.339                    80925844.895    19464234.816  
  19464228.656  
  20581834.703   108158328.282    20581842.316    84279279.6934   20581842.184  
                
  22725843.656   121610594.635                    94586012.280    22725848.738  
  22725842.027  
  20673603.281   110706255.455                    86104875.519    20673606.461  
  20673602.652  
  23237807.984   124132194.880                    96547258.640    23237813.629  
  23237807.250  
  23955880.227   125889026.071    23955885.988    98095320.1154                 
                
  22498707.359   118231525.000    22498715.531    92128513.4844   22498715.301  
                
  20600030.586   109809784.679                                                  
  20600029.582  
  24965290.461   131193498.008    24965296.086   102228717.3214                 
                
  22712381.328   119354362.553    22712391.090    93003455.6294   22712391.648  
                
  23135311.352   121576929.979    23135321.113    94735306.8894   23135320.996  
                
  20880087.688   109725639.925    20880096.172    85500552.0884   20880095.926  
                
  22173492.648   116522539.998    22173502.137    90796833.4274   22173502.551  
                
  22944377.656   122435601.242                    95227682.738    22944382.117  
  22944375.559  
 21  8 15 16 30 20.0000000  0 15G16R 1G 4R17R 8R12G22G 7R10G 2G 6G26
                                G 9G 3R 2
  22327551.133   117332101.817    22327557.594    91427647.1734                 
                
  19462582.742   104038689.518                    80918999.039    19462588.250  
  19462582.086  
  20583290.906   108165980.703    20583298.527    84285242.6214   20583298.383  
                
  22728091.180   121622621.539                    94595366.560    22728096.289  
  22728089.566  
  20677377.750   110726467.529                    86120596.007    20677380.914  
  20677377.125  
  23229331.508   124086915.519                    96512041.388    23229337.199  
  23229330.824  
  23962391.633   125923243.324    23962397.320    98121982.8984                 
                
  22493632.852   118204858.335    22493641.035    92107734.2794   22493640.785  
                
  20604411.938   109833139.749                                                  
  20604410.922  
  24962808.508   131180455.322    24962814.121   102218554.1784                 
                
  22713343.875   119359420.726    22713353.562    93007397.0574   22713354.156  
                
  23137933.570   121590709.921    23137943.371    94746044.5094   23137943.262  
                
  20877494.805   109712014.266    20877503.289    85489934.6974   20877503.039  
                
  22179199.359   116552528.992    22179208.875    90820201.4654   22179209.297  
                
  22937955.695   122401332.531                    95201029.297    22937960.117  
  22937953.602  
 21  8 15 16 30 30.0000000  0 15G16R 1G 4R17R 8R12G22G 7R10G 2G 6G26
                                G 9G 3R 2
  22325301.945   117320282.309    22325308.461    91418437.1874                 
                
  19460944.859   104029934.121                    80912189.288    19460950.359  
  19460944.211  
  20584753.305   108173665.616    20584760.938    84291230.8684   20584760.793  
                
  22730353.617   121634728.324                    94604782.921    22730358.797  
  22730351.918  
  20681160.086   110746721.704                    86136349.252    20681163.234  
  20681159.461  
  23220857.695   124041649.807                    96476834.761    23220863.344  
  23220856.938  
  23968906.391   125957478.435    23968912.023    98148659.6054                 
                
  22488564.047   118178221.652    22488572.211    92086978.4364   22488571.961  
                
  20608807.047   109856568.107                                                  
  20608806.039  
  24960336.039   131167462.451    24960341.676   102208429.8584                 
                
  22714318.750   119364543.622    22714328.371    93011388.9254   22714328.996  
                
  23140567.570   121604551.665    23140577.391    94756830.2904   23140577.289  
                
  20874907.680   109698418.846    20874916.168    85479340.8724   20874915.910  
                
  22184912.922   116582553.945    22184922.484    90843597.5244   22184922.891  
                
  22931533.711   122367063.606                    95174375.698    22931538.113  
  22931531.629  
 21  8 15 16 30 40.0000000  0 15G16R 1G 4R17R 8R12G22G 7R10G 2G 6G26
                                G 9G 3R 2
  22323065.523   117308529.898    22323072.090    91409279.4524                 
                
  19459315.609   104021224.824                    80905415.395    19459321.102  
  19459314.957  
  20586221.820   108181382.733    20586229.469    84297244.2044   20586229.316  
                
  22732630.938   121646914.801                    94614261.240    22732636.199  
  22732629.164  
  20684950.227   110767017.633                    86152134.971    20684953.363  
  20684949.617  
  23212386.320   123996397.569                    96441638.613    23212392.004  
  23212385.602  
  23975424.445   125991731.106    23975430.074    98175349.9734                 
                
  22483500.914   118151614.736    22483509.031    92066245.7844   22483508.805  
                
  20613215.844   109880069.465                                                  
  20613214.836  
  24957873.016   131154519.246    24957878.688   102198344.2264                 
                
  22715305.883   119369730.985    22715315.453    93015431.0154   22715316.102  
                
  23143213.258   121618454.918    23143223.102    94767663.9854   23143223.012  
                
  20872326.273   109684853.427    20872334.754    85468770.4134   20872334.484  
                
  22190633.266   116612614.589    22190642.891    90867021.3934   22190643.266  
                
  22925111.688   122332794.376                    95147721.846    22925116.020  
  22925109.598  
 21  8 15 16 30 50.0000000  0 15G16R 1G 4R17R 8R12G22G 7R10G 2G 6G26
                                G 9G 3R 2
  22320841.812   117296844.344    22320848.414    91400173.8434                 
                
  19457694.984   104012561.660                    80898677.376    19457700.473  
  19457694.340  
  20587696.461   108189132.027    20587704.117    84303282.6044   20587703.957  
                
  22734923.133   121659180.682                    94623801.361    22734928.414  
  22734921.422  
  20688748.164   110787355.400                    86167953.234    20688751.305  
  20688747.535  
  23203917.539   123951159.010                    96406453.089    23203923.172  
  23203916.824  
  23981945.750   126026001.159    23981951.438    98202053.8864                 
                
  22478443.445   118125037.585    22478451.531    92045536.3324   22478451.301  
                
  20617638.266   109903643.511                                                  
  20617637.281  
  24955419.430   131141625.632    24955425.156   102188297.2694                 
                
  22716305.258   119374982.673    22716314.824    93019523.2414   22716315.480  
                
  23145870.633   121632419.558    23145880.504    94778545.5234   23145880.418  
                
  20869750.555   109671317.992    20869759.039    85458223.3264   20869758.773  
                
  22196360.375   116642710.767    22196370.020    90890472.9414   22196370.391  
                
  22918689.594   122298524.884                    95121067.818    22918693.914  
  22918687.480  
 21  8 15 16 31  0.0000000  0 15G16R 1G 4R17R 8R12G22G 7R10G 2G 6G26
                                G 9G 3R 2
  22318630.898   117285225.968    22318637.543    91391120.5774                 
                
  19456083.023   104003944.835                    80891975.401    19456088.496  
  19456082.395  
  20589177.219   108196913.481    20589184.891    84309346.0714   20589184.719  
                
  22737230.164   121671525.946                    94633403.267    22737235.395  
  22737228.484  
  20692553.914   110807735.017                    86183804.035    20692557.062  
  20692553.254  
  23195451.312   123905934.138                    96371278.215    23195456.949  
  23195450.641  
  23988470.453   126060288.575    23988476.152    98228771.3454                 
                
  22473391.672   118098490.302    22473399.719    92024850.1424   22473399.473  
                
  20622074.344   109927290.298                                                  
  20622073.379  
  24952975.297   131128781.752    24952981.031   102178289.0404                 
                
  22717316.875   119380298.743    22717326.480    93023665.6174   22717327.113  
                
  23148539.688   121646445.561    23148549.590    94789474.8894   23148549.508  
                
  20867180.562   109657812.600    20867189.043    85447699.6464   20867188.785  
                
  22202094.250   116672842.448    22202103.867    90913952.1754   22202104.262  
                
  22912267.406   122264255.039                    95094413.507    22912271.754  
  22912265.254  
 21  8 15 16 31 10.0000000  0 15G16R 1G 4R17R 8R12G22G 7R10G 2G 6G26
                                G 9G 3R 2
  22316432.805   117273674.926    22316439.500    91382119.7664                 
                
  19454479.742   103995374.368                    80885309.483    19454485.211  
  19454479.117  
  20590664.109   108204727.155    20590671.789    84315434.6494   20590671.621  
                
  22739552.016   121683950.587                    94643066.859    22739557.188  
  22739550.355  
  20696367.445   110828156.285                    86199687.231    20696370.602  
  20696366.797  
  23186987.711   123860723.213                    96336114.198    23186993.355  
  23186987.055  
  23994998.477   126094593.348    23995004.148    98255502.3294                 
                
  22468345.586   118071972.909    22468353.594    92004187.2484   22468353.340  
                
  20626524.055   109951009.672                                                  
  20626523.098  
  24950540.648   131115987.644    24950546.379   102168319.6304                 
                
  22718340.734   119385679.164    22718350.410    93027858.1414   22718351.023  
                
  23151220.422   121660532.929    23151230.352    94800452.0764   23151230.281  
                
  20864616.305   109644337.313    20864624.781    85437199.4234   20864624.523  
                
  22207834.891   116703009.624    22207844.457    90937459.0644   22207844.891  
                
  22905845.211   122229985.014                    95067759.099    22905849.570  
  22905843.023  
 21  8 15 16 31 20.0000000  0 15G16R 1G 4R17R 8R12G22G 7R10G 2G 6G26
                                G 9G 3R 2
  22314247.484   117262191.085    22314254.207    91373171.3244                 
                
  19452885.141   103986850.302                    80878679.653    19452890.574  
  19452884.520  
  20592157.102   108212572.910    20592164.789    84321548.2274   20592164.625  
                
  22741888.648   121696454.454                    94652792.102    22741893.766  
  22741886.965  
  20700188.789   110848619.434                    86215603.016    20700191.969  
  20700188.109  
  23178526.656   123815526.273                    96300961.051    23178532.375  
  23178526.090  
  24001529.773   126128915.324    24001535.379    98282246.7104                 
                
  22463305.172   118045485.370    22463313.137    91983547.6064   22463312.883  
                
  20630987.336   109974801.442                                                  
  20630986.383  
  24948115.469   131103243.277    24948121.160   102158388.9664                 
                
  22719376.805   119391123.765    22719386.539    93032100.6844   22719387.125  
                
  23153912.820   121674681.507    23153922.809    94811476.9474   23153922.715  
                
  20862057.734   109630892.003    20862066.215    85426722.5674   20862065.949  
                
  22213582.234   116733212.112    22213591.789    90960993.4674   22213592.223  
                
  22899422.984   122195714.869                    95041104.548    22899427.332  
  22899420.785  
 21  8 15 16 31 30.0000000  0 15G16R 1G 4R17R 8R12G22G 7R10G 2G 6G26
                                G 9G 3R 2
  22312075.000   117250774.662    22312081.734    91364275.4184                 
                
  19451299.242   103978372.723                    80872085.978    19451304.660  
  19451298.625  
  20593656.242   108220450.917    20593663.934    84327686.9364   20593663.770  
                
  22744240.109   121709037.530                    94662578.896    22744245.203  
  22744238.418  
  20704017.953   110869124.422                    86231551.317    20704021.152  
  20704017.266  
  23170068.359   123770343.573                    96265818.976    23170074.066  
  23170067.793  
  24008064.336   126163254.502    24008069.879    98309004.5094                 
                
  22458270.500   118019027.930    22458278.430    91962931.4294   22458278.184  
                
  20635464.148   109998665.359                                                  
  20635463.211  
  24945699.797   131090548.845    24945705.434   102148497.2144                 
                
  22720425.125   119396632.709    22720434.875    93036393.3474   22720435.445  
                
  23156616.898   121688891.426    23156626.926    94822549.6024   23156626.820  
                
  20859504.930   109617476.907    20859513.422    85416269.2534   20859513.156  
                
  22219336.328   116763450.023    22219345.887    90984555.4654   22219346.324  
                
  22893000.773   122161444.818                    95014450.070    22893005.121  
  22892998.602  
 21  8 15 16 31 40.0000000  0 15G16R 1G 4R17R 8R12G22G 7R10G 2G 6G26
                                G 9G 3R 2
  22309915.344   117239425.634    22309922.066    91355432.0214                 
                
  19449722.055   103969941.730                    80865528.546    19449727.453  
  19449721.426  
  20595161.484   108228361.030    20595169.191    84333850.6574   20595169.027  
                
  22746606.344   121721699.598                    94672427.175    22746611.422  
  22746604.711  
  20707854.891   110889671.046                    86247532.027    20707858.078  
  20707854.180  
  23161612.734   123725175.297                    96230688.119    23161618.465  
  23161612.207  
  24014602.086   126197610.742    24014607.637    98335775.6034                 
                
  22453241.492   117992600.328    22453249.418    91942338.5084   22453249.184  
                
  20639954.484   110022601.372                                                  
  20639953.566  
  24943293.609   131077904.212    24943299.199   102138644.2714                 
                
  22721485.633   119402205.791    22721495.402    93040735.9954   22721495.980  
                
  23159332.602   121703162.460    23159342.645    94833669.8854   23159342.551  
                
  20856957.836   109604091.873    20856966.348    85405839.3594   20856966.051  
                
  22225097.109   116793723.145    22225106.691    91008144.8934   22225107.133  
                
  22886578.492   122127174.427                    94987795.360    22886582.840  
  22886576.305  
 21  8 15 16 31 50.0000000  0 15G16R 1G 4R17R 8R12G22G 7R10G 2G 6G26
                                G 9G 3R 2
  22307768.539   117228144.157    22307775.270    91346641.2684                 
                
  19448153.578   103961557.347                    80859007.355    19448158.953  
  19448152.965  
  20596672.859   108236303.337    20596680.582    84340039.4714   20596680.422  
                
  22748987.352   121734440.669                    94682336.888    22748992.395  
  22748985.750  
  20711699.656   110910259.666                    86263545.382    20711702.863  
  20711698.926  
  23153159.875   123680021.432                    96195568.467    23153165.555  
  23153159.320  
  24021143.117   126231984.078    24021148.664    98362560.0034                 
                
  22448218.203   117966202.791    22448226.133    91921769.0064   22448225.902  
                
  20644458.375   110046609.609                                                  
  20644457.473  
  24940896.906   131065309.427    24940902.504   102128830.1744                 
                
  22722558.367   119407843.089    22722568.180    93045128.6794   22722568.750  
                
  23162059.945   121717494.700    23162069.980    94844837.8634   23162069.895  
                
  20854416.492   109590737.044    20854425.023    85395433.0004   20854424.719  
                
  22230864.594   116824031.510    22230874.211    91031761.8064   22230874.641  
                
  22880156.266   122092904.328                    94961140.876    22880160.633  
  22880154.094  
 21  8 15 16 32  0.0000000  0 15G16R 1G 4R17R 8R12G22G 7R10G 2G 6G26
                                G 9G 3R 2
  22305634.586   117216930.214    22305641.328    91337903.1364                 
                
  19446593.828   103953219.573                    80852522.422    19446599.191  
  19446593.219  
  20598190.344   108244277.782    20598198.090    84346253.3164   20598197.926  
                
  22751383.062   121747260.451                    94692307.829    22751388.078  
  22751381.449  
  20715552.273   110930890.211                    86279591.355    20715555.480  
  20715551.547  
  23144709.734   123634882.056                    96160460.103    23144715.328  
  23144709.121  
  24027687.344   126266374.390    24027692.941    98389357.6414                 
                
  22443200.633   117939835.340    22443208.566    91901222.9614   22443208.344  
                
  20648975.727   110070689.605                                                  
  20648974.828  
  24938509.719   131052764.587    24938515.340   102119054.9644                 
                
  22723643.312   119413544.485    22723653.180    93049571.3304   22723653.715  
                
  23164798.914   121731888.004    23164808.941    94856053.4234   23164808.859  
                
  20851880.898   109577412.382    20851889.457    85385050.1534   20851889.137  
                
  22236638.773   116854375.013    22236648.422    91055406.0804   22236648.855  
                
  22873734.070   122058634.224                    94934486.369    22873738.406  
  22873731.922  
 21  8 15 16 32 10.0000000  0 15G16R 1G 4R17R 8R12G22G 7R10G 2G 6G26
                                G 9G 3R 2
  22303513.531   117205784.031    22303520.285    91329217.8024                 
                
  19445042.852   103944928.697                    80846073.964    19445048.195  
  19445042.246  
  20599713.961   108252284.449    20599721.734    84352492.2804   20599721.562  
                
  22753793.500   121760159.186                    94702340.162    22753798.469  
  22753791.871  
  20719412.641   110951562.300                    86295669.628    20719415.844  
  20719411.898  
  23136262.250   123589757.574                    96125363.309    23136267.887  
  23136261.695  
  24034234.820   126300781.746    24034240.480    98416168.5594                 
                
  22438188.820   117913498.112    22438196.750    91880700.4564   22438196.543  
                
  20653506.539   110094841.358                                                  
  20653505.637  
  24936132.047   131040269.798    24936137.668   102109318.7574                 
                
  22724740.477   119419310.088    22724750.375    93054063.9924   22724750.875  
                
  23167549.523   121746342.444    23167559.516    94867316.6214   23167559.465  
                
  20849351.055   109564118.006    20849359.637    85374690.9004   20849359.305  
                
  22242419.656   116884753.707    22242429.332    91079077.7694   22242429.758  
                
  22867311.930   122024364.285                    94907831.972    22867316.234  
  22867309.824  
 21  8 15 16 32 20.0000000  0 15G16R 1G 4R17R 8R12G22G 7R10G 2G 6G26
                                G 9G 3R 2
  22301405.352   117194705.508    22301412.129    91320585.1954                 
                
  19443500.656   103936684.813                    80839662.053    19443505.980  
  19443500.051  
  20601243.703   108260323.270    20601251.520    84358756.2954   20601251.320  
                
  22756218.648   121773136.578                    94712433.714    22756223.566  
  22756217.023  
  20723280.859   110972276.400                    86311780.580    20723284.066  
  20723280.145  
  23127817.539   123544647.901                    96090278.034    23127823.227  
  23127817.055  
  24040785.484   126335205.974    24040791.234    98442992.5924                 
                
  22433182.734   117887191.066    22433190.672    91860201.4684   22433190.461  
                
  20658050.797   110119064.774                                                  
  20658049.898  
  24933763.898   131027825.089    24933769.566   102099621.6014                 
                
  22725849.828   119425139.756    22725859.734    93058606.5864   22725860.223  
                
  23170311.734   121760857.885    23170321.695    94878627.3464   23170321.656  
                
  20846826.969   109550853.867    20846835.578    85364355.2144   20846835.246  
                
  22248207.203   116915167.433    22248216.895    91102776.7634   22248217.320  
                
  22860889.836   121990094.559                    94881177.769    22860894.082  
  22860887.734  
 21  8 15 16 32 30.0000000  0 15G16R 1G 4R17R 8R12G22G 7R10G 2G 6G26
                                G 9G 3R 2
  22299310.086   117183694.841    22299316.895    91312005.4654                 
                
  19441967.234   103928487.791                    80833286.590    19441972.555  
  19441966.617  
  20602779.578   108268394.312    20602787.434    84365045.4174   20602787.230  
                
  22758658.508   121786192.704                    94722588.459    22758663.367  
  22758656.863  
  20727156.898   110993032.303                    86327924.071    20727160.117  
  20727156.199  
  23119375.734   123499553.350                    96055204.525    23119381.410  
  23119375.262  
  24047339.398   126369647.152    24047345.230    98469829.8614                 
                
  22428182.430   117860914.389    22428190.387    91839726.1524   22428190.164  
                
  20662608.508   110143359.869                                                  
  20662607.617  
  24931405.297   131015430.496    24931411.020   102089963.4854                 
                
  22726971.391   119431033.546    22726981.312    93063199.1224   22726981.785  
                
  23173085.555   121775434.383    23173095.520    94889985.6444   23173095.488  
                
  20844308.664   109537620.087    20844317.285    85354043.1804   20844316.953  
                
  22254001.414   116945616.216    22254011.105    91126503.0754   22254011.527  
                
  22854467.734   121955825.096                    94854523.753    22854471.984  
  22854465.617  
 21  8 15 16 32 40.0000000  0 15G16R 1G 4R17R 8R12G22G 7R10G 2G 6G26
                                G 9G 3R 2
  22297227.688   117172751.868    22297234.520    91303478.4784                 
                
  19440442.570   103920337.587                    80826947.543    19440447.883  
  19440441.953  
  20604321.516   108276497.275    20604329.410    84371359.4174   20604329.180  
                
  22761112.977   121799327.126                    94732804.132    22761117.832  
  22761111.336  
  20731040.695   111013829.856                    86344099.930    20731043.902  
  20731039.996  
  23110936.742   123454473.725                    96020142.609    23110942.340  
  23110936.270  
  24053896.539   126404104.965    24053902.395    98496680.0794                 
                
  22423187.867   117834667.884    22423195.812    91819274.3474   22423195.586  
                
  20667179.617   110167726.445                                                  
  20667178.742  
  24929056.188   131003085.803    24929061.918   102080344.2564                 
                
  22728105.078   119436991.105    22728115.020    93067841.3824   22728115.480  
                
  23175870.914   121790071.555    23175880.926    94901391.2294   23175880.875  
                
  20841796.078   109524416.385    20841804.715    85343754.5864   20841804.387  
                
  22259802.227   116976099.698    22259811.922    91150256.4344   22259812.359  
                
  22848045.641   121921555.732                    94827869.833    22848049.922  
  22848043.473  
 21  8 15 16 32 50.0000000  0 15G16R 1G 4R17R 8R12G22G 7R10G 2G 6G26
                                G 9G 3R 2
  22295158.211   117161876.780    22295165.082    91295004.3844                 
                
  19438926.688   103912234.323                    80820645.000    19438931.977  
  19438926.062  
  20605869.570   108284632.345    20605877.500    84377698.4274   20605877.254  
                
  22763582.102   121812539.947                    94743080.746    22763586.953  
  22763580.430  
  20734932.297   111034669.218                    86360308.327    20734935.504  
  20734931.594  
  23102500.547   123409409.290                    95985092.528    23102506.148  
  23102500.086  
  24060456.906   126438579.334    24060462.715    98523543.2094                 
                
  22418199.070   117808451.632    22418206.973    91798846.1114   22418206.766  
                
  20671764.055   110192164.022                                                  
  20671763.160  
  24926716.641   130990791.343    24926722.371   102070764.1554                 
                
  22729250.938   119443012.581    22729260.887    93072533.4314   22729261.348  
                
  23178667.852   121804769.548    23178677.918    94912844.2004   23178677.824  
                
  20839289.258   109511242.956    20839297.906    85333489.5814   20839297.586  
                
  22265609.672   117006618.019    22265619.383    91174036.9304   22265619.824  
                
  22841623.617   121887286.732                    94801216.202    22841627.930  
  22841621.457  
 21  8 15 16 33  0.0000000  0 15G16R 1G 4R17R 8R12G22G 7R10G 2G 6G26
                                G 9G 3R 2
  22293101.672   117151069.695    22293108.609    91286583.2904                 
                
  19437419.602   103904178.113                    80814379.068    19437424.898  
  19437418.965  
  20607423.742   108292799.555    20607431.703    84384062.4874   20607431.445  
                
  22766065.898   121825831.243                    94753418.422    22766070.777  
  22766064.180  
  20738831.680   111055550.264                    86376549.134    20738834.918  
  20738830.992  
  23094067.273   123364360.305                    95950054.453    23094072.832  
  23094066.801  
  24067020.453   126473070.413    24067026.223    98550419.3514                 
                
  22413216.047   117782265.719    22413223.887    91778441.5134   22413223.695  
                
  20676361.836   110216672.783                                                  
  20676360.953  
  24924386.680   130978547.217    24924392.395   102061223.2744                 
                
  22730408.969   119449098.007    22730418.902    93077275.3234   22730419.348  
                
  23181476.359   121819528.351    23181486.461    94924344.5744   23181486.348  
                
  20836788.211   109498099.889    20836796.867    85323248.2334   20836796.547  
                
  22271423.742   117037171.157    22271433.480    91197844.5584   22271433.922  
                
  22835201.703   121853018.312                    94774563.019    22835206.043  
  22835199.574  
 21  8 15 16 33 10.0000000  0 15G16R 1G 4R17R 8R12G22G 7R10G 2G 6G26
                                G 9G 3R 2
  22291058.078   117140330.577    22291065.059    91278215.1474                 
                
  19435921.352   103896169.144                    80808149.871    19435926.656  
  19435920.711  
  20608984.000   108300998.794    20608991.988    84390451.5024   20608991.719  
                
  22768564.297   121839200.571                    94763816.779    22768569.176  
  22768562.570  
  20742738.859   111076473.007                    86392822.369    20742742.094  
  20742738.156  
  23085636.875   123319326.728                    95915028.361    23085642.438  
  23085636.391  
  24073587.102   126507577.930    24073592.875    98577308.3204                 
                
  22408238.797   117756110.075    22408246.586    91758060.4984   22408246.398  
                
  20680972.914   110241252.419                                                  
  20680972.043  
  24922066.219   130966353.156    24922071.922   102051721.4304                 
                
  22731579.133   119455247.236    22731589.016    93082066.9194   22731589.461  
                
  23184296.414   121834347.830    23184306.527    94935892.2294   23184306.395  
                
  20834292.922   109484987.104    20834301.578    85313030.4824   20834301.266  
                
  22277244.398   117067758.915    22277254.176    91221679.1664   22277254.605  
                
  22828779.844   121818750.179                    94747910.001    22828784.137  
  22828777.746  
 21  8 15 16 33 20.0000000  0 15G16R 1G 4R17R 8R12G22G 7R10G 2G 6G26
                                G 9G 3R 2
  22289027.453   117129659.636    22289034.461    91269900.1344                 
                
  19434431.938   103888207.363                    80801957.377    19434437.230  
  19434431.281  
  20610550.398   108309230.237    20610558.414    84396865.6134   20610558.141  
                
  22771077.320   121852648.181                    94774276.016    22771082.195  
  22771075.605  
  20746653.852   111097437.655                    86409128.201    20746657.098  
  20746653.133  
  23077209.375   123274308.815                    95880014.456    23077214.977  
  23077208.934  
  24080156.859   126542101.891    24080162.660    98604210.0814                 
                
  22403267.352   117729984.943    22403275.094    91737703.2664   22403274.918  
                
  20685597.320   110265903.049                                                  
  20685596.438  
  24919755.352   130954209.434    24919761.008   102042258.7774                 
                
  22732761.461   119461460.370    22732771.293    93086908.3234   22732771.770  
                
  23187128.047   121849228.097    23187138.141    94947487.2384   23187138.020  
                
  20831803.438   109471904.794    20831812.094    85302836.4794   20831811.777  
                
  22283071.688   117098381.451    22283081.477    91245540.8754   22283081.898  
                
  22822358.078   121784482.406                    94721257.338    22822362.375  
  22822355.965  
 21  8 15 16 33 30.0000000  0 15G16R 1G 4R17R 8R12G22G 7R10G 2G 6G26
                                G 9G 3R 2
  22287009.820   117119056.975    22287016.855    91261638.3314                 
                
  19432951.383   103880293.002                    80795801.762    19432956.676  
  19432950.703  
  20612122.906   108317493.826    20612130.941    84403304.7644   20612130.648  
                
  22773604.914   121866173.809                    94784795.916    22773609.812  
  22773603.160  
  20750576.672   111118444.205                    86425466.636    20750579.965  
  20750575.938  
  23068784.867   123229306.714                    95845012.854    23068790.461  
  23068784.414  
  24086729.703   126576642.153    24086735.520    98631124.5744                 
                
  22398301.695   117703890.253    22398309.383    91717369.7454   22398309.211  
                
  20690234.992   110290624.453                                                  
  20690234.113  
  24917454.062   130942116.041    24917459.688   102032835.3674                 
                
  22733955.930   119467737.340    22733965.730    93091799.4614   22733966.223  
                
  23189971.219   121864169.061    23189981.297    94959129.5584   23189981.199  
                
  20829319.750   109458852.931    20829328.395    85292666.1994   20829328.078  
                
  22288905.562   117129038.629    22288915.348    91269429.5834   22288915.762  
                
  22815936.453   121750215.472                    94694605.278    22815940.758  
  22815934.312  
 21  8 15 16 33 40.0000000  0 15G16R 1G 4R17R 8R12G22G 7R10G 2G 6G26
                                G 9G 3R 2
  22285005.172   117108522.601    22285012.223    91253429.7274                 
                
  19431479.727   103872426.171                    80789683.104    19431485.004  
  19431479.035  
  20613701.523   108325789.528    20613709.578    84409768.9504   20613709.266  
                
  22776147.070   121879777.454                    94795376.517    22776152.004  
  22776145.285  
  20754507.281   111139492.474                    86441837.477    20754510.605  
  20754506.512  
  23060363.320   123184320.618                    95810023.698    23060368.949  
  23060362.902  
  24093305.648   126611198.796    24093311.461    98658051.8264                 
                
  22393341.820   117677825.988    22393349.445    91697059.9384   22393349.297  
                
  20694885.922   110315416.494                                                  
  20694885.023  
  24915162.352   130930073.001    24915167.957   102023451.1774                 
                
  22735162.547   119474078.098    22735172.320    93096740.2954   22735172.836  
                
  23192825.930   121879170.648    23192836.004    94970819.1174   23192835.922  
                
  20826841.844   109445831.500    20826850.469    85282519.6384   20826850.176  
                
  22294746.016   117159730.391    22294755.809    91293345.2274   22294756.234  
                
  22809514.969   121715949.250                    94667953.812    22809519.289  
  22809512.809  
 21  8 15 16 33 50.0000000  0 15G16R 1G 4R17R 8R12G22G 7R10G 2G 6G26
                                G 9G 3R 2
  22283013.523   117098056.488    22283020.566    91245274.3304                 
                
  19430016.898   103864606.547                    80783601.185    19430022.191  
  19430016.199  
  20615286.234   108334117.254    20615294.301    84416258.0794   20615293.980  
                
  22778703.773   121893458.960                    94806017.684    22778708.727  
  22778701.965  
  20758445.719   111160582.653                    86458240.950    20758449.059  
  20758444.930  
  23051944.789   123139350.457                    95775046.940    23051950.430  
  23051944.324  
  24099884.633   126645771.634    24099890.477    98684991.6734                 
                
  22388387.742   117651792.225    22388395.312    91676773.9044   22388395.199  
                
  20699550.047   110340278.916                                                  
  20699549.129  
  24912880.195   130918080.190    24912885.793   102014106.1364                 
                
  22736381.258   119480482.484    22736391.023    93101730.7214   22736391.547  
                
  23195692.141   121894232.708    23195702.234    94982555.7784   23195702.156  
                
  20824369.727   109432840.463    20824378.316    85272396.7524   20824378.047  
                
  22300593.016   117190456.549    22300602.832    91317287.6684   22300603.258  
                
  22803093.578   121681683.387                    94641302.588    22803097.844  
  22803091.422  
 21  8 15 16 34  0.0000000  0 15G16R 1G 4R17R 8R12G22G 7R10G 2G 6G26
                                G 9G 3R 2
  22281034.906   117087658.869    22281041.930    91237172.3014                 
                
  19428562.992   103856834.605                    80777556.339    19428568.289  
  19428562.293  
  20616877.086   108342477.226    20616885.148    84422772.3444   20616884.820  
                
  22781275.039   121907218.379                    94816719.423    22781279.996  
  22781273.250  
  20762391.945   111181714.602                    86474676.897    20762395.305  
  20762391.152  
  23043529.219   123094396.585                    95740082.852    23043534.961  
  23043528.750  
  24106466.680   126680360.872    24106472.582    98711944.3114                 
                
  22383439.523   117625789.206    22383447.066    91656511.8264   22383446.961  
                
  20704227.445   110365212.089                                                  
  20704226.516  
  24910607.680   130906138.032    24910613.297   102004800.5594                 
                
  22737612.117   119486950.708    22737621.887    93106770.8884   22737622.422  
                
  23198569.906   121909355.442    23198580.035    94994339.7234   23198579.941  
                
  20821903.445   109419880.081    20821912.000    85262297.7554   20821911.766  
                
  22306446.602   117221217.274    22306456.441    91341257.0564   22306456.855  
                
  22796672.328   121647418.327                    94614651.995    22796676.551  
  22796670.164  
 21  8 15 16 34 10.0000000  0 15G16R 1G 4R17R 8R12G22G 7R10G 2G 6G26
                                G 9G 3R 2
  22279069.242   117077329.303    22279076.258    91229123.2904                 
                
  19427118.016   103849110.368                    80771548.595    19427123.305  
  19427117.316  
  20618474.039   108350869.292    20618482.082    84429311.6104   20618481.758  
                
  22783860.859   121921055.530                    94827481.656    22783865.773  
  22783859.043  
  20766345.984   111202888.233                    86491145.279    20766349.336  
  20766345.219  
  23035116.766   123049459.076                    95705131.476    23035122.535  
  23035116.270  
  24113051.820   126714966.316    24113057.734    98738909.5684                 
                
  22378497.125   117599816.789    22378504.660    91636273.5994   22378504.559  
                
  20708917.984   110390215.266                                                  
  20708917.016  
  24908344.742   130894246.274    24908350.406   101995534.2564                 
                
  22738855.102   119493482.567    22738864.867    93111860.6464   22738865.410  
                
  23201459.172   121924538.609    23201469.359    95006170.7624   23201469.254  
                
  20819442.969   109406950.207    20819451.484    85252222.5294   20819451.281  
                
  22312306.734   117252012.362    22312316.625    91365253.2274   22312317.016  
                
  22790251.148   121613154.019                    94588002.031    22790255.434  
  22790249.004  
 21  8 15 16 34 20.0000000  0 15G16R 1G 4R17R 8R12G22G 7R10G 2G 6G26
                                G 9G 3R 2
  22277116.617   117067068.259    22277123.625    91221127.6774                 
                
  19425681.898   103841433.506                    80765577.702    19425687.188  
  19425681.215  
  20620077.086   108359293.322    20620085.090    84435875.7924   20620084.785  
                
  22786461.148   121934970.203                    94838304.182    22786466.035  
  22786459.316  
  20770307.805   111224103.591                    86507646.084    20770311.145  
  20770307.035  
  23026707.234   123004537.857                    95670192.785    23026713.152  
  23026706.812  
  24119640.023   126749587.749    24119645.953    98765887.2944                 
                
  22373560.547   117573874.963    22373568.078    91616059.2044   22373567.980  
                
  20713621.633   110415288.366                                                  
  20713620.645  
  24906091.398   130882404.907    24906097.129   101986307.2194                 
                
  22740110.164   119500077.933    22740119.906    93116999.8724   22740120.480  
                
  23204359.906   121939782.086    23204370.148    95018048.7854   23204370.031  
                
  20816988.281   109394050.757    20816996.766    85242171.0154   20816996.578  
                
  22318173.367   117282841.636    22318183.293    91389276.0274   22318183.660  
                
  22783830.227   121578890.849                    94561352.898    22783834.488  
  22783828.105  
 21  8 15 16 34 30.0000000  0 15G16R 1G 4R17R 8R12G22G 7R10G 2G 6G26
                                G 9G 3R 2
  22275177.008   117056875.630    22275184.020    91213185.3864                 
                
  19424254.695   103833804.306                    80759643.883    19424260.004  
  19424254.008  
  20621686.203   108367749.312    20621694.172    84442464.8724   20621693.887  
                
  22789075.906   121948962.188                    94849186.840    22789080.797  
  22789074.098  
  20774277.438   111245360.728                    86524179.414    20774280.762  
  20774276.684  
  23018300.969   122959633.203                    95635266.977    23018306.887  
  23018300.449  
  24126231.320   126784225.063    24126237.227    98792877.4164                 
                
  22368629.797   117547963.793    22368637.328    91595868.6984   22368637.258  
                
  20718338.406   110440431.488                                                  
  20718337.414  
  24903847.648   130870613.944    24903853.434   101977119.4334                 
                
  22741377.297   119506736.758    22741387.035    93122188.5594   22741387.637  
                
  23207272.094   121955085.777    23207282.375    95029973.7284   23207282.238  
                
  20814539.391   109381181.776    20814547.859    85232143.2414   20814547.688  
                
  22324046.500   117313705.082    22324056.418    91413325.4464   22324056.793  
                
  22777409.477   121544628.437                    94534704.372    22777413.727  
  22777407.371  
 21  8 15 16 34 40.0000000  0 15G16R 1G 4R17R 8R12G22G 7R10G 2G 6G26
                                G 9G 3R 2
  22273250.492   117046751.810    22273257.496    91205296.7004                 
                
  19422836.469   103826223.096                    80753747.386    19422841.789  
  19422835.781  
  20623301.445   108376237.479    20623309.375    84449079.0264   20623309.098  
                
  22791705.133   121963031.697                    94860129.758    22791710.043  
  22791703.328  
  20778254.852   111266659.622                    86540745.228    20778258.191  
  20778254.105  
  23009897.750   122914745.396                    95600354.276    23009903.754  
  23009897.258  
  24132825.695   126818878.479    24132831.566    98819880.0634                 
                
  22363704.922   117522083.466    22363712.426    91575702.2244   22363712.379  
                
  20723068.312   110465644.586                                                  
  20723067.301  
  24901613.539   130858873.646    24901619.383   101967971.1454                 
                
  22742656.531   119513459.179    22742666.297    93127426.8024   22742666.906  
                
  23210195.781   121970449.868    23210206.066    95041945.7454   23210205.922  
                
  20812096.336   109368343.464    20812104.793    85222139.3664   20812104.621  
                
  22329926.141   117344602.789    22329936.031    91437401.5724   22329936.438  
                
  22770988.898   121510366.958                    94508056.559    22770993.090  
  22770986.797  
 21  8 15 16 34 50.0000000  0 15G16R 1G 4R17R 8R12G22G 7R10G 2G 6G26
                                G 9G 3R 2
  22271337.078   117036696.815    22271344.086    91197461.6434                 
                
  19421427.164   103818689.566                    80747887.977    19421432.465  
  19421426.480  
  20624922.773   108384757.601    20624930.664    84455718.0864   20624930.402  
                
  22794348.812   121977178.343                    94871132.714    22794353.711  
  22794347.000  
  20782240.031   111288000.059                    86557343.313    20782243.391  
  20782239.293  
  23001497.758   122869874.257                    95565454.518    23001503.738  
  23001497.246  
  24139423.172   126853547.720    24139428.957    98846895.0444                 
                
  22358785.898   117496233.820    22358793.367    91555559.6514   22358793.344  
                
  20727811.250   110490927.075                                                  
  20727810.227  
  24899389.039   130847183.938    24899394.945   101958862.2834                 
                
  22743947.828   119520244.955    22743957.645    93132714.4154   22743958.246  
                
  23213130.914   121985874.075    23213141.164    95053964.6044   23213141.031  
                
  20809659.086   109355535.645    20809667.535    85212159.2484   20809667.379  
                
  22335812.258   117375534.477    22335822.148    91461504.1744   22335822.559  
                
  22764568.477   121476106.490                    94481409.558    22764572.672  
  22764566.383  
 21  8 15 16 35  0.0000000  0 15G16R 1G 4R17R 8R12G22G 7R10G 2G 6G26
                                G 9G 3R 2
  22269436.734   117026710.497    22269443.754    91189680.1054                 
                
  19420026.766   103811203.645                    80742065.597    19420032.082  
  19420026.066  
  20626550.172   108393309.592    20626558.016    84462381.9764   20626557.770  
                
  22797006.844   121991401.993                    94882195.540    22797011.727  
  22797005.059  
  20786233.000   111309382.171                    86573973.858    20786236.359  
  20786232.285  
  22993100.969   122825019.901                    95530567.819    22993106.883  
  22993100.410  
  24146023.508   126888232.603    24146029.312    98873922.2144                 
                
  22353872.703   117470414.818    22353880.168    91535440.9614   22353880.145  
                
  20732567.203   110516278.977                                                  
  20732566.176  
  24897174.156   130835544.653    24897180.133   101949792.7054                 
                
  22745251.172   119527093.984    22745261.039    93138051.3044   22745261.629  
                
  23216077.453   122001358.292    23216087.680    95066030.2154   23216087.527  
                
  20807227.633   109342758.291    20807236.078    85202202.8764   20807235.918  
                
  22341704.820   117406500.042    22341714.730    91485633.1704   22341715.113  
                
  22758148.289   121441847.035                    94454763.315    22758152.465  
  22758146.176  
 21  8 15 16 35 10.0000000  0 15G16R 1G 4R17R 8R12G22G 7R10G 2G 6G26
                                G 9G 3R 2
  22267549.500   117016793.070    22267556.500    91181952.2494                 
                
  19418635.367   103803765.847                    80736280.638    19418640.668  
  19418634.680  
  20628183.664   108401893.661    20628191.465    84469070.8614   20628191.230  
                
  22799679.312   122005702.861                    94893318.412    22799684.184  
  22799677.566  
  20790233.750   111330806.017                    86590636.834    20790237.109  
  20790233.047  
  22984707.367   122780182.781                    95495694.531    22984713.230  
  22984706.828  
  24152626.844   126922933.272    24152632.645    98900961.6724                 
                
  22348965.398   117444626.756    22348972.867    91515346.3764   22348972.840  
                
  20737336.195   110541700.439                                                  
  20737335.148  
  24894968.906   130823956.051    24894974.914   101940762.6294                 
                
  22746566.578   119534006.425    22746576.473    93143437.6074   22746577.047  
                
  23219035.438   122016902.660    23219045.652    95078142.7044   23219045.500  
                
  20804802.016   109330011.630    20804810.449    85192270.4164   20804810.297  
                
  22347603.859   117437499.601    22347613.758    91509788.6634   22347614.117  
                
  22751728.289   121407588.608                    94428117.873    22751732.438  
  22751726.172  
 21  8 15 16 35 20.0000000  0 15G16R 1G 4R17R 8R12G22G 7R10G 2G 6G26
                                G 9G 3R 2
  22265675.352   117006944.418    22265682.289    91174277.9884                 
                
  19417252.945   103796376.029                    80730532.992    19417258.234  
  19417252.273  
  20629823.234   108410509.671    20629830.980    84475784.6404   20629830.777  
                
  22802366.172   122020080.617                    94904501.147    22802371.020  
  22802364.441  
  20794242.305   111352271.568                    86607332.256    20794245.641  
  20794241.621  
  22976317.008   122735362.767                    95460834.541    22976322.793  
  22976316.461  
  24159233.227   126957649.482    24159238.930    98928013.2644                 
                
  22344063.953   117418869.470    22344071.414    91495275.7774   22344071.383  
                
  20742118.188   110567191.168                                                  
  20742117.145  
  24892773.289   130812418.074    24892779.316   101931772.0224                 
                
  22747894.023   119540982.089    22747903.918    93148873.1884   22747904.508  
                
  23222004.828   122032507.001    23222015.047    95090301.9284   23222014.906  
                
  20802382.219   109317295.527    20802390.652    85182361.7734   20802390.500  
                
  22353509.336   117468532.966    22353519.195    91533970.5094   22353519.551  
                
  22745308.422   121373331.208                    94401473.262    22745312.598  
  22745306.379  
 21  8 15 16 35 30.0000000  0 15G16R 1G 4R17R 8R12G22G 7R10G 2G 6G26
                                G 9G 3R 2
  22263814.297   116997164.576    22263821.137    91166657.3274                 
                
  19415879.469   103789033.984                    80724822.519    19415884.766  
  19415878.805  
  20631468.875   108419157.553    20631476.566    84482523.2474   20631476.398  
                
  22805067.352   122034535.147                    94915743.527    22805072.219  
  22805065.586  
  20798258.625   111373778.726                    86624060.035    20798261.953  
  20798257.969  
  22967929.859   122690560.019                    95425987.974    22967935.574  
  22967929.293  
  24165842.531   126992381.170    24165848.164    98955076.8964                 
                
  22339168.367   117393143.009    22339175.805    91475229.1904   22339175.789  
                
  20746913.133   110592750.940                                                  
  20746912.086  
  24890587.281   130800930.667    24890593.305   101922820.8004                 
                
  22749233.477   119548020.903    22749243.387    93154357.9674   22749243.965  
                
  23224985.609   122048171.210    23224995.848    95102507.7934   23224995.711  
                
  20799968.227   109304609.966    20799976.660    85172476.9234   20799976.508  
                
  22359421.211   117499600.038    22359431.035    91558178.6154   22359431.398  
                
  22738888.773   121339074.825                    94374829.410    22738892.945  
  22738886.750  
 21  8 15 16 35 40.0000000  0 15G16R 1G 4R17R 8R12G22G 7R10G 2G 6G26
                                G 9G 3R 2
  22261966.414   116987453.988    22261973.203    91159090.6464                 
                
  19414515.023   103781740.286                    80719149.633    19414520.316  
  19414514.359  
  20633120.633   108427837.581    20633128.270    84489286.9044   20633128.121  
                
  22807782.906   122049066.571                    94927045.741    22807787.781  
  22807781.152  
  20802282.742   111395327.636                    86640820.293    20802286.051  
  20802282.090  
  22959546.008   122645774.924                    95391155.139    22959551.672  
  22959545.434  
  24172454.766   127027128.538    24172460.383    98982152.7514                 
                
  22334278.695   117367447.666    22334286.098    91455206.8584   22334286.113  
                
  20751721.039   110618379.836                                                  
  20751719.984  
  24888410.961   130789494.156    24888416.980   101913909.2454                 
                
  22750584.992   119555123.064    22750594.941    93159892.1084   22750595.488  
                
  23227977.812   122063895.484    23227988.086    95114760.4764   23227987.934  
                
  20797560.117   109291955.264    20797568.566    85162616.1274   20797568.414  
                
  22365339.547   117530701.053    22365349.379    91582413.1544   22365349.750  
                
  22732469.328   121304819.722                    94348186.598    22732473.551  
  22732467.285  
 21  8 15 16 35 50.0000000  0 15G16R 1G 4R17R 8R12G22G 7R10G 2G 6G26
                                G 9G 3R 2
  22260131.680   116977812.442    22260138.430    91151577.7744                 
                
  19413159.648   103774494.966                    80713514.391    19413164.965  
  19413158.973  
  20634778.492   108436549.669    20634786.066    84496075.5484   20634785.961  
                
  22810512.781   122063674.732                    94938407.618    22810517.723  
  22810511.031  
  20806314.680   111416918.394                    86657613.102    20806317.969  
  20806314.039  
  22951165.445   122601007.395                    95356335.977    22951171.078  
  22951164.852  
  24179069.922   127061891.379    24179075.566    99009240.6714                 
                
  22329394.930   117341783.340    22329402.305    91435208.6904   22329402.340  
                
  20756541.859   110644077.539                                                  
  20756540.789  
  24886244.336   130778108.476    24886250.328   101905037.2994                 
                
  22751948.539   119562288.487    22751958.543    93165475.5334   22751959.062  
                
  23230981.445   122079679.704    23230991.730    95127059.8644   23230991.559  
                
  20795157.859   109279331.343    20795166.332    85152779.3074   20795166.164  
                
  22371264.312   117561835.804    22371274.176    91606673.9824   22371274.543  
                
  22726050.203   121270566.108                    94321544.935    22726054.426  
  22726048.145  
 21  8 15 16 36  0.0000000  0 15G16R 1G 4R17R 8R12G22G 7R10G 2G 6G26
                                G 9G 3R 2
  22258310.070   116968239.844    22258316.762    91144118.6154                 
                
  19411813.258   103767297.744                    80707916.551    19411818.574  
  19411812.605  
  20636442.422   108445293.647    20636449.941    84502889.0384   20636449.871  
                
  22813256.945   122078359.344                    94949828.972    22813261.934  
  22813255.152  
  20810354.328   111438550.461                    86674438.035    20810357.582  
  20810353.707  
  22942788.094   122556257.552                    95321530.575    22942793.812  
  22942787.578  
  24185687.945   127096669.484    24185693.664    99036340.4844                 
                
  22324517.055   117316149.971    22324524.426    91415234.6494   22324524.453  
                
  20761375.539   110669843.803                                                  
  20761374.465  
  24884087.336   130766773.506    24884093.324   101896204.8734                 
                
  22753324.070   119569516.926    22753334.117    93171108.0744   22753334.621  
                
  23233996.438   122095523.643    23234006.727    95139405.7894   23234006.531  
                
  20792761.438   109266738.058    20792769.938    85142966.3674   20792769.758  
                
  22377195.461   117593004.100    22377205.375    91630960.9474   22377205.707  
                
  22719631.336   121236313.763                    94294904.196    22719635.480  
  22719629.285  
 21  8 15 16 36 10.0000000  0 15G16R 1G 4R17R 8R12G22G 7R10G 2G 6G26
                                G 9G 3R 2
  22256501.633   116958736.542    22256508.270    91136713.4384                 
