     2.11           OBSERVATION DATA    M (MIXED)           RINEX VERSION / TYPE
EFT-CORS.RU                             20210817 150533 UTC PGM / RUN BY / DATE 
MDNG                                                        MARKER NAME         
                                                            MARKER NUMBER       
MDNG                EFT-CORS.RU                             OBSERVER / AGENCY   
0                   TRIMBLE BD970       2.0                 REC # / TYPE / VERS 
0                   UNKNOWN EXT NONE                        ANT # / TYPE        
  3463911.2830  3030468.2400  4402179.3760                  APPROX POSITION XYZ 
        0.0000        0.0000        0.0000                  ANTENNA: DELTA H/E/N
     1     1                                                WAVELENGTH FACT L1/2
     6    C1    L1    P2    L2    C2    P1                  # / TYPES OF OBSERV 
    10.000                                                  INTERVAL            
  2021     8    14     1    30    0.0000000     GPS         TIME OF FIRST OBS   
  2021     8    14     2    30    0.0000000     GPS         TIME OF LAST OBS    
     0                                                      RCV CLOCK OFFS APPL 
                                                            END OF HEADER       
 21  8 14  1 30  0.0000000  0 14G 6R23G17R13R12G32G12R14G19G 2R24G24
                                R22G25
  21469176.297   112821286.357    21469185.035    87912727.9234   21469185.488  
                
  19219045.078   102808951.330                                                  
  19219043.285  
  24689563.477   129744536.412    24689570.238   101099672.8314   24689570.121  
                
  19352087.180   103339079.779                    80374863.545    19352089.465  
  19352085.617  
  22135440.602   118243558.685                    91967212.508    22135444.051  
  22135440.105  
  24377193.445   128103008.882    24377202.137    99820570.8474   24377202.258  
                
  20766574.781   109129100.137    20766580.379    85035698.6124   20766580.637  
                
  20997915.445   111930710.330                    87057217.437    20997918.984  
  20997915.180  
  22102050.719   116147076.542    22102054.973    90504239.8724                 
                
  21931748.320   115252114.433    21931752.668    89806865.0284                 
                
  20821382.008   111341294.167                    86598787.505    20821385.863  
  20821381.094  
  20741663.758   108998192.641    20741672.297    84933697.3734   20741672.488  
                
  22420783.312   119683674.625                    93087310.080    22420784.949  
  22420781.359  
  22882609.000   120248918.190    22882618.047    93700498.3774   22882618.438  
                
 21  8 14  1 30 10.0000000  0 14G 6R23G17R13R12G32G12R14G19G 2R24G24
                                R22G25
  21468380.453   112817104.161    21468389.207    87909469.0804   21468389.656  
                
  19218282.961   102804874.477                                                  
  19218281.180  
  24695605.258   129776286.194    24695612.000   101124412.9074   24695611.867  
                
  19352956.898   103343724.000                    80378475.717    19352959.168  
  19352955.328  
  22141553.961   118276215.319                    91992612.090    22141557.434  
  22141553.469  
  24376147.766   128097513.812    24376156.473    99816288.9664   24376156.562  
                
  20763588.648   109113407.896    20763594.246    85023470.8934   20763594.500  
                
  20992170.977   111900089.074                    87033400.913    20992174.516  
  20992170.746  
  22107595.953   116176216.898    22107600.203    90526946.6374                 
                
  21927931.234   115232055.540    21927935.605    89791234.7274                 
                
  20814914.961   111306712.020                    86571890.278    20814918.785  
  20814914.051  
  20744725.867   109014284.144    20744734.414    84946236.2044   20744734.605  
                
  22428234.656   119723450.718                    93118247.022    22428236.293  
  22428232.699  
  22877041.805   120219662.415    22877050.855    93677701.6854   22877051.270  
                
 21  8 14  1 30 20.0000000  0 14G 6R23G17R13R12G32G12R14G19G 2R24G24
                                R22G25
  21467597.680   112812990.682    21467606.453    87906263.7664   21467606.898  
                
  19217537.375   102800886.096                                                  
  19217535.605  
  24701647.117   129808036.368    24701653.832   101149153.2864   24701653.707  
                
  19353838.273   103348430.526                    80382136.351    19353840.535  
  19353836.676  
  22147673.719   118308905.712                    92018037.944    22147677.129  
  22147673.207  
  24375113.500   128092078.708    24375122.195    99812053.8134   24375122.293  
                
  20760608.531   109097747.270    20760614.133    85011267.8074   20760614.395  
                
  20986431.352   111869493.631                    87009604.453    20986434.863  
  20986431.137  
  22113146.445   116205384.909    22113150.723    90549674.9494                 
                
  21924123.445   115212045.543    21924127.855    89775642.5234                 
                
  20808458.070   111272184.112                    86545035.226    20808461.863  
  20808457.168  
  20747798.898   109030432.993    20747807.449    84958819.7214   20747807.633  
                
  22435691.711   119763257.116                    93149207.553    22435693.441  
  22435689.766  
  22871477.125   120190419.833    22871486.180    93654915.2694   22871486.609  
                
 21  8 14  1 30 30.0000000  0 14G 6R23G17R13R12G32G12R14G19G 2R24G24
                                R22G25
  21466827.984   112808945.924    21466836.797    87903112.0114   21466837.219  
                
  19216808.320   102796986.146                                                  
  19216806.570  
  24707689.047   129839786.884    24707695.750   101173893.9314   24707695.613  
                
  19354731.320   103353199.292                    80385845.381    19354733.602  
  19354729.711  
  22153799.797   118341629.984                    92043490.182    22153803.184  
  22153799.285  
  24374090.633   128086703.577    24374099.312    99807865.3834   24374099.438  
                
  20757634.430   109082118.250    20757640.031    84999089.3574   20757640.285  
                
  20980696.555   111838923.939                    86985828.021    20980700.070  
  20980696.340  
  22118702.188   116234580.457    22118706.492    90572424.7284                 
                
  21920324.992   115192084.587    21920329.422    89760088.5414                 
                
  20802011.312   111237710.428                    86518222.364    20802015.105  
  20802010.418  
  20750882.828   109046639.153    20750891.391    84971447.8954   20750891.582  
                
  22443154.484   119803093.785                    93180191.612    22443156.223  
  22443152.520  
  22865914.945   120161190.520    22865923.996    93632139.1944   22865924.453  
                
 21  8 14  1 30 40.0000000  0 14G 6R23G17R13R12G32G12R14G19G 2R24G24
                                R22G25
  21466071.305   112804969.582    21466080.145    87900013.5614   21466080.551  
                
  19216095.719   102793174.235                                                  
  19216093.969  
  24713730.969   129871537.353    24713737.664   101198634.5294   24713737.539  
                
  19355635.914   103358029.809                    80389602.455    19355638.223  
  19355634.297  
  22159932.102   118374387.831                    92068968.511    22159935.504  
  22159931.586  
  24373079.133   128081388.115    24373087.762    99803723.4574   24373087.938  
                
  20754666.281   109066520.569    20754671.871    84986935.3234   20754672.125  
                
  20974966.555   111808379.830                    86962071.499    20974970.094  
  20974966.336  
  22124263.086   116263803.128    22124267.406    90595195.6344                 
                
  21916535.820   115172172.432    21916540.234    89744572.5754                 
                
  20795574.695   111203290.978                    86491451.689    20795578.480  
  20795573.820  
  20753977.586   109062902.225    20753986.164    84984120.4224   20753986.352  
                
  22450622.773   119842960.146                    93211198.766    22450624.566  
  22450620.832  
  22860355.242   120131974.165    22860364.270    93609373.2014   22860364.746  
                
 21  8 14  1 30 50.0000000  0 14G 6R23G17R13R12G32G12R14G19G 2R24G24
                                R22G25
  21465327.805   112801062.457    21465336.668    87896969.0514   21465337.070  
                
  19215399.734   102789451.205                                                  
  19215397.969  
  24719773.055   129903288.523    24719779.707   101223375.6864   24719779.598  
                
  19356552.305   103362923.241                    80393408.454    19356554.609  
  19356550.680  
  22166070.789   118407179.735                    92094473.312    22166074.223  
  22166070.305  
  24372079.133   128076133.087    24372087.746    99799628.6424   24372087.941  
                
  20751704.266   109050955.045    20751709.844    84974806.3444   20751710.109  
                
  20969241.555   111777862.359                    86938335.687    20969245.086  
  20969241.348  
  22129829.297   116293053.677    22129833.641    90617988.2684                 
                
  21912756.109   115152309.934    21912760.516    89729095.3084                 
                
  20789148.367   111168926.432                    86464723.701    20789152.129  
  20789147.500  
  20757083.320   109079222.965    20757091.918    84996837.8834   20757092.109  
                
  22458096.805   119882856.764                    93242229.462    22458098.555  
  22458094.848  
  22854798.180   120102771.594    22854807.215    93586617.9584   22854807.695  
                
 21  8 14  1 31  0.0000000  0 14G 6R23G17R13R12G32G12R14G19G 2R24G24
                                R22G25
  21464597.391   112797224.151    21464606.270    87893978.1634   21464606.668  
                
  19214720.258   102785816.517                                                  
  19214718.480  
  24725815.195   129935039.968    24725821.770   101248117.0594   24725821.680  
                
  19357480.414   103367879.225                    80397263.109    19357482.707  
  19357478.770  
  22172215.727   118440005.451                    92120004.408    22172219.277  
  22172215.301  
  24371090.570   128070938.122    24371099.152    99795580.6054   24371099.344  
                
  20748748.266   109035421.142    20748753.832    84962702.0044   20748754.109  
                
  20963521.445   111747371.019                    86914620.198    20963525.000  
  20963521.227  
  22135400.703   116322331.579    22135405.031    90640802.2124                 
                
  21908985.773   115132496.768    21908990.195    89713656.4734                 
                
  20782732.289   111134616.764                    86438038.409    20782736.082  
  20782731.422  
  20760199.945   109095600.911    20760208.570    85009599.9104   20760208.746  
                
  22465576.344   119922783.385                    93273283.494    22465578.152  
  22465574.441  
  22849243.656   120073582.448    22849252.742    93563873.1824   22849253.199  
                
 21  8 14  1 31 10.0000000  0 14G 6R23G17R13R12G32G12R14G19G 2R24G24
                                R22G25
  21463880.117   112793454.857    21463889.012    87891041.0514   21463889.410  
                
  19214057.383   102782270.526                                                  
  19214055.617  
  24731857.414   129966791.729    24731863.875   101272858.6744   24731863.840  
                
  19358420.125   103372897.246                    80401166.018    19358422.402  
  19358418.461  
  22178367.008   118472864.997                    92145561.831    22178370.656  
  22178366.656  
  24370113.469   128065803.346    24370122.016    99791579.4934   24370122.230  
                
  20745798.359   109019919.233    20745803.922    84950622.5964   20745804.195  
                
  20957806.312   111716906.118                    86890925.279    20957809.859  
  20957806.074  
  22140977.328   116351636.919    22140981.645    90663637.5364                 
                
  21905224.867   115112733.081    21905229.312    89698256.2044                 
                
  20776326.484   111100362.001                    86411395.833    20776330.289  
  20776325.602  
  20763327.477   109112036.159    20763336.137    85022406.6004   20763336.285  
                
  22473061.469   119962739.492                    93304360.461    22473063.336  
  22473059.586  
  22843691.734   120044406.903    22843700.824    93541138.9854   22843701.293  
                
 21  8 14  1 31 20.0000000  0 14G 6R23G17R13R12G32G12R14G19G 2R24G24
                                R22G25
  21463175.930   112789754.362    21463184.840    87888157.5524   21463185.238  
                
  19213411.000   102778812.822                                                  
  19213409.254  
  24737899.617   129998543.531    24737905.992   101297600.3244   24737905.992  
                
  19359371.578   103377977.956                    80405117.683    19359373.863  
  19359369.914  
  22184524.633   118505758.058                    92171145.305    22184528.305  
  22184524.297  
  24369147.781   128060728.603    24369156.316    99787625.1444   24369156.535  
                
  20742854.500   109004449.176    20742860.059    84938568.0074   20742860.336  
                
  20952096.117   111686467.606                    86867250.890    20952099.668  
  20952095.867  
  22146559.109   116380969.348    22146563.418    90686493.9764                 
                
  21901473.336   115093018.736    21901477.777    89682894.3904                 
                
  20769930.898   111066161.987                    86384795.820    20769934.719  
  20769929.996  
  20766465.852   109128528.449    20766474.539    85035257.7344   20766474.672  
                
  22480552.070   120002725.134                    93335460.407    22480554.004  
  22480550.227  
  22838142.344   120015244.781    22838151.430    93518415.2654   22838151.895  
                
 21  8 14  1 31 30.0000000  0 14G 6R23G17R13R12G32G12R14G19G 2R24G24
                                R22G25
  21462484.836   112786122.645    21462493.766    87885327.6414   21462494.160  
                
  19212781.125   102775443.379                                                  
  19212779.414  
  24743941.820   130030295.327    24743948.160   101322341.9614   24743948.188  
                
  19360334.695   103383121.018                    80409117.839    19360336.988  
  19360333.016  
  22190688.562   118538684.679                    92196754.886    22190692.242  
  22190688.223  
  24368193.508   128055713.797    24368202.027    99783717.4934   24368202.238  
                
  20739916.711   108989010.939    20739922.266    84926538.2164   20739922.547  
                
  20946390.883   111656055.473                    86843597.015    20946394.438  
  20946390.625  
  22152146.039   116410328.768    22152150.344    90709371.4574                 
                
  21897731.219   115073353.778    21897735.633    89667571.0424                 
                
  20763545.586   111032016.917                    86358238.551    20763549.430  
  20763544.668  
  20769615.070   109145077.677    20769623.777    85048153.2354   20769623.891  
                
  22488048.367   120042740.185                    93366583.217    22488050.199  
  22488046.391  
  22832595.531   119986096.068    22832604.586    93495701.9874   22832605.066  
                
 21  8 14  1 31 40.0000000  0 14G 6R23G17R13R12G32G12R14G19G 2R24G24
                                R22G25
  21461806.883   112782559.986    21461815.828    87882551.5474   21461816.227  
                
  19212167.797   102772162.467                                                  
  19212166.102  
  24749984.031   130062047.287    24749990.391   101347083.7194   24749990.430  
                
  19361309.594   103388326.881                    80413166.834    19361311.895  
  19361307.891  
  22196858.805   118571645.038                    92222390.715    22196862.500  
  22196858.430  
  24367250.688   128050759.216    24367259.191    99779856.7984   24367259.402  
                
  20736985.016   108973604.810    20736990.570    84914533.4364   20736990.852  
                
  20940690.641   111625669.983                    86819963.864    20940694.203  
  20940690.344  
  22157738.141   116439715.408    22157742.441    90732270.1284                 
                
  21893998.555   115053738.539    21894002.949    89652286.4364                 
                
  20757170.625   110997927.166                    86331724.313    20757174.477  
  20757169.699  
  20772775.164   109161684.071    20772783.895    85061093.2784   20772783.984  
                
  22495550.133   120082784.560                    93397728.833    22495551.871  
  22495548.059  
  22827051.320   119956961.100    22827060.391    93472999.4164   22827060.836  
                
 21  8 14  1 31 50.0000000  0 14G 6R23G17R13R12G32G12R14G19G 2R24G24
                                R22G25
  21461142.016   112779066.090    21461150.984    87879829.0374   21461151.363  
                
  19211570.969   102768969.815                                                  
  19211569.266  
  24756026.195   130093799.072    24756032.590   101371825.3294   24756032.637  
                
  19362296.164   103393595.145                    80417264.383    19362298.488  
  19362294.441  
  22203035.250   118604638.653                    92248052.414    22203038.980  
  22203034.863  
  24366319.273   128045864.599    24366327.770    99776042.8064   24366327.980  
                
  20734059.383   108958230.484    20734064.934    84902553.4474   20734065.211  
                
  20934995.398   111595311.171                    86796351.456    20934998.938  
  20934995.105  
  22163335.328   116469128.778    22163339.633    90755189.6444                 
                
  21890275.289   115034172.745    21890279.691    89637040.3694                 
                
  20750805.969   110963892.522                    86305252.917    20750809.832  
  20750805.051  
  20775946.070   109178347.251    20775954.824    85074077.5774   20775954.902  
                
  22503057.203   120122857.891                    93428896.984    22503058.945  
  22503055.152  
  22821509.664   119927839.592    22821518.742    93450307.3444   22821519.176  
                
 21  8 14  1 32  0.0000000  0 14G 6R23G17R13R12G32G12R14G19G 2R24G24
                                R22G25
  21460490.266   112775641.123    21460499.258    87877160.2304   21460499.625  
                
  19210990.633   102765865.406                                                  
  19210988.930  
  24762068.367   130125550.846    24762074.773   101396566.9534   24762074.816  
                
  19363294.414   103398925.826                    80421410.463    19363296.766  
  19363292.668  
  22209217.992   118637665.734                    92273740.152    22209221.695  
  22209217.602  
  24365399.273   128041030.016    24365407.758    99772275.5964   24365407.977  
                
  20731139.805   108942888.007    20731145.348    84890598.2714   20731145.621  
                
  20929305.180   111564979.108                    86772759.849    20929308.711  
  20929304.883  
  22168937.602   116498568.907    22168941.891    90778130.0024                 
                
  21886561.516   115014656.788    21886565.926    89621833.1344                 
                
  20744451.664   110929913.264                    86278824.609    20744455.512  
  20744450.766  
  20779127.797   109195067.334    20779136.562    85087106.2104   20779136.625  
                
  22510569.680   120162960.086                    93460087.568    22510571.473  
  22510567.656  
  22815970.617   119898731.707    22815979.668    93427625.8934   22815980.113  
                
 21  8 14  1 32 10.0000000  0 14G 6R23G17R13R12G32G12R14G19G 2R24G24
                                R22G25
  21459851.617   112772285.029    21459860.633    87874545.0914   21459860.992  
                
  19210426.797   102762849.244                                                  
  19210425.113  
  24768110.516   130157302.436    24768116.914   101421308.4234   24768116.938  
                
  19364304.359   103404318.890                    80425605.062    19364306.715  
  19364302.594  
  22215406.977   118670726.089                    92299453.760    22215410.641  
  22215406.566  
  24364490.695   128036255.453    24364499.184    99768555.1644   24364499.383  
                
  20728226.289   108927577.395    20728231.824    84878667.9204   20728232.098  
                
  20923619.977   111534673.781                    86749189.035    20923623.516  
  20923619.688  
  22174544.969   116528035.775    22174549.238    90801091.1864                 
                
  21882857.203   114995190.522    21882861.586    89606664.6164                 
                
  20738107.711   110895989.320                    86252439.322    20738111.527  
  20738106.801  
  20782320.320   109211844.167    20782329.078    85100179.0684   20782329.141  
                
  22518087.578   120203091.001                    93491300.490    22518089.395  
  22518085.547  
  22810434.156   119869637.455    22810443.199    93404955.0344   22810443.652  
                
 21  8 14  1 32 20.0000000  0 14G 6R23G17R13R12G32G12R14G19G 2R24G24
                                R22G25
  21459226.094   112768997.892    21459235.117    87871983.6904   21459235.477  
                
  19209879.453   102759921.322                                                  
  19209877.777  
  24774152.664   130189053.985    24774159.016   101446049.8644   24774159.059  
                
  19365326.078   103409774.795                    80429848.546    19365328.434  
  19365324.312  
  22221602.211   118703819.718                    92325193.249    22221605.812  
  22221601.742  
  24363593.570   128031540.984    24363602.039    99764881.5394   24363602.215  
                
  20725318.898   108912298.955    20725324.430    84866762.6444   20725324.695  
                
  20917939.859   111504395.595                    86725639.333    20917943.406  
  20917939.602  
  22180157.398   116557529.323    22180161.648    90824073.1654                 
                
  21879162.359   114975774.052    21879166.723    89591534.9074                 
                
  20731774.172   110862121.011                    86226097.298    20731777.953  
  20731773.258  
  20785523.656   109228677.791    20785532.398    85113296.1744   20785532.469  
                
  22525610.828   120243250.386                    93522535.547    22525612.621  
  22525608.754  
  22804900.320   119840556.929    22804909.387    93382294.8924   22804909.812  
                
 21  8 14  1 32 30.0000000  0 14G 6R23G17R13R12G32G12R14G19G 2R24G24
                                R22G25
  21458613.719   112765779.805    21458622.746    87869476.0854   21458623.109  
                
  19209348.625   102757081.711                                                  
  19209346.941  
  24780194.758   130220805.336    24780201.074   101470791.1654   24780201.137  
                
  19366359.578   103415293.596                    80434140.949    19366361.941  
  19366357.793  
  22227803.609   118736946.799                    92350958.766    22227807.254  
  22227803.184  
  24362707.875   128026886.625    24362716.316    99761254.7764   24362716.512  
                
  20722417.641   108897052.725    20722423.168    84854882.4654   20722423.434  
                
  20912264.852   111474144.562                    86702110.752    20912268.383  
  20912264.605  
  22185774.906   116587049.508    22185779.164    90847075.8964                 
                
  21875477.039   114956407.564    21875481.406    89576444.1364                 
                
  20725451.070   110828308.496                    86199798.669    20725454.816  
  20725450.176  
  20788737.797   109245568.218    20788746.520    85126457.5434   20788746.602  
                
  22533139.391   120283438.425                    93553792.920    22533141.273  
  22533137.281  
  22799369.094   119811490.183    22799378.188    93359645.4964   22799378.605  
                
 21  8 14  1 32 40.0000000  0 14G 6R23G17R13R12G32G12R14G19G 2R24G24
                                R22G25
  21458014.461   112762630.696    21458023.504    87867022.2404   21458023.867  
                
  19208834.281   102754330.365                                                  
  19208832.578  
  24786236.805   130252556.491    24786243.094   101495532.3064   24786243.164  
                
  19367404.734   103420874.754                    80438481.843    19367407.109  
  19367402.961  
  22234011.273   118770107.097                    92376750.077    22234014.934  
  22234010.867  
  24361833.625   128022292.398    24361842.043    99757674.8464   24361842.238  
                
  20719522.492   108881838.611    20719528.016    84843027.3164   20719528.273  
                
  20906594.938   111443920.674                    86678603.303    20906598.469  
  20906594.660  
  22191397.453   116616596.124    22191401.734    90870099.2374                 
                
  21871801.227   114937091.053    21871805.582    89561392.3054                 
                
  20719138.422   110794551.857                    86173543.495    20719142.141  
  20719137.531  
  20791962.734   109262515.321    20791971.441    85139663.0774   20791971.539  
                
  22540673.328   120323654.862                    93585072.354    22540675.133  
  22540671.152  
  22793840.492   119782437.272    22793849.605    93337006.8684   22793850.023  
                
 21  8 14  1 32 50.0000000  0 14G 6R23G17R13R12G32G12R14G19G 2R24G24
                                R22G25
  21457428.320   112759550.542    21457437.371    87864622.1234   21457437.727  
                
  19208336.406   102751667.136                                                  
  19208334.691  
  24792278.766   130284307.229    24792285.047   101520273.1154   24792285.137  
                
  19368461.617   103426518.502                    80442871.428    19368463.996  
  19368459.836  
  22240225.117   118803300.457                    92402567.136    22240228.809  
  22240224.770  
  24360970.797   128017758.224    24360979.164    99754141.7274   24360979.363  
                
  20716633.453   108866656.616    20716638.973    84831197.1904   20716639.219  
                
  20900930.133   111413724.070                    86655117.041    20900933.664  
  20900929.863  
  22197025.008   116646169.101    22197029.289    90893143.1104                 
                
  21868134.922   114917824.533    21868139.250    89546379.4414                 
                
  20712836.180   110760850.958                    86147331.689    20712839.902  
  20712835.281  
  20795198.422   109279519.002    20795207.133    85152912.7024   20795207.223  
                
  22548212.508   120363899.346                    93616373.617    22548214.238  
  22548210.297  
  22788314.516   119753398.106    22788323.652    93314378.9774   22788324.062  
                
 21  8 14  1 33  0.0000000  0 14G 6R23G17R13R12G32G12R14G19G 2R24G24
                                R22G25
  21456855.328   112756539.435    21456864.391    87862275.8094   21456864.738  
                
  19207855.031   102749092.079                                                  
  19207853.312  
  24798320.664   130316057.587    24798326.922   101545013.6484   24798327.012  
                
  19369530.297   103432225.229                    80447309.998    19369532.672  
  19369528.508  
  22246445.219   118836526.979                    92428409.974    22246448.887  
  22246444.859  
  24360119.391   128013284.125    24360127.723    99750655.4184   24360127.938  
                
  20713750.523   108851506.699    20713756.039    84819392.0584   20713756.297  
                
  20895270.469   111383554.899                    86631652.136    20895274.008  
  20895270.184  
  22202657.586   116675768.457    22202661.828    90916207.5494                 
                
  21864478.188   114898608.246    21864482.477    89531405.7144                 
                
  20706544.414   110727206.091                    86121163.476    20706548.168  
  20706543.508  
  20798444.883   109296579.260    20798453.602    85166206.4044   20798453.691  
                
  22555756.828   120404171.908                    93647696.709    22555758.594  
  22555754.668  
  22782791.203   119724372.869    22782800.332    93291761.8984   22782800.750  
                
 21  8 14  1 33 10.0000000  0 14G 6R23G17R13R12G32G12R14G19G 2R24G24
                                R22G25
  21456295.438   112753597.227    21456304.520    87859983.1744   21456304.855  
                
  19207390.125   102746605.191                                                  
  19207388.441  
  24804362.469   130347807.400    24804368.723   101569753.7394   24804368.801  
                
  19370610.695   103437994.582                    80451797.264    19370613.074  
  19370608.895  
  22252671.469   118869786.576                    92454278.557    22252675.113  
  22252671.168  
  24359279.398   128008870.013    24359287.754    99747215.8464   24359287.992  
                
  20710873.711   108836388.969    20710879.230    84807612.0184   20710879.477  
                
  20889615.969   111353413.230                    86608208.628    20889619.512  
  20889615.672  
  22208295.133   116705393.966    22208299.328    90939292.3574                 
                
  21860830.969   114879442.045    21860835.219    89516471.0044                 
                
  20700263.141   110693617.346                    86095038.896    20700266.918  
  20700262.227  
  20801702.078   109313695.940    20801710.805    85179544.0754   20801710.898  
                
  22563306.500   120444472.244                    93679041.398    22563308.223  
  22563304.293  
  22777270.508   119695361.423    22777279.586    93269155.5814   22777280.023  
                
 21  8 14  1 33 20.0000000  0 14G 6R23G17R13R12G32G12R14G19G 2R24G24
                                R22G25
  21455748.734   112750724.266    21455757.836    87857744.5064   21455758.152  
                
  19206941.742   102744206.567                                                  
  19206940.082  
  24810404.227   130379557.012    24810410.492   101594493.6744   24810410.562  
                
  19371702.906   103443826.967                    80456333.564    19371705.289  
  19371701.078  
  22258903.969   118903079.441                    92480173.012    22258907.586  
  22258903.680  
  24358450.883   128004516.198    24358459.273    99743823.2664   24358459.500  
                
  20708003.078   108821303.715    20708008.594    84795857.2764   20708008.836  
                
  20883966.680   111323299.343                    86584786.718    20883970.219  
  20883966.391  
  22213937.703   116735045.847    22213941.895    90962397.7094                 
                
  21857193.367   114860326.302    21857197.613    89501575.6234                 
                
  20693992.422   110660084.994                    86068958.181    20693996.203  
  20693991.523  
  20804970.055   109330869.256    20804978.793    85192925.8784   20804978.879  
                
  22570861.375   120484800.651                    93710407.924    22570863.133  
  22570859.184  
  22771752.516   119666364.121    22771761.539    93246560.2554   22771762.000  
                
 21  8 14  1 33 30.0000000  0 14G 6R23G17R13R12G32G12R14G19G 2R24G24
                                R22G25
  21455215.180   112747920.390    21455224.281    87855559.6724   21455224.578  
                
  19206509.836   102741896.131                                                  
  19206508.184  
  24816445.906   130411306.179    24816452.199   101619233.2674   24816452.270  
                
  19372806.930   103449722.430                    80460918.927    19372809.305  
  19372805.082  
  22265142.641   118936405.162                    92506092.990    22265146.207  
  22265142.336  
  24357633.836   128000222.528    24357642.242    99740477.5564   24357642.465  
                
  20705138.609   108806250.806    20705144.121    84784127.7364   20705144.355  
                
  20878322.609   111293213.323                    86561386.482    20878326.148  
  20878322.316  
  22219585.219   116764723.722    22219589.438    90985523.3204                 
                
  21853565.328   114841260.866    21853569.605    89486719.4484                 
                
  20687732.203   110626608.808                    86042921.134    20687735.996  
  20687731.316  
  20808248.773   109348099.045    20808257.520    85206351.6844   20808257.594  
                
  22578421.469   120525156.536                    93741795.840    22578423.148  
  22578419.230  
  22766237.180   119637380.851    22766246.223    93223975.9014   22766246.656  
                
 21  8 14  1 33 40.0000000  0 14G 6R23G17R13R12G32G12R14G19G 2R24G24
                                R22G25
  21454694.750   112745185.536    21454703.840    87853428.6134   21454704.145  
                
  19206094.375   102739673.704                                                  
  19206092.707  
  24822487.461   130443054.718    24822493.777   101643972.3634   24822493.848  
                
  19373922.703   103455680.720                    80465553.154    19373925.070  
  19373920.836  
  22271387.531   118969763.917                    92532038.687    22271391.000  
  22271387.188  
  24356828.203   127995988.910    24356836.629    99737178.6314   24356836.828  
                
  20702280.281   108791230.238    20702285.785    84772423.4004   20702286.027  
                
  20872683.742   111263155.043                    86538007.823    20872687.281  
  20872683.461  
  22225237.656   116794427.567    22225241.859    91008669.1524                 
                
  21849946.859   114822245.715    21849951.156    89471902.4524                 
                
  20681482.562   110593189.176                    86016928.092    20681486.379  
  20681481.691  
  20811538.203   109365385.124    20811546.941    85219821.3544   20811547.012  
                
  22585986.734   120565539.864                    93773205.091    22585988.301  
  22585984.375  
  22760724.461   119608411.512    22760733.555    93201402.4074   22760733.965  
                
 21  8 14  1 33 50.0000000  0 14G 6R23G17R13R12G32G12R14G19G 2R24G24
                                R22G25
  21454187.492   112742519.862    21454196.570    87851351.4654   21454196.883  
                
  19205695.398   102737539.420                                                  
  19205693.707  
  24828528.930   130474802.739    24828535.262   101668711.0484   24828535.363  
                
  19375050.266   103461701.847                    80470236.246    19375052.586  
  19375048.359  
  22277638.461   119003155.600                    92558010.001    22277641.934  
  22277638.152  
  24356034.023   127991815.469    24356042.473    99733926.5924   24356042.676  
                
  20699428.141   108776242.115    20699433.641    84760744.3474   20699433.891  
                
  20867050.141   111233124.725                    86514650.898    20867053.684  
  20867049.867  
  22230895.062   116824157.434    22230899.195    91031835.2834                 
                
  21846338.016   114803281.112    21846342.320    89457124.8404                 
                
  20675243.531   110559826.231                    85990979.154    20675247.359  
  20675242.656  
  20814838.367   109382727.612    20814847.094    85233334.9874   20814847.172  
                
  22593556.898   120605950.662                    93804635.686    22593558.664  
  22593554.609  
  22755214.477   119579456.392    22755223.551    93178839.9924   22755223.957  
                
 21  8 14  1 34  0.0000000  0 14G 6R23G17R13R12G32G12R14G19G 2R24G24
                                R22G25
  21453693.375   112739923.271    21453702.441    87849328.1504   21453702.766  
                
  19205312.883   102735493.239                                                  
  19205311.184  
  24834570.273   130506550.135    24834576.613   101693449.2544   24834576.727  
                
  19376189.633   103467786.080                    80474968.432    19376191.934  
  19376187.680  
  22283895.539   119036580.155                    92584006.888    22283899.012  
  22283895.246  
  24355251.281   127987702.138    24355259.750    99730721.4034   24355259.957  
                
  20696582.148   108761286.365    20696587.641    84749090.5204   20696587.883  
                
  20861421.797   111203122.484                    86491315.845    20861425.332  
  20861421.500  
  22236557.375   116853913.135    22236561.414    91055021.5374                 
                
  21842738.773   114784367.001    21842743.086    89442386.5784                 
                
  20669015.070   110526519.900                    85965074.237    20669018.914  
  20669014.184  
  20818149.234   109400126.348    20818157.941    85246892.4364   20818158.031  
                
  22601132.219   120646388.659                    93836087.459    22601134.023  
  22601129.980  
  22749707.180   119550515.364    22749716.223    93156288.5434   22749716.641  
                
 21  8 14  1 34 10.0000000  0 14G 6R23G17R13R12G32G12R14G19G 2R24G24
                                R22G25
  21453212.414   112737395.834    21453221.473    87847358.7194   21453221.777  
                
  19204946.836   102733535.097                                                  
  19204945.141  
  24840611.508   130538296.915    24840617.879   101718186.9754   24840617.984  
                
  19377340.812   103473933.339                    80479749.626    19377343.113  
  19377338.832  
  22290158.805   119070037.476                    92610029.253    22290162.250  
  22290158.520  
  24354479.992   127983648.947    24354488.434    99727563.0524   24354488.664  
                
  20693742.344   108746363.052    20693747.824    84737461.9624   20693748.070  
                
  20855798.750   111173148.433                    86468002.685    20855802.281  
  20855798.465  
  22242224.609   116883694.620    22242228.598    91078227.8984                 
                
  21839149.156   114765503.448    21839153.488    89427687.7184                 
                
  20662797.242   110493270.382                    85939213.499    20662801.090  
  20662796.344  
  20821470.797   109417581.314    20821479.500    85260493.7114   20821479.594  
                
  22608712.648   120686853.648                    93867560.237    22608714.453  
  22608710.480  
  22744202.570   119521588.509    22744211.633    93133748.1544   22744212.062  
                
 21  8 14  1 34 20.0000000  0 14G 6R23G17R13R12G32G12R14G19G 2R24G24
                                R22G25
  21452744.594   112734937.463    21452753.637    87845443.1044   21452753.953  
                
  19204597.227   102731664.912                                                  
  19204595.523  
  24846652.570   130570042.815    24846658.996   101742924.0094   24846659.082  
                
  19378503.773   103480143.556                    80484579.791    19378506.066  
  19378501.773  
  22296428.125   119103527.470                    92636077.008    22296431.598  
  22296427.906  
  24353720.117   127979655.790    24353728.527    99724451.4934   24353728.793  
                
  20690908.688   108731472.121    20690914.160    84725858.6434   20690914.406  
                
  20850180.977   111143202.573                    86444711.468    20850184.512  
  20850180.699  
  22247896.695   116913501.686    22247900.684    91101454.1834                 
                
  21835569.164   114746690.496    21835573.500    89413028.2764                 
                
  20656590.055   110460077.784                    85913397.038    20656593.898  
  20656589.148  
  20824803.031   109435092.350    20824811.734    85274138.6694   20824811.824  
                
  22616298.164   120727345.372                    93899053.791    22616299.875  
  22616295.945  
  22738700.656   119492675.790    22738709.754    93111218.7734   22738710.176  
                
 21  8 14  1 34 30.0000000  0 14G 6R23G17R13R12G32G12R14G19G 2R24G24
                                R22G25
  21452289.945   112732548.249    21452298.965    87843581.3864   21452299.289  
                
  19204264.070   102729882.771                                                  
  19204262.355  
  24852693.492   130601788.023    24852699.996   101767660.5104   24852700.039  
                
  19379678.547   103486416.816                    80489458.992    19379680.844  
  19379676.520  
  22302703.539   119137050.103                    92662150.179    22302707.082  
  22302703.379  
  24352971.680   127975722.763    24352980.090    99721386.8174   24352980.375  
                
  20688081.234   108716613.751    20688086.691    84714280.6914   20688086.938  
                
  20844568.531   111113285.115                    86421442.344    20844572.082  
  20844568.262  
  22253573.672   116943334.420    22253577.664    91124700.4504                 
                
  21831998.828   114727928.243    21832003.156    89398408.3364                 
                
  20650393.539   110426942.215                    85887624.920    20650397.395  
  20650392.648  
  20828145.953   109452659.540    20828154.648    85287827.3914   20828154.742  
                
  22623888.656   120767863.970                    93930568.240    22623890.301  
  22623886.445  
  22733201.461   119463777.380    22733210.598    93088700.5264   22733210.992  
                
 21  8 14  1 34 40.0000000  0 14G 6R23G17R13R12G32G12R14G19G 2R24G24
                                R22G25
  21451848.453   112730228.241    21451857.457    87841773.5844   21451857.781  
                
  19203947.336   102728188.518                                                  
  19203945.602  
  24858734.266   130633532.499    24858740.848   101792396.4484   24858740.859  
                
  19380865.148   103492753.248                    80494387.329    19380867.434  
  19380863.102  
  22308985.266   119170605.541                    92688248.836    22308988.723  
  22308985.027  
  24352234.703   127971849.921    24352243.145    99718369.0064   24352243.414  
                
  20685259.977   108701787.967    20685265.414    84702728.1334   20685265.668  
                
  20838961.445   111083396.230                    86398195.428    20838965.008  
  20838961.184  
  22259255.508   116973192.677    22259259.461    91147966.6244                 
                
  21828438.164   114709216.829    21828442.465    89383828.0224                 
                
  20644207.680   110393863.689                    85861897.195    20644211.551  
  20644206.801  
  20831499.555   109470282.798    20831508.242    85301559.8024   20831508.344  
                
  22631484.102   120808409.069                    93962103.291    22631485.828  
  22631481.902  
  22727704.977   119434893.265    22727714.148    93066193.4354   22727714.539  
                
 21  8 14  1 34 50.0000000  0 14G 6R23G17R13R12G32G12R14G19G 2R24G24
                                R22G25
  21451420.102   112727977.227    21451429.109    87840019.5524   21451429.438  
                
  19203647.047   102726582.153                                                  
  19203645.309  
  24864774.844   130665275.884    24864781.449   101817131.5304   24864781.465  
                
  19382063.539   103499152.679                    80499364.656    19382065.820  
  19382061.469  
  22315273.086   119204193.426                    92714372.739    22315276.453  
  22315272.770  
  24351509.141   127968037.029    24351517.590    99715397.9214   24351517.844  
                
  20682444.898   108686994.603    20682450.324    84691200.8384   20682450.574  
                
  20833359.680   111053535.704                    86374970.587    20833363.250  
  20833359.426  
  22264942.156   117003076.187    22264946.082    91171252.4884                 
                
  21824887.148   114690556.122    21824891.402    89369287.2084                 
                
  20638032.492   110360842.164                    85836213.784    20638036.367  
  20638031.613  
  20834863.766   109487961.881    20834872.457    85315335.7094   20834872.562  
                
  22639084.523   120848980.530                    93993658.860    22639086.281  
  22639082.324  
  22722211.172   119406023.290    22722220.348    93043697.3554   22722220.738  
                
 21  8 14  1 35  0.0000000  0 14G 6R23G17R13R12G32G12R14G19G 2R24G24
                                R22G25
  21451004.906   112725795.361    21451013.922    87838319.4034   21451014.230  
                
  19203363.180   102725063.589                                                  
  19203361.473  
  24870815.250   130697018.320    24870821.824   101841865.8704   24870821.875  
                
  19383273.734   103505615.122                    80504391.006    19383276.004  
  19383271.656  
  22321566.828   119237813.859                    92740521.974    22321570.277  
  22321566.512  
  24350795.008   127964284.213    24350803.469    99712473.6354   24350803.707  
                
  20679636.023   108672233.844    20679641.441    84679698.9444   20679641.699  
                
  20827763.305   111023703.852                    86351768.031    20827766.875  
  20827763.047  
  22270633.625   117032985.051    22270637.582    91194558.0804                 
                
  21821345.836   114671946.322    21821350.059    89354786.0704                 
                
  20631868.047   110327878.083                    85810575.044    20631871.914  
  20631867.168  
  20838238.617   109505696.856    20838247.320    85329155.1724   20838247.418  
                
  22646689.875   120889578.112                    94025234.752    22646691.680  
  22646687.637  
  22716720.117   119377167.646    22716729.230    93021212.4484   22716729.645  
                
 21  8 14  1 35 10.0000000  0 13G 6R23R13R12G32G12R14G19G 2R24G24R22
                                G25
  21450602.922   112723682.984    21450611.941    87836673.3904   21450612.246  
                
  19203095.773   102723633.094                                                  
  19203094.102  
  19384495.836   103512141.210                    80509466.859    19384498.105  
  19384493.746  
  22327866.602   119271467.087                    92766696.653    22327870.223  
  22327866.367  
  24350092.359   127960591.802    24350100.820    99709596.4454   24350101.074  
                
  20676833.383   108657505.904    20676838.797    84668222.6264   20676839.055  
                
  20822172.383   110993901.114                    86328588.142    20822175.949  
  20822172.090  
  22276329.945   117062919.432    22276333.965    91217883.5594                 
                
  21817814.266   114653387.812    21817818.500    89340324.8954                 
                
  20625714.352   110294971.559                    85784981.104    20625718.246  
  20625713.449  
  20841624.156   109523488.030    20841632.871    85343018.4224   20841632.961  
                
  22654300.086   120930202.207                    94056831.274    22654301.891  
  22654297.926  
  22711231.875   119348326.745    22711240.926    92998739.0154   22711241.371  
                
 21  8 14  1 35 20.0000000  0 13G 6R23R13R12G32G12R14G19G 2R24G24R22
                                G25
  21450214.133   112721639.895    21450223.141    87835081.3794   21450223.445  
                
  19202844.820   102722290.631                                                  
  19202843.160  
  19385729.789   103518730.500                    80514591.856    19385732.047  
  19385727.684  
  22334172.742   119305152.833                    92792896.673    22334176.273  
  22334172.414  
  24349401.188   127956959.611    24349409.660    99706766.1504   24349409.902  
                
  20674036.977   108642810.685    20674042.395    84656771.8054   20674042.641  
                
  20816586.906   110964127.389                    86305430.786    20816590.465  
  20816586.629  
  22282031.070   117092879.018    22282035.137    91241228.6904                 
                
  21814292.438   114634880.414    21814296.676    89325903.5494                 
                
  20619571.453   110262122.693                    85759431.987    20619575.332  
  20619570.527  
  20845020.344   109541335.096    20845029.074    85356925.2324   20845029.145  
                
  22661915.320   120970852.386                    94088448.080    22661916.945  
  22661913.074  
  22705746.414   119319500.370    22705755.441    92976276.9084   22705755.898  
                
 21  8 14  1 35 30.0000000  0 13G 6R23R13R12G32G12R14G19G 2R24G24R22
                                G25
  21449838.438   112719665.644    21449847.426    87833543.0064   21449847.734  
                
  19202610.188   102721035.589                                                  
  19202608.523  
  19386975.469   103525382.508                    80519765.636    19386977.719  
  19386973.352  
  22340484.898   119338870.611                    92819121.625    22340488.332  
  22340484.484  
  24348721.367   127953387.150    24348729.855    99703982.4424   24348730.102  
                
  20671246.734   108628147.904    20671252.160    84645346.2664   20671252.406  
                
  20811006.789   110934382.235                    86282295.675    20811010.355  
  20811006.512  
  22287736.906   117122863.394    22287740.984    91264593.1274                 
                
  21810780.250   114616423.739    21810784.457    89311521.7254                 
                
  20613439.242   110229330.989                    85733927.319    20613443.105  
  20613438.324  
  20848427.070   109559237.591    20848435.797    85370875.2194   20848435.871  
                
  22669535.180   121011528.083                    94120084.723    22669536.871  
  22669533.027  
  22700263.609   119290688.122    22700272.609    92953825.7994   22700273.098  
                
 21  8 14  1 35 40.0000000  0 13G 6R23R13R12G32G12R14G19G 2R24G24R22
                                G25
  21449475.930   112717760.625    21449484.891    87832058.5774   21449485.219  
                
  19202391.984   102719868.301                                                  
  19202390.297  
  19388233.016   103532097.726                    80524988.578    19388235.254  
  19388230.906  
  22346803.016   119372620.701                    92845371.690    22346806.441  
  22346802.582  
  24348052.992   127949874.804    24348061.453    99701245.5264   24348061.715  
                
  20668462.742   108613517.935    20668468.176    84633946.2904   20668468.410  
                
  20805432.141   110904666.240                    86259183.238    20805435.703  
  20805431.852  
  22293447.508   117152872.777    22293451.590    91287977.0514                 
                
  21807277.812   114598018.264    21807282.016    89297179.8094                 
                
  20607317.820   110196596.994                    85708467.540    20607321.672  
  20607316.906  
  20851844.406   109577195.801    20851853.141    85384868.6274   20851853.215  
                
  22677159.945   121052229.717                    94151741.535    22677161.711  
  22677157.867  
  22694783.586   119261890.398    22694792.543    92931386.0324   22694793.055  
                
 21  8 14  1 35 50.0000000  0 13G 6R23R13R12G32G12R14G19G 2R24G24R22
                                G25
  21449126.539   112715924.651    21449135.473    87830627.9524   21449135.809  
                
  19202190.141   102718788.611                                                  
  19202188.441  
  19389502.422   103538876.334                    80530260.836    19389504.625  
  19389500.324  
  22353127.133   119406402.993                    92871646.778    22353130.543  
  22353126.648  
  24347396.016   127946422.401    24347404.469    99698555.3274   24347404.742  
                
  20665684.961   108598920.624    20665690.402    84622571.7664   20665690.629  
                
  20799862.930   110874979.233                    86236093.345    20799866.496  
  20799862.617  
  22299162.797   117182906.876    22299166.934    91311380.2324                 
                
  21803785.094   114579663.910    21803789.289    89282877.7134                 
                
  20601207.195   110163920.783                    85683052.716    20601211.055  
  20601206.277  
  20855272.289   109595209.483    20855281.043    85398905.2634   20855281.105  
                
  22684789.508   121092956.753                    94183418.111    22684791.230  
  22684787.434  
  22689306.289   119233107.065    22689315.277    92908957.4624   22689315.770  
                
 21  8 14  1 36  0.0000000  0 13G 6R23R13R12G32G12R14G19G 2R24G24R22
                                G25
  21448790.383   112714158.097    21448799.301    87829251.4224   21448799.648  
                
  19202004.758   102717796.875                                                  
  19202003.059  
  19390783.742   103545718.493                    80535582.512    19390785.953  
  19390781.668  
  22359457.305   119440217.760                    92897947.160    22359460.758  
  22359456.875  
  24346750.531   127943030.293    24346758.977    99695912.1314   24346759.250  
                
  20662913.477   108584356.369    20662918.914    84611222.9964   20662919.133  
                
  20794299.258   110845321.707                    86213026.391    20794302.824  
  20794298.969  
  22304882.867   117212965.987    22304887.027    91334802.9124                 
                
  21800302.172   114561360.990    21800306.324    89268615.6994                 
                
  20595107.492   110131302.867                    85657683.229    20595111.352  
  20595106.570  
  20858710.797   109613278.956    20858719.578    85412985.3694   20858719.621  
                
  22692423.938   121133709.366                    94215114.579    22692425.590  
  22692421.832  
  22683831.797   119204338.520    22683840.883    92886540.4494   22683841.344  
                
 21  8 14  1 36 10.0000000  0 13G 6R23R13R12G32G12R14G19G 2R24G24R22
                                G25
  21448467.352   112712460.578    21448476.270    87827928.6844   21448476.602  
                
  19201835.719   102716892.655                                                  
  19201834.051  
  19392076.828   103552623.566                    80540953.126    19392079.023  
  19392074.754  
  22365793.500   119474064.414                    92924272.347    22365796.938  
  22365793.070  
  24346116.422   127939698.071    24346124.902    99693315.6214   24346125.164  
                
  20660148.164   108569824.584    20660153.598    84599899.5324   20660153.805  
                
  20788741.070   110815693.458                    86189982.186    20788744.629  
  20788740.781  
  22310607.586   117243049.624    22310611.750    91358244.7124                 
                
  21796828.984   114543109.256    21796833.086    89254393.5724                 
                
  20589018.570   110098742.674                    85632358.626    20589022.422  
  20589017.645  
  20862159.836   109631403.770    20862168.637    85427108.6034   20862168.664  
                
  22700063.047   121174487.135                    94246830.589    22700064.621  
  22700060.934  
  22678360.070   119175584.415    22678369.164    92864134.6684   22678369.629  
                
 21  8 14  1 36 20.0000000  0 13G 6R23R13R12G32G12R14G19G 2R24G24R22
                                G25
  21448157.508   112710832.327    21448166.418    87826659.9174   21448166.758  
                
  19201683.070   102716076.069                                                  
  19201681.414  
  19393381.766   103559591.831                    80546372.878    19393383.953  
  19393379.707  
  22372135.727   119507943.305                    92950622.585    22372139.098  
  22372135.273  
  24345493.766   127936425.963    24345502.285    99690765.9074   24345502.504  
                
  20657389.133   108555325.779    20657394.555    84588601.7614   20657394.766  
                
  20783188.430   110786094.757                    86166960.983    20783191.992  
  20783188.117  
  22316337.031   117273158.069    22316341.191    91381705.8254                 
                
  21793365.586   114524908.966    21793369.664    89240211.5334                 
                
  20582940.531   110066240.625                    85607079.263    20582944.410  
  20582939.602  
  20865619.430   109649584.069    20865628.234    85441275.0644   20865628.254  
                
  22707706.734   121215289.998                    94278566.144    22707708.352  
  22707704.652  
  22672891.164   119146845.056    22672900.215    92841740.3404   22672900.676  
                
 21  8 14  1 36 30.0000000  0 13G 6R23R13R12G32G12R14G19G 2R24G24R22
                                G25
  21447860.844   112709273.390    21447869.727    87825445.1604   21447870.070  
                
  19201546.820   102715347.210                                                  
  19201545.164  
  19394698.594   103566623.675                    80551842.096    19394700.777  
  19394696.555  
  22378483.836   119541854.337                    92976997.844    22378487.250  
  22378483.406  
  24344882.555   127933214.051    24344891.062    99688263.1054   24344891.258  
                
  20654636.391   108540860.015    20654641.801    84577329.7354   20654642.016  
                
  20777641.367   110756525.779                    86143962.893    20777644.906  
  20777641.062  
  22322071.164   117303291.166    22322075.340    91405186.1464                 
                
  21789912.000   114506760.252    21789916.051    89226069.6734                 
                
  20576873.406   110033796.993                    85581845.325    20576877.293  
  20576872.504  
  20869089.586   109667819.856    20869098.383    85455484.7754   20869098.418  
                
  22715355.133   121256118.015                    94310321.256    22715356.777  
  22715353.109  
  22667425.062   119118120.476    22667434.137    92819357.5544   22667434.547  
                
 21  8 14  1 36 40.0000000  0 13G 6R23R13R12G32G12R14G19G 2R24G24R22
                                G25
  21447577.398   112707783.849    21447586.250    87824284.4854   21447586.621  
                
  19201426.961   102714705.985                                                  
  19201425.320  
  19396027.383   103573719.268                    80557360.891    19396029.543  
  19396025.352  
