     2.11           OBSERVATION DATA    M (MIXED)           RINEX VERSION / TYPE
EFT-CORS.RU                             20210817 145154 UTC PGM / RUN BY / DATE 
MDNG                                                        MARKER NAME         
                                                            MARKER NUMBER       
MDNG                EFT-CORS.RU                             OBSERVER / AGENCY   
0                   TRIMBLE BD970       2.0                 REC # / TYPE / VERS 
0                   UNKNOWN EXT NONE                        ANT # / TYPE        
  3463911.2830  3030468.2400  4402179.3760                  APPROX POSITION XYZ 
        0.0000        0.0000        0.0000                  ANTENNA: DELTA H/E/N
     1     1                                                WAVELENGTH FACT L1/2
     6    C1    L1    P2    L2    C2    P1                  # / TYPES OF OBSERV 
    10.000                                                  INTERVAL            
  2021     8    15     6    30    0.0000000     GPS         TIME OF FIRST OBS   
  2021     8    15     7    30    0.0000000     GPS         TIME OF LAST OBS    
     0                                                      RCV CLOCK OFFS APPL 
                                                            END OF HEADER       
 21  8 15  6 30  0.0000000  0 18G15R20R 4G26R 2R 9G18R18G29R 3R19R16
                                G 5G25G16R10G23G10
  23920425.992   125702695.256    23920434.461    97950188.1394   23920434.332  
                
  22458645.078   120096490.211                    93408410.548    22458652.367  
  22458644.348  
  21809590.594   116789384.443                    90836191.836    21809595.062  
  21809589.570  
  21442176.672   112679410.838    21442186.895    87802177.7894   21442186.695  
                
  23322880.414   124455376.172                    96798611.681    23322885.504  
  23322878.719  
  21046688.547   112388152.798                    87412990.715    21046692.297  
  21046687.773  
  20250808.242   106418724.292    20250815.215    82923718.3014   20250815.238  
                
  21341181.695   113920655.822                    88604944.252    21341185.711  
  21341180.109  
  21230669.500   111567910.469    21230677.059    86936063.6294   21230677.102  
                
  21082388.977   112855653.436                    87776690.658    21082393.742  
  21082387.555  
  19805287.117   105944967.478                    82401627.331    19805291.055  
  19805285.305  
  23325037.805   124598129.145                    96909636.555    23325041.223  
  23325037.020  
  22356527.602   117484364.188    22356535.250    91546284.1484   22356535.273  
                
  24594422.930   129244525.978    24594434.812   100710051.2304   24594435.023  
                
  22891179.742   120293967.889    22891186.582    93735592.3984                 
                
  21830051.164   116366460.876                                                  
  21830050.438  
  22089238.875   116079755.015    22089247.129    90451801.4004   22089247.000  
                
  24794859.938   130297857.003    24794871.922   101530852.7474   24794870.973  
                
 21  8 15  6 30 10.0000000  0 18G15R20R 4G26R 2R 9G18R18G29R 3R19R16
                                G 5G25G16R10G23G10
  23915494.328   125676779.059    23915502.676    97929993.7334   23915502.590  
                
  22453551.344   120069251.811                    93387225.123    22453558.609  
  22453550.613  
  21802725.281   116752620.949                    90807598.014    21802729.715  
  21802724.266  
  21441543.977   112676085.985    21441554.199    87799586.9954   21441554.023  
                
  23328487.711   124485297.740                    96821884.055    23328492.789  
  23328486.062  
  21050786.945   112410038.028                    87430012.554    21050790.703  
  21050786.176  
  20249891.008   106413904.210    20249897.980    82919962.3974   20249898.000  
                
  21345521.562   113943822.281                    88622962.608    21345525.562  
  21345520.008  
  21233970.961   111585259.713    21233978.453    86949582.5234   21233978.523  
                
  21081791.484   112852455.053                    87774203.029    21081796.246  
  21081790.070  
  19805236.430   105944696.389                    82401416.476    19805240.367  
  19805234.629  
  23333069.258   124641032.423                    96943005.773    23333072.824  
  23333068.555  
  22361213.312   117508987.660    22361220.965    91565471.2694   22361220.988  
                
  24601787.891   129283228.945    24601799.781   100740209.3714   24601799.996  
                
  22886403.602   120268869.105    22886410.418    93716034.9174                 
                
  21827583.125   116353304.798                                                  
  21827582.387  
  22083297.906   116048535.103    22083306.094    90427474.2084   22083305.996  
                
  24787765.906   130260577.718    24787777.902   101501803.9714   24787776.949  
                
 21  8 15  6 30 20.0000000  0 18G15R20R 4G26R 2R 9G18R18G29R 3R19R16
                                G 5G25G16R10G23G10
  23910568.445   125650893.544    23910576.801    97909823.2524   23910576.691  
                
  22448460.016   120042026.490                    93366049.921    22448467.312  
  22448459.293  
  21795868.109   116715900.930                    90779038.009    21795872.469  
  21795867.094  
  21440923.602   112672825.865    21440933.824    87797046.6354   21440933.668  
                
  23334106.000   124515278.003                    96845202.003    23334111.043  
  23334104.344  
  21054899.250   112431997.416                    87447092.067    21054902.980  
  21054898.496  
  20248981.656   106409125.537    20248988.633    82916238.7524   20248988.660  
                
  21349864.891   113967007.149                    88640995.282    21349868.867  
  21349863.355  
  21237279.445   111602645.846    21237286.867    86963130.1614   21237286.957  
                
  21081210.766   112849346.402                    87771785.184    21081215.516  
  21081209.355  
  19805191.945   105944458.411                    82401231.382    19805195.879  
  19805190.145  
  23341102.125   124683943.012                    96976380.651    23341105.812  
  23341101.477  
  22365908.500   117533660.923    22365916.113    91584697.1804   22365916.148  
                
  24609153.188   129321933.755    24609165.094   100770368.9564   24609165.316  
                
  22881636.594   120243818.274    22881643.379    93696514.7984                 
                
  21825131.000   116340233.585                                                  
  21825130.258  
  22077363.906   116017351.728    22077372.035    90403175.4844   22077371.945  
                
  24780672.758   130223303.029    24780684.793   101472758.7844   24780683.828  
                
 21  8 15  6 30 30.0000000  0 18G15R20R 4G26R 2R 9G18R18G29R 3R19R16
                                G 5G25G16R10G23G10
  23905648.406   125625038.502    23905656.730    97889676.5034   23905656.609  
                
  22443371.180   120014813.885                    93344884.562    22443378.414  
  22443370.426  
  21789018.992   116679224.265                    90750511.740    21789023.332  
  21789017.977  
  21440315.484   112669630.152    21440325.711    87794556.4614   21440325.562  
                
  23339735.227   124545316.585                    96868565.342    23339740.234  
  23339733.566  
  21059025.336   112454030.480                    87464228.893    21059029.047  
  21059024.613  
  20248080.109   106404387.922    20248087.098    82912547.1104   20248087.125  
                
  21354211.539   113990209.817                    88659041.792    21354215.500  
  21354210.020  
  21240594.875   111620068.516    21240602.223    86976706.2594   21240602.340  
                
  21080646.820   112846327.530                    87769437.166    21080651.559  
  21080645.406  
  19805153.570   105944253.093                    82401071.702    19805157.508  
  19805151.754  
  23349136.359   124726860.324                    97009760.758    23349140.031  
  23349135.668  
  22370613.070   117558383.547    22370620.680    91603961.5574   22370620.703  
                
  24616518.758   129360640.004    24616530.664   100800529.6524   24616530.895  
                
  22876878.648   120218815.206    22876885.406    93677031.8884                 
                
  21822694.773   116327247.119                                                  
  21822694.055  
  22071436.805   115986204.644    22071444.887    90378905.0334   22071444.809  
                
  24773580.477   130186032.658    24773592.469   101443716.9624   24773591.547  
                
 21  8 15  6 30 40.0000000  0 18G15R20R 4G26R 2R 9G18R18G29R 3R19R16
                                G 5G25G16R10G23G10
  23900733.938   125599213.446    23900742.359    97869553.1314   23900742.203  
                
  22438284.602   119987613.504                    93323728.698    22438291.777  
  22438283.855  
  21782177.859   116642590.488                    90722018.829    21782182.195  
  21782176.867  
  21439719.500   112666498.200    21439729.738    87792115.9804   21439729.590  
                
  23345375.312   124575413.086                    96891973.699    23345380.309  
  23345373.621  
  21063165.094   112476136.477                    87481422.438    21063168.777  
  21063164.379  
  20247186.258   106399690.711    20247193.258    82908886.9534   20247193.277  
                
  21358561.430   114013429.761                    88677101.753    21358565.387  
  21358559.938  
  21243917.141   111637527.071    21243924.434    86990310.3324   21243924.570  
                
  21080099.484   112843397.622                    87767158.361    21080104.211  
  21080098.062  
  19805121.141   105944079.612                    82400936.782    19805125.090  
  19805119.312  
  23357171.820   124769783.586                    97043145.508    23357175.336  
  23357170.984  
  22375326.898   117583154.843    22375334.512    91623263.8644   22375334.520  
                
  24623884.453   129399346.960    24623896.387   100830690.9114   24623896.609  
                
  22872129.695   120193859.298    22872136.453    93657585.7394                 
                
  21820274.352   116314344.892                                                  
  21820273.652  
  22065516.516   115955093.323    22065524.594    90354662.4504   22065524.508  
                
  24766488.867   130148766.072    24766500.855   101414678.0984   24766499.973  
                
 21  8 15  6 30 50.0000000  0 18G15R20R 4G26R 2R 9G18R18G29R 3R19R16
                                G 5G25G16R10G23G10
  23895825.602   125573420.205    23895834.023    97849454.5394   23895833.844  
                
  22433200.648   119960427.056                    93302583.693    22433207.730  
  22433199.867  
  21775345.094   116606001.449                    90693560.723    21775349.430  
  21775344.109  
  21439135.984   112663431.806    21439146.234    87789726.5754   21439146.078  
                
  23351026.523   124605568.987                    96915428.263    23351031.504  
  23351024.789  
  21067318.805   112498316.999                    87498673.949    21067322.480  
  21067318.082  
  20246300.422   106395035.639    20246307.438    82905259.6204   20246307.449  
                
  21362914.891   114036668.777                    88695176.530    21362918.859  
  21362913.375  
  21247246.570   111655023.296    21247253.805    87003943.7514   21247253.969  
                
  21079569.133   112840558.562                    87764950.185    21079573.828  
  21079567.707  
  19805095.039   105943939.935                    82400828.129    19805098.984  
  19805093.180  
  23365208.656   124812714.609                    97076536.270    23365212.125  
  23365207.734  
  22380050.289   117607976.380    22380057.887    91642605.3174   22380057.883  
                
  24631250.516   129438056.275    24631262.539   100860853.9974   24631262.770  
                
  22867390.086   120168952.471    22867396.793    93638177.8094                 
                
  21817870.023   116301528.533                                                  
  21817869.324  
  22059603.359   115924019.580    22059611.453    90330449.1604   22059611.348  
                
  24759398.414   130111505.101    24759410.266   101385643.5994   24759409.445  
                
 21  8 15  6 31  0.0000000  0 18G15R20R 4G26R 2R 9G18R18G29R 3R19R16
                                G 5G25G16R10G23G10
  23890923.289   125547658.861    23890931.734    97829380.8184   23890931.570  
                
  22428119.336   119933254.559                    93281449.498    22428126.285  
  22428118.512  
  21768520.734   116569457.430                    90665137.598    21768525.031  
  21768519.762  
  21438564.945   112660430.916    21438575.215    87787388.2244   21438575.035  
                
  23356688.891   124635784.372                    96938929.123    23356693.859  
  23356687.152  
  21071486.461   112520571.975                    87515983.377    21071490.156  
  21071485.727  
  20245422.594   106390422.631    20245429.629    82901665.0704   20245429.629  
                
  21367271.883   114059926.674                    88713265.979    21367275.836  
  21367270.340  
  21250583.156   111672557.124    21250590.344    87017606.4854   21250590.512  
                
  21079055.711   112837810.201                    87762812.584    21079060.398  
  21079054.309  
  19805075.195   105943833.767                    82400745.571    19805079.133  
  19805073.320  
  23373246.781   124855652.782                    97109932.602    23373250.281  
  23373245.895  
  22384783.234   117632848.118    22384790.820    91661985.8854   22384790.816  
                
  24638617.039   129476767.846    24638629.102   100891018.8504   24638629.344  
                
  22862659.805   120144094.712    22862666.480    93618808.1314                 
                
  21815481.844   116288798.193                                                  
  21815481.137  
  22053697.359   115892983.458    22053705.484    90306265.1924   22053705.359  
                
  24752309.039   130074249.796    24752320.711   101356613.4974   24752319.953  
                
 21  8 15  6 31 10.0000000  0 18G15R20R 4G26R 2R 9G18R18G29R 3R19R16
                                G 5G25G16R10G23G10
  23886026.984   125521929.074    23886035.512    97809331.6894   23886035.336  
                
  22423040.398   119906095.344                    93260325.701    22423047.344  
  22423039.570  
  21761704.695   116532957.894                    90636749.063    21761708.938  
  21761703.730  
  21438006.266   112657495.051    21438016.539    87785100.5354   21438016.355  
                
  23362362.195   124666058.159                    96962475.398    23362367.145  
  23362360.430  
  21075667.938   112542900.736                    87533350.175    21075671.609  
  21075667.203  
  20244552.664   106385851.165    20244559.719    82898102.8904   20244559.711  
                
  21371632.344   114083203.065                    88731369.841    21371636.270  
  21371630.801  
  21253926.805   111690128.057    21253933.965    87031298.1154   21253934.145  
                
  21078559.180   112835152.199                    87760745.262    21078563.852  
  21078557.785  
  19805061.516   105943760.656                    82400688.695    19805065.449  
  19805059.652  
  23381286.094   124898597.648                    97143334.128    23381289.680  
  23381285.305  
  22389525.625   117657769.497    22389533.188    91681405.1414   22389533.203  
                
  24645983.867   129515481.051    24645995.953   100921184.9654   24645996.207  
                
  22857938.797   120119285.651    22857945.445    93599476.4074                 
                
  21813109.727   116276153.544                                                  
  21813108.977  
  22047798.445   115861984.569    22047806.578    90282110.2224   22047806.438  
                
  24745220.664   130036999.711    24745232.113   101327587.4704   24745231.426  
                
 21  8 15  6 31 20.0000000  0 18G15R20R 4G26R 2R 9G18R18G29R 3R19R16
                                G 5G25G16R10G23G10
  23881136.633   125496230.468    23881145.242    97789306.8494   23881145.047  
                
  22417963.820   119878948.994                    93239211.899    22417970.848  
  22417963.059  
  21754896.914   116496502.653                    90608395.012    21754901.148  
  21754895.957  
  21437459.875   112654623.707    21437470.148    87782863.1194   21437469.965  
                
  23368046.336   124696389.741                    96986066.620    23368051.273  
  23368044.621  
  21079863.102   112565302.609                    87550773.840    21079866.766  
  21079862.371  
  20243690.547   106381320.715    20243697.617    82894572.6744   20243697.594  
                
  21375996.148   114106497.329                    88749487.608    21376000.066  
  21375994.578  
  21257277.422   111707735.581    21257284.582    87045018.2634   21257284.750  
                
  21078079.406   112832583.931                    87758747.723    21078084.051  
  21078078.020  
  19805053.938   105943720.127                    82400657.177    19805057.863  
  19805052.062  
  23389326.609   124941548.794                    97176740.549    23389330.293  
  23389325.863  
  22394277.336   117682739.864    22394284.855    91700862.5754   22394284.891  
                
  24653350.828   129554195.307    24653363.000   100951351.9094   24653363.289  
                
  22853226.984   120094524.818    22853233.617    93580182.2534                 
                
  21810753.562   116263593.906                                                  
  21810752.809  
  22041906.539   115831022.463    22041914.648    90257983.9224   22041914.531  
                
  24738133.164   129999754.419    24738144.398   101298565.1714   24738143.793  
                
 21  8 15  6 31 30.0000000  0 18G15R20R 4G26R 2R 9G18R18G29R 3R19R16
                                G 5G25G16R10G23G10
  23876252.273   125470563.222    23876260.918    97769306.4394   23876260.742  
                
  22412889.688   119851815.541                    93218108.102    22412896.781  
  22412888.922  
  21748097.422   116460091.840                    90580075.526    21748101.664  
  21748096.438  
  21436925.773   112651816.973    21436936.051    87780676.0494   21436935.875  
                
  23373741.297   124726779.001                    97009702.673    23373746.219  
  23373739.621  
  21084071.938   112587777.537                    87568254.330    21084075.617  
  21084071.184  
  20242836.250   106376831.356    20242843.336    82891074.4754   20242843.309  
                
  21380363.305   114129809.607                    88767619.369    21380367.227  
  21380361.738  
  21260635.000   111725379.708    21260642.184    87058766.9284   21260642.332  
                
  21077616.430   112830105.631                    87756820.147    21077621.059  
  21077615.043  
  19805052.492   105943712.332                    82400651.118    19805056.418  
  19805050.617  
  23397368.289   124984505.883                    97210151.608    23397371.973  
  23397367.539  
  22399038.391   117707759.260    22399045.852    91720358.2074   22399045.891  
                
  24660718.062   129592910.594    24660730.234   100981519.6514   24660730.539  
                
  22848524.375   120069812.408    22848531.008    93560925.8374                 
                
  21808413.414   116251119.636                                                  
  21808412.645  
  22036021.664   115800097.343    22036029.746    90233886.4354   22036029.664  
                
  24731046.570   129962514.095    24731057.637   101269546.7454   24731057.109  
                
 21  8 15  6 31 40.0000000  0 18G15R20R 4G26R 2R 9G18R18G29R 3R19R16
                                G 5G25G16R10G23G10
  23871373.984   125444928.244    23871382.691    97749331.1844   23871382.562  
                
  22407818.133   119824695.877                    93197015.034    22407825.293  
  22407817.336  
  21741306.438   116423726.510                    90551791.391    21741310.688  
  21741305.453  
  21436404.125   112649075.665    21436414.402    87778539.9624   21436414.230  
                
  23379447.195   124757226.673                    97033384.175    23379452.141  
  23379445.555  
  21088294.586   112610326.187                    87585792.154    21088298.258  
  21088293.840  
  20241989.922   106372383.868    20241997.016    82887608.9024   20241996.988  
                
  21384733.992   114153140.640                    88785765.725    21384737.930  
  21384732.387  
  21263999.695   111743061.244    21264006.914    87072544.7454   21264007.051  
                
  21077170.430   112827718.133                    87754963.210    21077175.035  
  21077169.047  
  19805057.320   105943738.117                    82400671.168    19805061.227  
  19805055.453  
  23405411.227   125027469.610                    97243567.826    23405414.906  
  23405410.441  
  22403808.883   117732828.339    22403816.309    91739892.5464   22403816.344  
                
  24668085.594   129631627.629    24668097.824   101011688.7524   24668098.141  
                
  22843831.148   120045149.340    22843837.746    93541707.8424                 
                
  21806089.383   116238731.230                                                  
  21806088.605  
  22030144.000   115769210.081    22030152.090    90209818.4514   22030152.020  
                
  24723961.070   129925279.628    24723971.980   101240532.8984   24723971.531  
                
 21  8 15  6 31 50.0000000  0 18G15R20R 4G26R 2R 9G18R18G29R 3R19R16
                                G 5G25G16R10G23G10
  23866501.836   125419325.247    23866510.551    97729380.8374   23866510.445  
                
  22402749.133   119797589.699                    93175932.474    22402756.301  
  22402748.316  
  21734523.938   116387406.466                    90523542.466    21734528.148  
  21734522.934  
  21435894.844   112646399.387    21435905.137    87776454.5584   21435904.957  
                
  23385163.961   124787732.342                    97057110.794    23385168.879  
  23385162.359  
  21092530.969   112632948.191                    87603387.043    21092534.641  
  21092530.223  
  20241151.477   106367977.843    20241158.574    82884175.6384   20241158.543  
                
  21389108.125   114176490.092                    88803926.407    21389112.059  
  21389106.500  
  21267371.438   111760779.816    21267378.695    87086351.4224   21267378.809  
                
  21076741.289   112825420.898                    87753176.458    21076745.859  
  21076739.922  
  19805068.305   105943796.864                    82400716.864    19805072.195  
  19805066.430  
  23413455.312   125070439.402                    97276988.777    23413458.930  
  23413454.480  
  22408588.727   117757946.558    22408596.137    91759465.1774   22408596.172  
                
  24675453.430   129670345.938    24675465.648   101041858.8494   24675465.992  
                
  22839147.250   120020535.318    22839153.797    93522528.0914                 
                
  21803781.453   116226428.745                                                  
  21803780.695  
  22024273.477   115738360.367    22024281.594    90185779.7314   22024281.516  
                
  24716876.648   129888050.704    24716887.414   101211523.3604   24716887.039  
                
 21  8 15  6 32  0.0000000  0 18G15R20R 4G26R 2R 9G18R18G29R 3R19R16
                                G 5G25G16R10G23G10
  23861635.688   125393753.819    23861644.445    97709455.0924   23861644.352  
                
  22397682.523   119770496.370                    93154859.903    22397689.688  
  22397681.707  
  21727749.797   116351131.170                    90495328.346    21727753.949  
  21727748.801  
  21435397.859   112643787.660    21435408.164    87774419.4444   21435407.984  
                
  23390891.531   124818295.610                    97080882.200    23390896.441  
  23390889.930  
  21096780.930   112655642.692                    87621038.322    21096784.586  
  21096780.188  
  20240320.820   106363612.730    20240327.918    82880774.2544   20240327.891  
                
  21393485.602   114199857.354                    88822100.935    21393489.531  
  21393483.969  
  21270750.125   111778534.882    21270757.410    87100186.5344   21270757.500  
                
  21076328.953   112823213.594                    87751459.667    21076333.492  
  21076327.605  
  19805085.352   105943888.052                    82400787.798    19805089.242  
  19805083.496  
  23421500.438   125113414.687                    97310413.972    23421503.980  
  23421499.551  
  22413377.844   117783113.551    22413385.227    91779075.8204   22413385.285  
                
  24682821.438   129709064.890    24682833.598   101072029.4514   24682833.938  
                
  22834472.594   119995969.863    22834479.125    93503386.1884                 
                
  21801489.570   116214211.702                                                  
  21801488.785  
  22018410.023   115707547.778    22018418.156    90161769.9374   22018418.074  
                
  24709793.109   129850826.850    24709803.848   101182517.7944   24709803.535  
                
 21  8 15  6 32 10.0000000  0 18G15R20R 4G26R 2R 9G18R18G29R 3R19R16
                                G 5G25G16R10G23G10
  23856775.695   125368214.803    23856784.582    97689554.6244   23856784.449  
                
  22392618.461   119743416.586                    93133797.890    22392625.648  
  22392617.652  
  21720984.219   116314901.796                    90467149.965    21720988.340  
  21720983.230  
  21434913.289   112641241.226    21434923.609    87772435.2074   21434923.410  
                
  23396629.930   124848916.682                    97104698.574    23396634.789  
  23396628.344  
  21101044.609   112678410.416                    87638746.537    21101048.254  
  21101043.855  
  20239498.094   106359289.268    20239505.203    82877405.3244   20239505.168  
                
  21397866.547   114223243.109                    88840289.855    21397870.480  
  21397864.910  
  21274135.906   111796327.222    21274143.223    87114050.6924   21274143.301  
                
  21075933.531   112821096.857                    87749813.332    21075938.074  
  21075932.195  
  19805108.633   105944012.594                    82400884.668    19805112.527  
  19805106.789  
  23429546.719   125156396.028                    97343843.896    23429550.199  
  23429545.793  
  22418176.328   117808329.724    22418183.672    91798724.7794   22418183.770  
                
  24690189.688   129747785.166    24690201.801   101102201.0794   24690202.168  
                
  22829807.344   119971453.810    22829813.875    93484282.7874                 
                
  21799213.867   116202080.932                                                  
  21799213.082  
  22012553.797   115676773.158    22012561.930    90137789.7274   22012561.844  
                
  24702710.703   129813608.937    24702721.426   101153516.8654   24702721.160  
                
 21  8 15  6 32 20.0000000  0 18G15R20R 4G26R 2R 9G18R18G29R 3R19R16
                                G 5G25G16R10G23G10
  23851921.828   125342707.574    23851930.785    97669678.9144   23851930.605  
                
  22387556.781   119716349.773                    93112745.924    22387563.973  
  22387555.941  
  21714227.039   116278717.444                    90439006.586    21714231.160  
  21714226.055  
  21434440.992   112638759.225    21434451.312    87770501.1744   21434451.113  
                
  23402379.016   124879594.787                    97128559.319    23402383.832  
  23402377.438  
  21105321.789   112701250.292                    87656510.863    21105325.414  
  21105321.043  
  20238683.125   106355006.577    20238690.250    82874068.1684   20238690.203  
                
  21402250.812   114246646.588                    88858492.554    21402254.762  
  21402249.172  
  21277528.609   111814155.944    21277535.941    87127943.1934   21277535.996  
                
  21075554.875   112819069.852                    87748236.774    21075559.391  
  21075553.539  
  19805137.992   105944169.613                    82401006.792    19805141.879  
  19805136.160  
  23437593.883   125199382.298                    97377277.645    23437597.395  
  23437592.945  
  22422984.000   117833594.182    22422991.344    91818411.3604   22422991.430  
                
  24697558.023   129786505.832    24697570.086   101132373.0134   24697570.465  
                
  22825151.328   119946986.331    22825157.879    93465217.2204                 
                
  21796954.102   116190035.140                                                  
  21796953.281  
  22006704.641   115646035.716    22006712.766    90113838.4884   22006712.676  
                
  24695629.312   129776396.163    24695640.000   101124519.9414   24695639.766  
                
 21  8 15  6 32 30.0000000  0 18G15R20R 4G26R 2R 9G18R18G29R 3R19R16
                                G 5G25G16R10G23G10
  23847074.133   125317232.942    23847083.152    97649828.5874   23847082.953  
                
  22382497.703   119689296.444                    93091704.415    22382504.789  
  22382496.793  
  21707478.469   116242579.072                    90410898.987    21707482.590  
  21707477.484  
  21433981.094   112636342.438    21433991.410    87768617.9614   21433991.207  
                
  23408138.875   124910330.351                    97152464.715    23408143.688  
  23408137.211  
  21109612.617   112724163.030                    87674331.878    21109616.223  
  21109611.879  
  20237876.055   106350765.395    20237883.195    82870763.3534   20237883.145  
                
  21406638.523   114270068.448                    88876709.563    21406642.461  
  21406636.875  
  21280928.375   111832021.801    21280935.715    87141864.6404   21280935.770  
                
  21075193.141   112817133.449                    87746730.691    21075197.629  
  21075191.809  
  19805173.531   105944359.730                    82401154.666    19805177.418  
  19805171.719  
  23445642.102   125242374.272                    97410715.839    23445645.621  
  23445641.156  
  22427800.984   117858907.515    22427808.332    91838136.0404   22427808.402  
                
  24704926.555   129825227.502    24704938.555   101162545.7404   24704938.949  
                
  22820504.750   119922568.414    22820511.316    93446190.2704                 
                
  21794710.531   116178075.642                                                  
  21794709.684  
  22000862.719   115615336.292    22000870.832    90089916.8814   22000870.742  
                
  24688549.039   129739189.374    24688559.711   101095527.6834   24688559.512  
                
 21  8 15  6 32 40.0000000  0 18G15R20R 4G26R 2R 9G18R18G29R 3R19R16
                                G 5G25G16R10G23G10
  23842232.617   125291790.634    23842241.629    97630003.4744   23842241.426  
                
  22377441.109   119662256.363                    93070673.223    22377448.078  
  22377440.191  
  21700738.445   116206486.588                    90382827.072    21700742.578  
  21700737.465  
  21433533.539   112633990.531    21433543.844    87766785.3024   21433543.633  
                
  23413909.391   124941122.926                    97176414.486    23413914.211  
  23413907.691  
  21113916.984   112747148.113                    87692209.161    21113920.590  
  21113916.234  
  20237076.812   106346565.355    20237083.969    82867490.5984   20237083.918  
                
  21411029.602   114293508.294                    88894940.546    21411033.535  
  21411027.926  
  21284335.125   111849924.390    21284342.488    87155814.6994   21284342.527  
                
  21074848.273   112815287.312                    87745294.812    21074852.727  
  21074846.957  
  19805215.234   105944582.825                    82401328.176    19805219.121  
  19805213.438  
  23453691.227   125285371.272                    97444157.917    23453694.750  
  23453690.289  
  22432627.180   117884269.345    22432634.523    91857898.5054   22432634.586  
                
  24712295.203   129863949.827    24712307.152   101192718.9584   24712307.570  
                
  22815867.562   119898199.827    22815874.129    93427201.7724                 
                
  21792483.055   116166202.010                                                  
  21792482.168  
  21995028.000   115584674.665    21995036.094    90066024.7104   21995036.020  
                
  24681469.883   129701988.338    24681480.520   101066539.8984   24681480.340  
                
 21  8 15  6 32 50.0000000  0 18G15R20R 4G26R 2R 9G18R18G29R 3R19R16
                                G 5G25G16R10G23G10
  23837397.242   125266381.033    23837406.238    97610203.8104   23837406.086  
                
  22372386.992   119635229.670                    93049652.501    22372393.930  
  22372386.066  
  21694007.023   116170440.285                    90354791.059    21694011.164  
  21694006.059  
  21433098.367   112631703.698    21433108.656    87765003.3564   21433108.453  
                
  23419690.594   124971972.545                    97200408.618    23419695.418  
  23419688.914  
  21118234.898   112770205.568                    87710142.731    21118238.500  
  21118234.125  
  20236285.430   106342406.643    20236292.590    82864250.0464   20236292.527  
                
  21415424.117   114316966.547                    88913185.844    21415428.059  
  21415422.445  
  21287748.906   111867863.924    21287756.289    87169793.5504   21287756.312  
                
  21074520.305   112813531.665                    87743929.304    21074524.727  
  21074519.000  
  19805263.078   105944838.805                    82401527.286    19805266.961  
  19805261.289  
  23461741.383   125328373.439                    97477604.027    23461744.852  
  23461740.426  
  22437462.633   117909679.810    22437469.965    91877698.8594   22437470.027  
                
  24719663.977   129902672.833    24719675.883   101222892.7234   24719676.336  
                
  22811239.805   119873880.817    22811246.406    93408251.9004                 
                
  21790271.711   116154414.390                                                  
  21790270.801  
  21989200.516   115554051.101    21989208.602    90042162.2034   21989208.535  
                
  24674391.898   129664793.319    24674402.492   101037556.8014   24674402.316  
                
 21  8 15  6 33  0.0000000  0 18G15R20R 4G26R 2R 9G18R18G29R 3R19R16
                                G 5G25G16R10G23G10
  23832568.133   125241004.008    23832577.000    97590429.5304   23832576.902  
                
  22367335.344   119608216.129                    93028641.979    22367342.266  
  22367334.418  
  21687284.258   116134440.080                    90326790.905    21687288.398  
  21687283.316  
  21432675.539   112629481.721    21432685.828    87763271.9394   21432685.641  
                
  23425482.484   125002879.163                    97224447.075    23425487.320  
  23425480.824  
  21122566.328   112793335.088                    87728132.338    21122569.910  
  21122565.543  
  20235501.867   106338288.989    20235509.020    82861041.4884   20235508.957  
                
  21419822.016   114340442.793                    88931445.128    21419825.973  
  21419820.328  
  21291169.680   111885840.190    21291177.066    87183801.0164   21291177.082  
                
  21074209.195   112811866.275                    87742633.983    21074213.590  
  21074207.891  
  19805317.070   105945127.611                    82401751.911    19805320.953  
  19805315.289  
  23469792.422   125371380.370                    97511053.853    23469795.891  
  23469791.461  
  22442307.258   117935138.472    22442314.582    91897536.7704   22442314.621  
                
  24727032.789   129941396.234    24727044.695   101253066.7874   24727045.164  
                
  22806621.453   119849611.186    22806628.117    93389340.5034                 
                
  21788076.500   116142712.721                                                  
  21788075.586  
  21983380.242   115523465.446    21983388.316    90018329.2394   21983388.254  
                
  24667315.047   129627604.137    24667325.586   101008578.2574   24667325.418  
                
 21  8 15  6 33 10.0000000  0 18G15R20R 4G26R 2R 9G18R18G29R 3R19R16
                                G 5G25G16R10G23G10
  23827745.312   125215659.894    23827754.039    97570680.8844   23827753.965  
                
  22362286.156   119581215.987                    93007641.890    22362293.086  
  22362285.238  
  21680570.180   116098486.455                    90298826.988    21680574.316  
  21680569.246  
  21432265.102   112627324.824    21432275.391    87761591.2354   21432275.219  
                
  23431285.023   125033842.400                    97248529.571    23431289.812  
  23431283.320  
  21126911.273   112816536.829                    87746178.134    21126914.836  
  21126910.488  
  20234726.164   106334212.614    20234733.305    82857865.0884   20234733.254  
                
  21424223.320   114363937.259                    88949718.608    21424227.305  
  21424221.637  
  21294597.477   111903853.334    21294604.875    87197837.2324   21294604.902  
                
  21073915.000   112810291.400                    87741409.073    21073919.371  
  21073913.707  
  19805377.250   105945449.481                    82402002.258    19805381.129  
  19805375.469  
  23477844.336   125414392.346                    97544507.583    23477847.875  
  23477843.465  
  22447161.070   117960645.461    22447168.398    91917412.3394   22447168.434  
                
  24734401.750   129980120.139    24734413.629   101283241.2464   24734414.090  
                
  22802012.539   119825391.243    22802019.227    93370467.8214                 
                
  21785897.453   116131097.222                                                  
  21785896.574  
  21977567.250   115492918.015    21977575.324    89994526.0604   21977575.254  
                
  24660239.312   129590421.112    24660249.875   100979604.5044   24660249.715  
                
 21  8 15  6 33 20.0000000  0 18G15R20R 4G26R 2R 9G18R18G29R 3R19R16
                                G 5G25G16R10G23G10
  23822928.703   125190348.628    23822937.297    97550957.8444   23822937.250  
                
  22357239.484   119554229.117                    92986652.098    22357246.398  
  22357238.539  
  21673864.773   116062579.366                    90270899.264    21673868.914  
  21673863.832  
  21431867.016   112625232.863    21431877.305    87759961.1364   21431877.137  
                
  23437098.219   125064862.080                    97272655.957    23437102.883  
  23437096.391  
  21131269.672   112839810.409                    87764279.810    21131273.223  
  21131268.883  
  20233958.273   106330177.330    20233965.402    82854720.7184   20233965.363  
                
  21428627.984   114387449.652                    88968006.020    21428631.992  
  21428626.301  
  21298032.258   111921903.264    21298039.668    87211902.1014   21298039.691  
                
  21073637.672   112808806.847                    87740254.424    21073642.035  
  21073636.379  
  19805443.539   105945804.139                    82402278.106    19805447.426  
  19805441.762  
  23485897.039   125457408.593                    97577964.634    23485900.637  
  23485896.246  
  22452024.070   117986200.692    22452031.418    91937325.5004   22452031.434  
                
  24741770.836   130018844.344    24741782.629   101313415.9374   24741783.086  
                
  22797413.078   119801220.919    22797419.766    93351633.8124                 
                
  21783734.578   116119567.923                                                  
  21783733.719  
  21971761.516   115462408.749    21971769.570    89970752.6244   21971769.492  
                
  24653164.688   129553244.174    24653175.316   100950635.5084   24653175.176  
                
 21  8 15  6 33 30.0000000  0 18G15R20R 4G26R 2R 9G18R18G29R 3R19R16
                                G 5G25G16R10G23G10
  23818118.398   125165070.432    23818126.926    97531260.5654   23818126.871  
                
  22352195.297   119527255.631                    92965672.754    22352202.234  
  22352194.367  
  21667168.102   116026718.975                    90243007.858    21667172.230  
  21667167.168  
  21431481.289   112623205.835    21431491.582    87758381.6294   21431491.402  
                
  23442922.055   125095938.574                    97296826.553    23442926.617  
  23442920.148  
  21135641.508   112863155.719                    87782437.255    21135645.051  
  21135640.738  
  20233198.195   106326183.115    20233205.316    82851608.3374   20233205.281  
                
  21433036.047   114410980.191                    88986307.548    21433040.062  
  21433034.371  
  21301474.047   111939989.925    21301481.445    87225995.5934   21301481.477  
                
  21073377.219   112807412.607                    87739170.020    21073381.559  
  21073375.926  
  19805515.969   105946191.603                    82402579.464    19805519.855  
  19805514.180  
  23493950.797   125500429.429                    97611425.256    23493954.281  
  23493949.879  
  22456896.211   118011803.947    22456903.566    91957276.0744   22456903.574  
                
  24749139.844   130057568.708    24749151.668   101343590.7534   24749152.109  
                
  22792823.078   119777100.301    22792829.750    93332838.5244                 
                
  21781587.836   116108124.635                                                  
  21781586.973  
  21965963.070   115431937.707    21965971.098    89947008.9604   21965971.020  
                
  24646091.266   129516073.377    24646101.938   100921671.2834   24646101.812  
                
 21  8 15  6 33 40.0000000  0 18G15R20R 4G26R 2R 9G18R18G29R 3R19R16
                                G 5G25G16R10G23G10
  23813314.453   125139825.394    23813322.891    97511589.1314   23813322.805  
                
  22347153.648   119500295.468                    92944703.730    22347160.559  
  22347152.727  
  21660480.203   115990905.465                    90215152.920    21660484.297  
  21660479.289  
  21431107.930   112621243.815    21431118.223    87756852.7784   21431118.047  
                
  23448756.328   125127071.029                    97321040.666    23448760.840  
  23448754.383  
  21140026.773   112886572.743                    87800650.505    21140030.328  
  21140026.020  
  20232445.945   106322230.026    20232453.059    82848528.0164   20232453.027  
                
  21437447.469   114434528.618                    89004622.991    21437451.484  
  21437445.789  
  21304922.828   111958113.406    21304930.219    87240117.7854   21304930.270  
                
  21073133.648   112806108.758                    87738155.934    21073137.973  
  21073132.352  
  19805594.555   105946612.035                    82402906.468    19805598.449  
  19805592.773  
  23502005.148   125543454.556                    97644889.205    23502008.699  
  23502004.277  
  22461777.484   118037455.197    22461784.852    91977264.0614   22461784.836  
                
  24756508.867   130096293.246    24756520.742   101373765.7054   24756521.176  
                
  22788242.586   119753029.617    22788249.277    93314082.1524                 
                
  21779457.289   116096767.633                                                  
  21779456.434  
  21960171.922   115401505.074    21960179.938    89923295.2324   21960179.867  
                
  24639019.109   129478908.920    24639029.746   100892712.0124   24639029.652  
                
 21  8 15  6 33 50.0000000  0 18G15R20R 4G26R 2R 9G18R18G29R 3R19R16
                                G 5G25G16R10G23G10
  23808516.828   125114613.827    23808525.207    97491943.7724   23808525.094  
                
  22342114.430   119473348.706                    92923745.160    22342121.414  
  22342113.527  
  21653801.094   115955139.108                    90187334.651    21653805.191  
  21653800.172  
  21430746.961   112619346.899    21430757.250    87755374.6614   21430757.074  
                
  23454601.141   125158259.786                    97345298.579    23454605.617  
  23454599.223  
  21144425.438   112910061.266                    87818919.346    21144428.992  
  21144424.688  
  20231701.531   106318318.121    20231708.637    82845479.7804   20231708.617  
                
  21441862.305   114458095.304                    89022952.618    21441866.328  
  21441860.637  
  21308378.656   111976273.843    21308386.043    87254268.7594   21308386.086  
                
  21072906.992   112804895.490                    87737212.276    21072911.320  
  21072905.668  
  19805679.320   105947065.491                    82403259.153    19805683.242  
  19805677.562  
  23510060.320   125586483.638                    97678356.246    23510063.852  
  23510059.457  
  22466667.891   118063154.432    22466675.254    91997289.4404   22466675.246  
                
  24763877.922   130135017.936    24763889.832   101403940.7684   24763890.262  
                
  22783671.602   119729008.984    22783678.336    93295364.7904                 
                
  21777342.945   116085496.982                                                  
  21777342.023  
  21954388.117   115371111.004    21954396.125    89899611.5504   21954396.051  
                
  24631948.172   129441750.947    24631958.785   100863757.7724   24631958.691  
                
 21  8 15  6 34  0.0000000  0 18G15R20R 4G26R 2R 9G18R18G29R 3R19R16
                                G 5G25G16R10G23G10
  23803725.523   125089435.645    23803733.852    97472324.4174   23803733.750  
                
  22337077.734   119446415.339                    92902797.008    22337084.742  
  22337076.773  
  21647130.836   115919420.131                    90159553.229    21647134.922  
  21647129.902  
  21430398.367   112617515.030    21430408.645    87753947.2284   21430408.473  
                
  23460456.500   125189504.547                    97369600.033    23460460.887  
  23460454.520  
  21148837.477   112933621.227                    87837243.738    21148841.035  
  21148836.695  
  20230964.945   106314447.325    20230972.043    82842463.5814   20230972.043  
                
  21446280.516   114481679.932                    89041296.221    21446284.492  
  21446278.863  
  21311841.484   111994471.109    21311848.871    87268448.4464   21311848.922  
                
  21072697.242   112803772.738                    87736339.031    21072701.566  
  21072695.883  
  19805770.234   105947551.847                    82403637.423    19805774.168  
  19805768.488  
  23518116.211   125629516.832                    97711826.493    23518119.750  
  23518115.426  
  22471567.406   118088901.544    22471574.738    92017352.1214   22471574.738  
                
  24771247.031   130173742.633    24771258.922   101434115.8374   24771259.348  
                
  22779110.148   119705038.428    22779116.910    93276686.4374                 
                
  21775244.797   116074312.716                                                  
  21775243.871  
  21948611.656   115340755.515    21948619.641    89875957.9374   21948619.562  
                
  24624878.539   129404599.482    24624889.098   100834808.6104   24624888.992  
                
 21  8 15  6 34 10.0000000  0 18G15R20R 4G26R 2R 9G18R18G29R 3R19R16
                                G 5G25G16R10G23G10
  23798940.555   125064290.983    23798948.910    97452731.1874   23798948.805  
                
  22332043.594   119419495.401                    92881859.257    22332050.566  
  22332042.633  
  21640469.453   115883748.519                    90131808.659    21640473.496  
  21640468.535  
  21430062.156   112615748.217    21430072.418    87752570.4914   21430072.254  
                
  23466322.258   125220805.168                    97393944.907    23466326.648  
  23466320.270  
  21153262.867   112957252.451                    87855623.565    21153266.441  
  21153262.066  
  20230236.180   106310617.625    20230243.273    82839479.4034   20230243.273  
                
  21450702.125   114505282.716                    89059653.933    21450706.094  
  21450700.441  
  21315311.289   112012705.044    21315318.668    87282656.6974   21315318.719  
                
  21072504.414   112802740.513                    87735536.170    21072508.727  
  21072503.062  
  19805867.320   105948071.158                    82404041.348    19805871.262  
  19805865.574  
  23526172.961   125672554.112                    97745299.916    23526176.449  
  23526172.145  
  22476476.008   118114696.375    22476483.281    92037452.0004   22476483.305  
                
  24778616.094   130212467.232    24778627.984   101464290.8364   24778628.422  
                
  22774558.250   119681118.028    22774565.031    93258047.1744                 
                
  21773162.891   116063214.981                                                  
  21773162.016  
  21942842.555   115310438.709    21942850.492    89852334.4594   21942850.426  
                
  24617810.148   129367454.604    24617820.676   100805864.5704   24617820.551  
                
 21  8 15  6 34 20.0000000  0 18G15R20R 4G26R 2R 9G18R18G29R 3R19R16
                                G 5G25G16R10G23G10
  23794161.984   125039179.829    23794170.387    97433164.0794   23794170.254  
                
  22327011.898   119392588.878                    92860931.977    22327018.867  
  22327010.879  
  21633816.922   115848124.372                    90104100.999    21633820.930  
  21633816.027  
  21429738.305   112614046.370    21429748.555    87751244.3714   21429748.387  
                
  23472198.477   125252161.562                    97418333.200    23472202.879  
  23472196.492  
  21157701.555   112980954.754                    87874058.676    21157705.129  
  21157700.754  
  20229515.203   106306828.885    20229522.289    82836527.1404   20229522.297  
                
  21455127.062   114528903.311                    89078025.501    21455131.016  
  21455125.391  
  21318788.062   112030975.586    21318795.449    87296893.4774   21318795.516  
                
  21072328.477   112801798.681                    87734803.642    21072332.797  
  21072327.129  
  19805970.555   105948623.364                    82404470.834    19805974.492  
  19805968.820  
  23534230.305   125715595.043                    97778776.176    23534233.836  
  23534229.508  
  22481393.641   118140538.662    22481400.914    92057588.8454   22481400.934  
                
  24785985.148   130251191.574    24785997.016   101494465.6384   24785997.453  
                
  22770015.898   119657247.793    22770022.680    93239446.9874                 
                
  21771097.141   116052203.424                                                  
  21771096.285  
  21937080.820   115280160.578    21937088.750    89828741.1284   21937088.695  
                
  24610742.984   129330316.286    24610753.500   100776925.6464   24610753.348  
                
 21  8 15  6 34 30.0000000  0 18G15R20R 4G26R 2R 9G18R18G29R 3R19R16
                                G 5G25G16R10G23G10
  23789389.906   125014102.534    23789398.348    97413623.3624   23789398.207  
                
  22321982.727   119365695.667                    92840015.021    22321989.688  
  22321981.684  
  21627173.344   115812548.201                    90076430.633    21627177.305  
  21627172.445  
  21429426.852   112612409.681    21429437.094    87749969.0314   21429436.918  
                
  23478085.125   125283573.727                    97442764.853    23478089.539  
  23478083.207  
  21162153.570   113004728.204                    87892549.138    21162157.148  
  21162152.770  
  20228802.070   106303081.300    20228809.152    82833606.9444   20228809.160  
                
  21459555.383   114552541.977                    89096411.127    21459559.352  
  21459553.715  
  21322271.859   112049283.034    21322279.273    87311159.0124   21322279.332  
                
  21072169.461   112800947.416                    87734141.545    21072173.805  
  21072168.105  
  19806079.930   105949208.422                    82404925.884    19806083.859  
  19806078.203  
  23542288.211   125758639.400                    97812255.098    23542291.836  
  23542287.465  
  22486320.336   118166428.545    22486327.656    92077762.7714   22486327.621  
                
  24793354.188   130289915.752    24793366.004   101524640.2994   24793366.453  
                
  22765483.133   119633427.932    22765489.914    93220886.0634                 
                
  21769047.703   116041278.737                                                  
  21769046.879  
  21931326.492   115249921.403    21931334.430    89805178.1414   21931334.363  
                
  24603677.078   129293184.797    24603687.676   100747992.0394   24603687.453  
                
 21  8 15  6 34 40.0000000  0 18G15R20R 4G26R 2R 9G18R18G29R 3R19R16
                                G 5G25G16R10G23G10
  23784624.242   124989059.072    23784632.766    97394108.9944   23784632.602  
                
  22316956.086   119338815.942                    92819108.555    22316963.016  
  22316954.992  
  21620538.680   115777019.833                    90048797.473    21620542.602  
  21620537.762  
  21429127.766   112610838.004    21429137.988    87748744.3424   21429137.809  
                
  23483982.188   125315041.603                    97467239.826    23483986.629  
  23483980.289  
  21166618.828   113028572.426                    87911094.630    21166622.398  
  21166617.984  
  20228096.711   106299374.666    20228103.785    82830718.6684   20228103.801  
                
  21463987.078   114576198.644                    89114810.743    21463991.059  
  21463985.402  
  21325762.648   112067627.237    21325770.078    87325453.1904   21325770.137  
                
  21072027.344   112800186.695                    87733549.873    21072031.699  
  21072025.973  
  19806195.438   105949826.263                    82405406.434    19806199.359  
  19806193.703  
  23550346.898   125801687.135                    97845736.640    23550350.449  
  23550346.105  
  22491256.023   118192365.758    22491263.375    92097973.5914   22491263.328  
                
  24800723.164   130328639.546    24800734.922   101554814.6724   24800735.383  
                
  22760959.961   119609658.408    22760966.711    93202364.3594                 
                
  21767014.438   116030440.286                                                  
  21767013.648  
  21925579.562   115219721.106    21925587.484    89781645.4564   21925587.434  
                
  24596612.453   129256060.099    24596623.137   100719063.7194   24596622.852  
                
 21  8 15  6 34 50.0000000  0 18G15R20R 4G26R 2R 9G18R18G29R 3R19R16
                                G 5G25G16R10G23G10
  23779865.086   124964049.921    23779873.734    97374621.3844   23779873.566  
                
  22311932.008   119311949.865                    92798212.752    22311938.957  
  22311930.895  
  21613913.062   115741539.903                    90021201.982    21613916.938  
  21613912.137  
  21428841.125   112609331.672    21428851.332    87747570.5714   21428851.156  
                
  23489889.680   125346565.146                    97491758.147    23489894.125  
  23489887.824  
  21171097.414   113052487.682                    87929695.383    21171100.953  
  21171096.559  
  20227399.227   106295709.320    20227406.289    82827862.5574   20227406.305  
                
  21468422.164   114599873.431                    89133224.451    21468426.148  
  21468420.457  
  21329260.492   112086008.455    21329267.945    87339776.2104   21329267.992  
                
  21071902.180   112799516.690                    87733028.741    21071906.551  
  21071900.820  
  19806317.141   105950477.265                    82405912.770    19806321.055  
  19806315.402  
  23558406.188   125844738.447                    97879220.964    23558409.727  
  23558405.406  
  22496200.789   118218350.584    22496208.172    92118221.5084   22496208.113  
                
  24808092.016   130367363.158    24808103.809   101584988.9014   24808104.273  
                
  22756446.461   119585939.729    22756453.188    93183882.2844                 
                
  21764997.531   116019689.011                                                  
  21764996.766  
  21919840.117   115189560.122    21919848.012    89758143.3974   21919847.984  
                
  24589549.211   129218942.565    24589559.969   100690140.9904   24589559.641  
                
 21  8 15  6 35  0.0000000  0 18G15R20R 4G26R 2R 9G18R18G29R 3R19R16
                                G 5G25G16R10G23G10
  23775112.391   124939074.636    23775121.176    97355160.1894   23775120.996  
                
  22306910.430   119285096.947                    92777327.178    22306917.367  
  22306909.285  
  21607296.414   115706108.035                    89993643.857    21607300.258  
  21607295.535  
  21428566.820   112607890.200    21428577.016    87746447.3454   21428576.859  
                
  23495807.438   125378143.449                    97516319.001    23495811.852  
  23495805.574  
  21175589.156   113076473.286                    87948350.835    21175592.684  
  21175588.316  
  20226709.492   106292084.728    20226716.559    82825038.2044   20226716.562  
                
  21472860.602   114623566.035                    89151652.031    21472864.590  
  21472858.848  
  21332765.281   112104426.204    21332772.762    87354127.6914   21332772.801  
                
  21071793.906   112798937.088                    87732577.939    21071798.312  
  21071792.523  
  19806444.953   105951161.055                    82406444.605    19806448.887  
  19806443.191  
  23566466.094   125887792.665                    97912707.559    23566469.602  
  23566465.289  
  22501154.500   118244382.483    22501161.918    92138506.0934   22501161.852  
                
  24815460.734   130406086.010    24815472.559   101615162.5374   24815473.016  
                
  22751942.508   119562271.282    22751949.246    93165439.3494                 
                
  21762996.828   116009024.151                                                  
  21762996.098  
  21914108.078   115159438.008    21914115.969    89734671.6334   21914115.934  
                
  24582487.258   129181831.806    24582498.094   100661223.5374   24582497.703  
                
 21  8 15  6 35 10.0000000  0 18G15R20R 4G26R 2R 9G18R18G29R 3R19R16
                                G 5G25G16R10G23G10
  23770366.188   124914133.582    23770375.098    97335725.6404   23770374.910  
                
  22301891.328   119258257.622                    92756452.146    22301898.266  
