     2.11           OBSERVATION DATA    M (MIXED)           RINEX VERSION / TYPE
EFT-CORS.RU                             20210817 144752 UTC PGM / RUN BY / DATE 
MDNG                                                        MARKER NAME         
                                                            MARKER NUMBER       
MDNG                EFT-CORS.RU                             OBSERVER / AGENCY   
0                   TRIMBLE BD970       2.0                 REC # / TYPE / VERS 
0                   UNKNOWN EXT NONE                        ANT # / TYPE        
  3463911.2830  3030468.2400  4402179.3760                  APPROX POSITION XYZ 
        0.0000        0.0000        0.0000                  ANTENNA: DELTA H/E/N
     1     1                                                WAVELENGTH FACT L1/2
     6    C1    L1    P2    L2    C2    P1                  # / TYPES OF OBSERV 
    10.000                                                  INTERVAL            
  2021     8    16     0    30    0.0000000     GPS         TIME OF FIRST OBS   
  2021     8    16     1    30    0.0000000     GPS         TIME OF LAST OBS    
     0                                                      RCV CLOCK OFFS APPL 
                                                            END OF HEADER       
 21  8 16  0 30  0.0000000  0 15R 6G 6G17G15R14R16G14G12R15R18G24R24
                                R17G19G 2
  23052718.406   123013717.136                                                  
  23052715.945  
  22306097.266   117219337.357    22306106.297    91339783.2344   22306106.730  
                
  22873031.055   120198618.774    22873036.637    93661294.1394   22873036.570  
                
  24459759.625   128536902.888    24459766.699   100158656.9224   24459766.609  
                
  20571968.883   109660199.681                    85291261.215    20571972.527  
  20571968.520  
  23206317.523   123963988.185                    96416421.370    23206319.367  
  23206317.078  
  24496356.852   128729247.668    24496363.160   100308542.8334   24496363.172  
                
  21958140.953   115390819.614    21958146.879    89914953.1874   21958146.961  
                
  19619668.766   104841592.825                    81543441.296    19619672.195  
  19619668.977  
  22882566.008   122148690.102                    95004532.201    22882569.199  
  22882564.344  
  20348744.602   106933395.946    20348753.051    83324754.0034   20348753.062  
                
  20513573.852   109695322.559                    85318585.764    20513577.469  
  20513572.762  
  19652747.453   105165825.280                    81795641.919    19652750.332  
  19652745.730  
  20718633.852   108877162.765    20718637.828    84839387.6334                 
                
  23494492.078   123464395.585    23494496.891    96206041.5444                 
                
 21  8 16  0 30 10.0000000  0 15R 6G 6G17G15R14R16G14G12R15R18G24R24
                                R17G19G 2
  23054449.695   123022955.635                                                  
  23054447.285  
  22301719.281   117196330.905    22301728.305    91321856.1304   22301728.738  
                
  22878487.078   120227290.346    22878492.660    93683635.6224   22878492.570  
                
  24465984.297   128569613.992    24465991.387   100184146.0904   24465991.320  
                
  20575790.664   109680571.894                    85307106.282    20575794.324  
  20575790.305  
  23199730.492   123928801.702                    96389054.140    23199732.371  
  23199730.035  
  24501977.820   128758785.729    24501984.078   100331559.4994   24501984.090  
                
  21953570.727   115366802.883    21953576.645    89896238.8594   21953576.734  
                
  19617275.047   104828801.456                    81533492.459    19617278.469  
  19617275.246  
  22874067.156   122103323.367                    94969246.972    22874070.492  
  22874065.609  
  20348182.656   106930442.889    20348191.098    83322452.9184   20348191.109  
                
  20517609.922   109716905.205                    85335372.259    20517613.527  
  20517608.840  
  19648765.203   105144515.435                    81779067.627    19648768.102  
  19648763.469  
  20721736.195   108893465.625    20721740.133    84852091.1564                 
                
  23488566.883   123433259.157    23488571.797    96181779.4024                 
                
 21  8 16  0 30 20.0000000  0 15R 6G 6G17G15R14R16G14G12R15R18G24R24
                                R17G19G 2
  23056195.688   123032272.597                                                  
  23056193.340  
  22297350.453   117173372.631    22297359.500    91303966.5744   22297359.898  
                
  22883946.984   120255982.438    22883952.559    93705993.0874   22883952.473  
                
  24472209.711   128602328.853    24472216.824   100209638.1774   24472216.715  
                
  20579620.359   109700986.345                    85322984.194    20579624.008  
  20579619.984  
  23193143.469   123893615.037                    96361686.750    23193145.336  
  23193142.969  
  24507599.836   128788329.439    24507606.078   100354580.5554   24507606.102  
                
  21949004.656   115342808.100    21949010.566    89877541.6374   21949010.664  
                
  19614889.031   104816051.367                    81523575.729    19614892.449  
  19614889.227  
  22865572.008   122057975.860                    94933976.683    22865575.363  
  22865570.473  
  20347632.227   106927550.400    20347640.656    83320199.0284   20347640.676  
                
  20521660.141   109738563.564                    85352217.651    20521663.742  
  20521659.059  
  19644798.062   105123286.520                    81762556.248    19644800.980  
  19644796.305  
  20724848.836   108909822.674    20724852.734    84864836.9154                 
                
  23482645.469   123402142.816    23482650.469    96157532.8974                 
                
 21  8 16  0 30 30.0000000  0 15R 6G 6G17G15R14R16G14G12R15R18G24R24
                                R17G19G 2
  23057956.648   123041668.642                                                  
  23057954.258  
  22292990.914   117150463.127    22292999.977    91286115.0194   22293000.352  
                
  22889410.898   120284695.468    22889416.492    93728366.8824   22889416.387  
                
  24478435.938   128635047.817    24478443.047   100235133.4814   24478442.902  
                
  20583458.109   109721443.690                    85338895.450    20583461.750  
  20583457.707  
  23186556.484   123858428.592                    96334319.499    23186558.312  
  23186556.008  
  24513223.031   128817879.273    24513229.234   100377606.3924   24513229.281  
                
  21944442.883   115318835.858    21944448.742    89858861.9804   21944448.867  
                
  19612510.891   104803343.287                    81513691.659    19612514.305  
  19612511.090  
  22857080.594   122012648.285                    94898721.898    22857083.980  
  22857079.078  
  20347093.430   106924718.998    20347101.863    83317992.7474   20347101.883  
                
  20525724.602   109760298.064                    85369122.254    20525728.191  
  20525723.504  
  19640846.172   105102139.199                    81746108.334    19640849.105  
  19640844.391  
  20727971.859   108926234.241    20727975.723    84877625.1574                 
                
  23476728.102   123371047.194    23476733.117    96133302.5594                 
                
 21  8 16  0 30 40.0000000  0 15R 6G 6G17G15R14R16G14G12R15R18G24R24
                                R17G19G 2
  23059732.781   123051145.680                                                  
  23059730.293  
  22288641.180   117127605.145    22288650.188    91268303.6094   22288650.594  
                
  22894879.266   120313431.971    22894884.898    93750758.9574   22894884.766  
                
  24484663.383   128667773.476    24484670.484   100260634.0004   24484670.344  
                
  20587304.375   109741946.465                    85354842.053    20587308.023  
  20587303.949  
  23179970.109   123823245.430                    96306954.823    23179971.914  
  23179969.645  
  24518847.836   128847437.841    24518854.035   100400639.0324   24518854.133  
                
  21939885.914   115294888.865    21939891.715    89840201.9944   21939891.879  
                
  19610141.141   104790680.066                    81503842.484    19610144.551  
  19610141.348  
  22848593.555   121967343.636                    94863484.959    22848596.871  
  22848591.980  
  20346566.773   106921951.383    20346575.203    83315836.1644   20346575.230  
                
  20529803.773   109782111.241                    85386088.064    20529807.359  
  20529802.656  
  19636910.016   105081076.068                    81729725.900    19636912.957  
  19636908.227  
  20731105.758   108942702.969    20731109.574    84890457.9294                 
                
  23470815.242   123339974.959    23470820.230    96109090.4564                 
                
 21  8 16  0 30 50.0000000  0 15R 6G 6G17G15R14R16G14G12R15R18G24R24
                                R17G19G 2
  23061522.969   123060698.268                                                  
  23061520.441  
  22284300.133   117104792.844    22284309.059    91250527.7884   22284309.527  
                
  22900350.953   120342185.885    22900356.605    93773164.5944   22900356.480  
                
  24490890.977   128700499.728    24490898.039   100286134.9844   24490897.914  
                
  20591158.031   109762488.651                    85370819.305    20591161.664  
  20591157.598  
  23173383.273   123788059.480                    96279587.992    23173385.004  
  23173382.797  
  24524473.180   128876999.198    24524479.367   100423673.8734   24524479.508  
                
  21935332.625   115270961.215    21935338.391    89821557.0754   21935338.566  
                
  19607778.648   104778055.587                    81494023.451    19607782.055  
  19607778.855  
  22840109.672   121922055.668                    94828260.983    22840112.887  
  22840108.000  
  20346051.117   106919241.605    20346059.547    83313724.6464   20346059.566  
                
  20533896.555   109803997.188                    85403110.467    20533900.152  
  20533895.426  
  19632988.492   105060091.263                    81713404.400    19632991.441  
  19632986.688  
  20734249.383   108959222.808    20734253.148    84903330.5374                 
                
  23464905.734   123308920.328    23464910.707    96084892.0394                 
                
 21  8 16  0 31  0.0000000  0 15R 6G 6G17G15R14R16G14G12R15R18G24R24
                                R17G19G 2
  23063327.844   123070329.600                                                  
  23063325.305  
  22279968.414   117082029.584    22279977.281    91232790.1874   22279977.770  
                
  22905826.555   120370960.408    22905832.211    93795586.2944   22905832.121  
                
  24497119.359   128733229.963    24497126.359   100311639.0654   24497126.266  
                
  20595019.727   109783073.653                    85386829.867    20595023.336  
  20595019.281  
  23166796.484   123752873.889                    96252221.400    23166798.102  
  23166796.031  
  24530099.688   128906566.581    24530105.863   100446713.3814   24530106.020  
                
  21930783.641   115247056.174    21930789.391    89802929.7874   21930789.570  
                
  19605424.031   104765473.234                    81484237.176    19605427.441  
  19605424.230  
  22831629.531   121876788.100                    94793052.871    22831632.758  
  22831627.812  
  20345547.102   106916592.944    20345555.535    83311660.7524   20345555.543  
                
  20538003.477   109825958.786                    85420191.715    20538007.082  
  20538002.344  
  19629082.258   105039188.220                    81697146.486    19629085.215  
  19629080.445  
  20737403.336   108975796.930    20737407.062    84916245.4364                 
                
  23459000.250   123277886.623    23459005.125    96060709.9354                 
                
 21  8 16  0 31 10.0000000  0 15R 6G 6G17G15R14R16G14G12R15R18G24R24
                                R17G19G 2
  23065147.531   123080039.609                                                  
  23065144.992  
  22275646.062   117059315.476    22275654.895    91215090.8884   22275655.398  
                
  22911306.062   120399755.455    22911311.723    93818023.9914   22911311.656  
                
  24503348.414   128765963.887    24503355.426   100337146.0184   24503355.324  
                
  20598889.422   109803701.287                    85402873.585    20598893.031  
  20598888.961  
  23160209.844   123717688.899                    96224855.297    23160211.344  
  23160209.375  
  24535727.328   128936139.963    24535733.539   100469757.5594   24535733.660  
                
  21926238.953   115223173.735    21926244.695    89784320.0994   21926244.883  
                
  19603077.312   104752933.088                    81474483.739    19603080.730  
  19603077.508  
  22823153.141   121831540.868                    94757860.587    22823156.469  
  22823151.492  
  20345054.711   106914005.425    20345063.148    83309644.5074   20345063.160  
                
  20542124.555   109847996.086                    85437331.848    20542128.176  
  20542123.406  
  19625191.289   105018366.937                    81680952.163    19625194.250  
  19625189.465  
  20740567.570   108992425.128    20740571.262    84929202.4804                 
                
  23453098.812   123246873.989    23453103.586    96036544.2394                 
                
 21  8 16  0 31 20.0000000  0 15R 6G 6G17G15R14R16G14G12R15R18G24R24
                                R17G19G 2
  23066981.859   123089827.921                                                  
  23066979.332  
  22271333.109   117036650.783    22271341.918    91197430.0814   22271342.430  
                
  22916789.492   120428571.132    22916795.156    93840477.7634   22916795.082  
                
  24509578.164   128798701.546    24509585.195   100362655.8764   24509585.082  
                
  20602767.133   109824371.747                    85418950.610    20602770.742  
  20602766.660  
  23153623.359   123682504.785                    96197489.868    23153624.758  
  23153622.855  
  24541356.125   128965719.524    24541362.383   100492806.5454   24541362.477  
                
  21921698.609   115199314.069    21921704.344    89765728.1564   21921704.543  
                
  19600738.547   104740435.410                    81464763.315    19600741.965  
  19600738.738  
  22814680.789   121786314.430                    94722684.468    22814684.066  
  22814679.086  
  20344574.000   106911479.287    20344582.441    83307676.0824   20344582.457  
                
  20546259.781   109870109.077                    85454530.843    20546263.426  
  20546258.598  
  19621315.656   104997627.678                    81664821.632    19621318.625  
  19621313.816  
  20743742.148   109009107.672    20743745.816    84942201.8644                 
                
  23447201.500   123215882.715    23447206.156    96012395.2014                 
                
 21  8 16  0 31 30.0000000  0 15R 6G 6G17G15R14R16G14G12R15R18G24R24
                                R17G19G 2
  23068830.984   123099694.888                                                  
  23068828.461  
  22267029.531   117014035.436    22267038.363    91179807.7384   22267038.875  
                
  22922276.797   120457407.167    22922282.480    93862947.3974   22922282.395  
                
  24515808.523   128831442.746    24515815.598   100388168.4774   24515815.512  
                
  20606652.898   109845085.045                    85435060.935    20606656.473  
  20606652.414  
  23147036.883   123647321.008                    96170124.710    23147038.258  
  23147036.367  
  24546986.102   128995305.055    24546992.387   100515860.1854   24546992.461  
                
  21917162.570   115175477.043    21917168.312    89747153.8594   21917168.512  
                
  19598407.711   104727980.170                    81455075.910    19598411.129  
  19598407.910  
  22806212.180   121741108.567                    94687524.362    22806215.500  
  22806210.500  
  20344104.938   106909014.362    20344113.383    83305755.3564   20344113.395  
                
  20550409.133   109892297.537                    85471788.520    20550412.793  
  20550407.938  
  19617455.367   104976970.529                    81648754.971    19617458.332  
  19617453.523  
  20746927.031   109025844.343    20746930.676    84955243.4244                 
                
  23441308.266   123184912.750    23441312.793    95988262.7544                 
                
 21  8 16  0 31 40.0000000  0 15R 6G 6G17G15R14R16G14G12R15R18G24R24
                                R17G19G 2
  23070694.773   123109640.221                                                  
  23070692.250  
  22262735.406   116991469.754    22262744.289    91162224.0934   22262744.785  
                
  22927768.000   120486263.739    22927773.707    93885433.0384   22927773.609  
                
  24522039.672   128864187.552    24522046.711   100413683.9274   24522046.680  
                
  20610546.719   109865841.302                    85451204.706    20610550.293  
  20610546.254  
  23140450.539   123612138.376                    96142760.472    23140451.965  
  23140450.066  
  24552617.234   129024896.773    24552623.562   100538918.6604   24552623.590  
                
  21912630.883   115151662.878    21912636.652    89728597.3614   21912636.840  
                
  19596084.883   104715567.644                    81445421.710    19596088.285  
  19596085.090  
  22797747.562   121695923.983                    94652380.798    22797750.914  
  22797745.918  
  20343647.578   106906610.890    20343656.035    83303882.5234   20343656.039  
                
  20554572.570   109914561.374                    85489104.837    20554576.258  
  20554571.363  
  19613610.445   104956395.620                    81632752.261    19613613.391  
  19613608.602  
  20750122.242   109042635.263    20750125.871    84968327.2614                 
                
  23435419.062   123153964.468    23435423.562    95964147.2134                 
                
 21  8 16  0 31 50.0000000  0 15R 6G 6G17G15R14R16G14G12R15R18G24R24
                                R17G19G 2
  23072573.156   123119663.179                                                  
  23072570.633  
  22258450.617   116968953.144    22258459.551    91144678.6994   22258460.031  
                
  22933262.984   120515140.119    22933268.691    93907934.1074   22933268.598  
                
  24528271.398   128896935.236    24528278.375   100439201.5994   24528278.383  
                
  20614448.461   109886639.772                    85467381.290    20614452.008  
  20614448.000  
  23133864.273   123576956.098                    96115396.525    23133865.855  
  23133863.824  
  24558249.398   129054493.980    24558255.777   100561981.4124   24558255.750  
                
  21908103.391   115127870.813    21908109.188    89710058.1004   21908109.340  
                
  19593769.898   104703197.081                    81435800.166    19593773.281  
  19593770.102  
  22789286.812   121650759.747                    94617253.073    22789290.145  
  22789285.141  
  20343201.781   106904268.219    20343210.242    83302057.0574   20343210.227  
                
  20558749.992   109936899.935                    85506479.262    20558753.695  
  20558748.746  
  19609780.797   104935902.428                    81616813.119    19609783.723  
  19609778.941  
  20753327.625   109059479.661    20753331.250    84981452.7684                 
                
  23429533.711   123123037.171    23429538.305    95940048.0204                 
                
 21  8 16  0 32  0.0000000  0 15R 6G 6G17G15R14R16G14G12R15R18G24R24
                                R17G19G 2
  23074466.180   123129764.366                                                  
  23074463.656  
  22254175.250   116946486.037    22254184.191    91127171.8594   22254184.684  
                
  22938761.773   120544036.525    22938767.496    93930450.7854   22938767.410  
                
  24534503.656   128929685.951    24534510.641   100464721.6204   24534510.641  
                
  20618358.195   109907480.779                    85483590.981    20618361.723  
  20618357.762  
  23127278.078   123541774.353                    96088033.026    23127279.812  
  23127277.691  
  24563882.609   129084096.981    24563889.027   100585048.6654   24563888.980  
                
  21903580.203   115104101.319    21903585.984    89691536.4244   21903586.148  
                
  19591462.867   104690868.946                    81426211.606    19591466.254  
  19591463.070  
  22780829.859   121605616.476                    94582141.648    22780833.270  
  22780828.246  
  20342767.625   106901986.688    20342776.098    83300279.2424   20342776.074  
                
  20562941.406   109959313.371                    85523911.940    20562945.141  
  20562940.156  
  19605966.484   104915491.263                    81600937.772    19605969.391  
  19605964.633  
  20756543.234   109076377.780    20756546.855    84994620.1344                 
                
  23423652.422   123092131.261    23423657.125    95915965.5194                 
                
 21  8 16  0 32 10.0000000  0 15R 6G 6G17G15R14R16G14G12R15R18G24R24
                                R17G19G 2
  23076373.867   123139943.549                                                  
  23076371.238  
  22249909.320   116924068.577    22249918.246    91109703.7064   22249918.758  
                
  22944264.344   120572952.929    22944270.086    93952983.0414   22944270.016  
                
  24540736.406   128962439.631    24540743.449   100490243.9574   24540743.441  
                
  20622275.898   109928364.385                    85499833.775    20622279.410  
  20622275.473  
  23120692.172   123506593.488                    96060670.138    23120693.871  
  23120691.809  
  24569516.898   129113705.788    24569523.379   100608120.4584   24569523.320  
                
  21899061.328   115080354.443    21899067.078    89673032.3694   21899067.250  
                
  19589163.797   104678583.468                    81416656.232    19589167.195  
  19589164.023  
  22772376.992   121560494.400                    94547046.699    22772380.367  
  22772375.336  
  20342345.094   106899766.357    20342353.578    83298549.1114   20342353.551  
                
  20567146.812   109981801.633                    85541402.799    20567150.566  
  20567145.543  
  19602167.523   104895162.308                    81585126.363    19602170.414  
  19602165.668  
  20759769.039   109093329.527    20759772.664    85007829.2874                 
                
  23417775.172   123061247.004    23417780.078    95891899.8894                 
                
 21  8 16  0 32 20.0000000  0 15R 6G 6G17G15R14R16G14G12R15R18G24R24
                                R17G19G 2
  23078296.070   123150200.344                                                  
  23078293.414  
  22245652.789   116901700.459    22245661.730    91092274.0174   22245662.266  
                
  22949770.656   120601888.875    22949776.426    93975530.5274   22949776.359  
                
  24546969.750   128995195.780    24546976.742   100515768.2404   24546976.715  
                
  20626201.516   109949290.115                    85516109.344    20626204.996  
  20626201.109  
  23114106.352   123471412.994                    96033307.537    23114107.992  
  23114106.000  
  24575152.258   129143320.013    24575158.727   100631196.4714   24575158.711  
                
  21894546.711   115056630.009    21894552.469    89654545.8034   21894552.637  
                
  19586872.641   104666340.198                    81407133.695    19586876.047  
  19586872.867  
  22763928.039   121515393.186                    94511967.986    22763931.367  
  22763926.344  
  20341934.172   106897606.886    20341942.652    83296866.4044   20341942.613  
                
  20571366.070   110004363.975                    85558951.292    20571369.859  
  20571364.797  
  19598383.891   104874915.350                    81569378.741    19598386.754  
  19598382.020  
  20763004.961   109110334.464    20763008.605    85021079.8934                 
                
  23411902.062   123030384.141    23411907.121    95867850.9264                 
                
 21  8 16  0 32 30.0000000  0 15R 6G 6G17G15R14R16G14G12R15R18G24R24
                                R17G19G 2
  23080232.734   123160534.729                                                  
  23080230.102  
  22241405.750   116879382.211    22241414.719    91074883.1814   22241415.234  
                
  22955280.742   120630844.645    22955286.551    93998093.4634   22955286.477  
                
  24553203.688   129027954.716    24553210.586   100541294.6874   24553210.566  
                
  20630135.117   109970258.386                    85532418.005    20630138.582  
  20630134.730  
  23107520.727   123436233.525                    96005945.724    23107522.242  
  23107520.395  
  24580788.719   129172940.012    24580795.176   100654277.0004   24580795.203  
                
  21890036.445   115032928.406    21890042.215    89636077.0234   21890042.387  
                
  19584589.469   104654139.593                    81397644.337    19584592.887  
  19584589.688  
  22755483.062   121470313.516                    94476906.015    22755486.395  
  22755481.395  
  20341534.906   106895508.690    20341543.387    83295231.4464   20341543.355  
                
  20575599.320   110027001.131                    85576557.970    20575603.129  
  20575598.051  
  19594615.641   104854750.741                    81553695.160    19594618.484  
  19594613.773  
  20766251.070   109127392.880    20766254.723    85034372.1634                 
                
  23406033.195   122999542.942    23406038.270    95843818.8444                 
                
 21  8 16  0 32 40.0000000  0 15R 6G 6G17G15R14R16G14G12R15R18G24R24
                                R17G19G 2
  23082183.781   123170946.665                                                  
  23082181.227  
  22237168.172   116857113.711    22237177.176    91057531.1084   22237177.672  
                
  22960794.547   120659819.938    22960800.375    94020671.6154   22960800.305  
                
  24559437.977   129060716.103    24559444.914   100566823.0254   24559444.914  
                
  20634076.688   109991269.089                    85548759.642    20634080.125  
  20634076.309  
  23100935.273   123401054.902                    95978584.564    23100936.695  
  23100934.961  
  24586426.250   129202565.600    24586432.680   100677361.8814   24586432.777  
                
  21885530.477   115009249.441    21885536.262    89617625.8874   21885536.441  
                
  19582314.250   104641981.557                    81388188.090    19582317.684  
  19582314.457  
  22747042.172   121425255.197                    94441860.671    22747045.441  
  22747040.449  
  20341147.273   106893471.593    20341155.742    83293644.1024   20341155.715  
                
  20579846.445   110049712.474                    85594222.337    20579850.266  
  20579845.176  
  19590862.781   104834668.481                    81538075.634    19590865.605  
  19590860.902  
  20769507.305   109144504.509    20769510.980    85047705.9044                 
                
  23400168.547   122968723.412    23400173.539    95819803.6274                 
                
 21  8 16  0 32 50.0000000  0 15R 6G 6G17G15R14R16G14G12R15R18G24R24
                                R17G19G 2
  23084149.594   123181436.648                                                  
  23084146.961  
  22232940.156   116834895.431    22232949.160    91040218.1644   22232949.648  
                
  22966312.148   120688815.152    22966317.969    94043265.2824   22966317.906  
                
  24565672.750   129093480.204    24565679.746   100592353.4864   24565679.746  
                
  20638026.281   110012322.648                    85565134.636    20638029.715  
  20638025.902  
  23094350.016   123365877.446                    95951224.329    23094351.348  
  23094349.684  
  24592064.938   129232197.126    24592071.352   100700451.3504   24592071.465  
                
  21881028.875   114985593.403    21881034.672    89599192.6104   21881034.852  
                
  19580047.125   104629866.705                    81378765.427    19580050.566  
  19580047.320  
  22738605.320   121380218.807                    94406832.388    22738608.633  
  22738603.602  
  20340771.336   106891495.985    20340779.781    83292104.6564   20340779.773  
                
  20584107.539   110072498.445                    85611944.754    20584111.363  
  20584106.293  
  19587125.359   104814668.861                    81522520.382    19587128.184  
  19587123.449  
  20772773.719   109161669.634    20772777.414    85061081.3184                 
                
  23394308.125   122937926.041    23394312.980    95795805.6584                 
                
 21  8 16  0 33  0.0000000  0 15R 6G 6G17G15R14R16G14G12R15R18G24R24
                                R17G19G 2
  23086129.867   123192003.946                                                  
  23086127.254  
  22228721.672   116812727.185    22228730.707    91022944.2124   22228731.184  
                
  22971833.453   120717829.838    22971839.254    94065874.1274   22971839.195  
                
  24571908.039   129126246.630    24571915.023   100617885.7794   24571915.027  
                
  20641983.820   110033418.572                    85581542.571    20641987.250  
  20641983.422  
  23087764.852   123330700.866                    95923864.786    23087766.211  
  23087764.500  
  24597704.672   129261834.298    24597711.164   100723545.2444   24597711.234  
                
  21876531.594   114961960.062    21876537.406    89580777.0304   21876537.578  
                
  19577787.977   104617794.493                    81369375.935    19577791.422  
  19577788.148  
  22730172.383   121335204.175                    94371821.013    22730175.867  
  22730170.809  
  20340407.031   106889581.574    20340415.461    83290612.9124   20340415.461  
                
  20588382.453   110095358.337                    85629724.675    20588386.254  
  20588381.227  
  19583403.391   104794751.863                    81507029.379    19583406.207  
  19583401.480  
  20776050.242   109178887.893    20776053.953    85074498.1434                 
                
  23388451.883   122907150.695    23388456.605    95771824.8614                 
                
 21  8 16  0 33 10.0000000  0 15R 6G 6G17G15R14R16G14G12R15R18G24R24
                                R17G19G 2
  23088124.641   123202648.740                                                  
  23088122.035  
  22224512.750   116790609.242    22224521.867    91005709.4524   22224522.293  
                
  22977358.469   120746864.046    22977364.270    94088498.1844   22977364.195  
                
  24578143.758   129159015.483    24578150.773   100643419.9414   24578150.766  
                
  20645949.352   110054557.106                    85597983.648    20645952.785  
  20645948.945  
  23081179.906   123295525.609                    95896506.265    23081181.270  
  23081179.512  
  24603345.516   129291477.267    24603352.066   100746643.6474   24603352.121  
                
  21872038.664   114938349.631    21872044.516    89562379.3064   21872044.668  
                
  19575536.883   104605765.419                    81360019.983    19575540.336  
  19575537.035  
  22721743.750   121290211.713                    94336826.881    22721747.254  
  22721742.148  
  20340054.422   106887728.591    20340062.836    83289169.0284   20340062.848  
                
  20592671.227   110118292.344                    85647562.235    20592675.008  
  20592670.020  
  19579696.867   104774917.587                    81491602.725    19579699.676  
  19579694.973  
  20779336.875   109196159.329    20779340.594    85087956.4084                 
                
  23382599.812   122876397.646    23382604.508    95747861.4504                 
                
 21  8 16  0 33 20.0000000  0 15R 6G 6G17G15R14R16G14G12R15R18G24R24
                                R17G19G 2
  23090134.133   123213371.687                                                  
  23090131.516  
  22220313.500   116768542.082    22220322.672    90988514.2764   22220323.062  
                
  22982887.289   120775918.124    22982893.109    94111137.7334   22982893.000  
                
  24584380.023   129191786.837    24584387.000   100668956.0484   24584386.977  
                
  20649922.961   110075738.651                    85614458.187    20649926.422  
  20649922.543  
  23074595.242   123260351.874                    95869148.924    23074596.605  
  23074594.809  
  24608987.578   129321126.368    24608994.195   100769746.8454   24608994.207  
                
  21867550.172   114914762.447    21867556.062    89543999.6854   21867556.191  
                
  19573293.945   104593779.815                    81350697.852    19573297.402  
  19573294.086  
  22713319.328   121245241.814                    94301850.294    22713322.891  
  22713317.734  
  20339713.594   106885937.432    20339721.984    83287773.3254   20339721.988  
                
  20596973.906   110141300.684                    85665457.625    20596977.668  
  20596972.723  
  19576005.914   104755166.502                    81476240.771    19576008.727  
  19576004.043  
  20782633.727   109213484.337    20782637.438    85101456.4234                 
                
  23376752.070   122845667.329    23376756.797    95723915.7594                 
                
 21  8 16  0 33 30.0000000  0 15R 6G 6G17G15R14R16G14G12R15R18G24R24
                                R17G19G 2
  23092158.039   123224171.521                                                  
  23092155.398  
  22216123.758   116746524.863    22216132.941    90971358.0114   22216133.328  
                
  22988419.688   120804991.080    22988425.520    94133791.9844   22988425.387  
                
  24590616.656   129224559.878    24590623.520   100694493.4844   24590623.453  
                
  20653904.453   110096962.250                    85630965.419    20653907.914  
  20653904.027  
  23068010.742   123225178.917                    95841792.191    23068012.113  
  23068010.320  
  24614630.625   129350780.675    24614637.277   100792854.0674   24614637.211  
                
  21863065.930   114891197.642    21863071.836    89525637.5114   21863071.949  
                
  19571059.000   104581836.961                    81341408.952    19571062.461  
  19571059.137  
  22704898.953   121200293.479                    94266890.490    22704902.555  
  22704897.387  
  20339384.352   106884207.195    20339392.730    83286425.0844   20339392.738  
                
  20601290.297   110164382.331                    85683410.017    20601294.027  
  20601289.125  
  19572330.352   104735497.798                    81460942.898    19572333.164  
  19572328.500  
  20785940.570   109230861.915    20785944.266    85114997.3884                 
                
  23370908.453   122814958.968    23370913.242    95699987.1844                 
                
 21  8 16  0 33 40.0000000  0 15R 6G 6G17G15R14R16G14G12R15R18G24R24
                                R17G19G 2
  23094196.383   123235048.671                                                  
  23094193.781  
  22211943.656   116724558.347    22211952.852    90954241.2534   22211953.250  
                
  22993955.797   120834083.511    22993961.617    94156461.4144   22993961.488  
                
  24596853.578   129257335.102    24596860.438   100720032.6084   24596860.359  
                
  20657893.922   110118228.341                    85647505.720    20657897.406  
  20657893.512  
  23061426.539   123190007.274                    95814436.461    23061427.879  
  23061426.148  
  24620274.750   129380440.813    24620281.426   100815965.8724   24620281.328  
                
  21858586.062   114867655.824    21858592.000    89507293.2364   21858592.094  
                
  19568832.188   104569937.551                    81332153.866    19568835.656  
  19568832.320  
  22696482.883   121155367.990                    94231948.427    22696486.473  
  22696481.332  
  20339066.820   106882538.539    20339075.180    83285124.8314   20339075.180  
                
  20605620.531   110187538.022                    85701419.999    20605624.238  
  20605619.359  
  19568670.328   104715912.254                    81445709.704    19568673.141  
  19568668.496  
  20789257.523   109248292.617    20789261.211    85128579.7534                 
                
  23365069.180   122784273.322    23365073.945    95676076.2914                 
                
 21  8 16  0 33 50.0000000  0 15R 6G 6G17G15R14R16G14G12R15R18G24R24
                                R17G19G 2
  23096249.102   123246002.672                                                  
  23096246.602  
  22207773.133   116702642.124    22207782.336    90937163.6934   22207782.746  
                
  22999495.492   120863194.842    22999501.281    94179145.5594   22999501.164  
                
  24603090.789   129290112.016    24603097.695   100745573.0484   24603097.609  
                
  20661891.312   110139536.717                    85664078.895    20661894.820  
  20661890.895  
  23054842.492   123154836.701                    95787081.566    23054843.875  
  23054842.145  
  24625919.906   129410106.312    24625926.531   100839081.8214   24625926.473  
                
  21854110.469   114844136.450    21854116.461    89488966.4614   21854116.527  
                
  19566613.383   104558080.927                    81322932.044    19566616.871  
  19566613.523  
  22688070.914   121110464.595                    94197023.562    22688074.523  
  22688069.383  
  20338760.930   106880931.012    20338769.270    83283872.2094   20338769.273  
                
  20609964.438   110210766.845                    85719486.873    20609968.141  
  20609963.281  
  19565025.766   104696409.400                    81430540.811    19565028.570  
  19565023.945  
  20792584.461   109265775.782    20792588.156    85142203.0074                 
                
  23359234.109   122753609.945    23359238.840    95652182.7554                 
                
 21  8 16  0 34  0.0000000  0 15R 6G 6G17G15R14R16G14G12R15R18G24R24
                                R17G19G 2
  23098316.492   123257034.424                                                  
  23098314.008  
  22203612.375   116680777.177    22203621.594    90920126.0644   22203622.008  
                
  23005038.922   120892325.774    23005044.695    94201844.9944   23005044.590  
                
  24609328.578   129322891.229    24609335.426   100771115.2884   24609335.309  
                
  20665896.789   110160888.116                    85680685.531    20665900.305  
  20665896.363  
  23048258.836   123119668.023                    95759728.173    23048260.254  
  23048258.508  
  24631566.281   129439777.926    24631572.816   100862202.5664   24631572.801  
                
  21849639.352   114820640.603    21849645.383    89470658.0224   21849645.430  
                
  19564402.797   104546268.178                    81313744.354    19564406.293  
  19564402.934  
  22679663.242   121065584.436                    94162116.790    22679666.969  
  22679661.762  
  20338466.820   106879385.439    20338475.133    83282667.8684   20338475.152  
                
  20614322.164   110234069.543                    85737611.193    20614325.859  
  20614321.016  
  19561396.836   104676990.222                    81415437.019    19561399.645  
  19561395.031  
  20795921.539   109283312.246    20795925.250    85155867.7864                 
                
  23353403.445   122722969.767    23353408.145    95628307.2984                 
                
 21  8 16  0 34 10.0000000  0 15R 6G 6G17G15R14R16G14G12R15R18G24R24
                                R17G19G 2
  23100398.219   123268142.441                                                  
  23100395.648  
  22199461.164   116658962.484    22199470.402    90903127.6224   22199470.816  
                
  23010585.867   120921475.162    23010591.637    94224558.8054   23010591.523  
                
  24615566.531   129355671.553    24615573.348   100796658.3984   24615573.176  
                
  20669910.133   110182281.505                    85697324.822    20669913.637  
  20669909.723  
  23041675.312   123084500.285                    95732375.498    23041676.777  
  23041675.000  
  24637213.586   129469454.623    24637220.082   100885327.2554   24637220.062  
                
  21845172.508   114797167.235    21845178.516    89452367.0864   21845178.566  
                
  19562200.227   104534498.331                    81304590.028    19562203.734  
  19562200.371  
  22671259.766   121020726.559                    94127227.349    22671263.598  
  22671258.320  
  20338184.312   106877900.819    20338192.594    83281511.0254   20338192.637  
                
  20618693.523   110257445.182                    85755792.252    20618697.199  
  20618692.379  
  19557783.336   104657653.640                    81400397.452    19557786.152  
  19557781.562  
  20799268.539   109300900.881    20799272.262    85169573.2164                 
                
  23347576.969   122692351.871    23347581.699    95604449.1824                 
                
 21  8 16  0 34 20.0000000  0 15R 6G 6G17G15R14R16G14G12R15R18G24R24
                                R17G19G 2
  23102494.297   123279327.411                                                  
  23102491.688  
  22195319.641   116637198.644    22195328.836    90886168.7944   22195329.254  
                
  23016136.422   120950643.508    23016142.199    94247287.3914   23016142.062  
                
  24621804.797   129388453.453    24621811.559   100822202.7324   24621811.363  
                
  20673931.406   110203717.097                    85713996.955    20673934.902  
  20673931.016  
  23035092.023   123049333.976                    95705023.953    23035093.605  
  23035091.723  
  24642861.930   129499136.856    24642868.398   100908456.2704   24642868.395  
                
  21840710.039   114773716.811    21840716.023    89434094.0374   21840716.098  
                
  19560005.781   104522771.885                    81295469.455    19560009.305  
  19560005.926  
  22662860.594   120975891.436                    94092355.612    22662864.480  
  22662859.176  
  20337913.484   106876477.642    20337921.742    83280402.0524   20337921.797  
                
  20623078.539   110280893.763                    85774030.044    20623082.207  
  20623077.410  
  19554185.375   104638400.206                    81385422.568    19554188.199  
  19554183.617  
  20802625.547   109318542.094    20802629.281    85183319.6134                 
                
  23341754.891   122661756.829    23341759.637    95580608.8954                 
                
 21  8 16  0 34 30.0000000  0 15R 6G 6G17G15R14R16G14G12R15R18G24R24
                                R17G19G 2
  23104604.727   123290588.980                                                  
  23104602.078  
  22191187.805   116615485.647    22191196.914    90869249.5734   22191197.359  
                
  23021690.531   120979830.594    23021696.301    94270030.5764   23021696.164  
                
  24628043.312   129421236.723    24628050.047   100847748.1424   24628049.840  
                
  20677960.633   110225195.105                    85730702.076    20677964.141  
  20677960.262  
  23028509.102   123014169.125                    95677673.552    23028510.738  
  23028508.770  
  24648511.320   129528824.489    24648517.746   100931589.4984   24648517.738  
                
  21836251.914   114750289.273    21836257.926    89415838.8164   21836257.992  
                
  19557819.453   104511088.859                    81286382.662    19557822.984  
  19557819.605  
  22654465.891   120931079.278                    94057501.727    22654469.633  
  22654464.367  
  20337654.336   106875115.800    20337662.582    83279340.8724   20337662.645  
                
  20627477.180   110304415.284                    85792324.563    20627480.852  
  20627476.066  
  19550602.961   104619229.983                    81370512.401    19550605.793  
  19550601.219  
  20805992.500   109336235.582    20805996.250    85197106.7494                 
                
  23335937.102   122631184.611    23335941.945    95556786.4024                 
                
 21  8 16  0 34 40.0000000  0 15R 6G 6G17G15R14R16G14G12R15R18G24R24
                                R17G19G 2
  23106729.391   123301927.314                                                  
  23106726.840  
  22187065.664   116593823.625    22187074.691    90852370.0764   22187075.172  
                
  23027248.211   121009036.309    23027253.930    94292788.2784   23027253.816  
                
  24634282.023   129454021.270    24634288.809   100873294.5284   24634288.602  
                
  20681997.805   110246715.440                    85747440.095    20682001.324  
  20681997.441  
  23021926.469   122979005.817                    95650324.363    23021928.191  
  23021926.133  
  24654161.805   129558517.582    24654168.145   100954726.9884   24654168.137  
                
  21831798.109   114726884.368    21831804.145    89397601.2414   21831804.188  
                
  19555641.281   104499449.315                    81277329.692    19555644.828  
  19555641.434  
  22646075.617   120886290.282                    94022665.832    22646079.137  
  22646073.906  
  20337406.875   106873815.387    20337415.113    83278327.5614   20337415.176  
                
  20631889.469   110328009.677                    85810675.769    20631893.141  
  20631888.398  
  19547036.125   104600143.054                    81355667.022    19547038.957  
  19547034.371  
  20809369.422   109353981.438    20809373.176    85210934.6864                 
                
  23330123.781   122600635.467    23330128.707    95532981.8934                 
                
 21  8 16  0 34 50.0000000  0 15R 6G 6G17G15R14R16G14G12R15R18G24R24
                                R17G19G 2
  23108868.438   123313342.366                                                  
  23108865.953  
  22182953.305   116572212.961    22182962.301    90835530.5974   22182962.785  
                
  23032809.453   121038260.815    23032815.156    94315560.6254   23032815.039  
                
  24640520.984   129486807.186    24640527.852   100898841.9924   24640527.625  
                
  20686042.969   110268278.366                    85764211.256    20686046.504  
  20686042.633  
  23015344.203   122943844.337                    95622976.545    23015345.945  
  23015343.875  
  24659813.367   129588216.352    24659819.668   100977868.8964   24659819.625  
                
  21827348.727   114703502.692    21827354.746    89379381.7524   21827354.793  
                
  19553471.305   104487853.656                    81268310.843    19553474.875  
  19553471.457  
  22637689.539   120841524.781                    93987848.230    22637693.027  
  22637687.852  
  20337171.164   106872576.688    20337179.398    83277362.3404   20337179.453  
                
  20636315.359   110351676.807                    85829083.525    20636319.012  
  20636314.289  
  19543484.898   104581139.682                    81340886.632    19543487.746  
  19543483.141  
  20812756.344   109371779.800    20812760.086    85224803.5364                 
                
  23324314.945   122570109.653    23324319.922    95509195.5604                 
                
 21  8 16  0 35  0.0000000  0 15R 6G 6G17G15R14R16G14G12R15R18G24R24
                                R17G19G 2
  23111021.922   123324834.435                                                  
  23111019.531  
  22178850.742   116550653.860    22178859.758    90818731.3104   22178860.203  
                
  23038374.305   121067504.312    23038379.988    94338347.7654   23038379.887  
                
  24646760.266   129519594.531    24646767.125   100924390.5684   24646766.883  
                
  20690096.125   110289883.974                    85781015.604    20690099.668  
  20690095.801  
  23008762.281   122908684.812                    95595630.299    23008764.031  
  23008761.922  
  24665466.008   129617920.939    24665472.320   101001015.3104   24665472.242  
                
  21822903.805   114680144.491    21822909.848    89361180.5604   21822909.887  
                
  19551309.570   104476301.999                    81259326.209    19551313.137  
  19551309.719  
  22629307.812   120796783.067                    93953049.116    22629311.391  
  22629306.230  
  20336947.211   106871399.829    20336955.441    83276445.3054   20336955.496  
                
  20640754.883   110375416.911                    85847548.068    20640758.531  
  20640753.836  
  19539949.328   104562220.144                    81326171.430    19539952.188  
  19539947.570  
  20816153.250   109389630.694    20816156.973    85238713.3234                 
                
  23318510.703   122539607.402    23318515.617    95485427.5914                 
                
 21  8 16  0 35 10.0000000  0 15R 6G 6G17G15R14R16G14G12R15R18G24R24
                                R17G19G 2
  23113189.805   123336403.076                                                  
  23113187.453  
  22174757.984   116529146.252    22174767.027    90801972.1494   22174767.441  
                
  23043942.711   121096766.496    23043948.375    94361149.4674   23043948.297  
                
  24652999.633   129552383.014    24653006.574   100949940.0314   24653006.320  
                
  20694157.273   110311532.168                    85797853.087    20694160.828  
  20694156.953  
  23002180.734   122873527.289                    95568285.536    23002182.379  
  23002180.402  
  24671119.680   129647631.140    24671126.039   101024166.0874   24671125.930  
                
  21818463.305   114656809.530    21818469.418    89342997.4974   21818469.402  
                
  19549156.047   104464794.269                    81250375.761    19549159.621  
  19549156.168  
  22620930.508   120752065.028                    93918268.427    22620934.152  
  22620929.020  
  20336735.000   106870284.677    20336743.211    83275576.3564   20336743.277  
                
  20645207.977   110399229.543                    85866069.018    20645211.621  
  20645206.949  
  19536429.398   104543384.333                    81311521.370    19536432.262  
  19536427.656  
  20819560.117   109407533.871    20819563.809    85252663.8544                 
                
  23312710.922   122509128.719    23312715.766    95461677.9664                 
                
 21  8 16  0 35 20.0000000  0 15R 6G 6G17G15R14R16G14G12R15R18G24R24
                                R17G19G 2
  23115372.148   123348048.296                                                  
  23115369.727  
  22170675.039   116507690.142    22170684.082    90785253.1134   22170684.496  
                
  23049514.648   121126047.228    23049520.270    94383965.6224   23049520.203  
                
  24659239.203   129585172.362    24659246.164   100975490.1584   24659245.918  
                
  20698226.406   110333222.902                    85814723.670    20698229.977  
  20698226.090  
  22995599.516   122838371.448                    95540942.105    22995601.113  
  22995599.203  
  24676774.375   129677346.863    24676780.809   101047321.1894   24676780.672  
                
  21814027.227   114633497.761    21814033.367    89324832.4904   21814033.328  
                
  19547010.734   104453330.375                    81241459.399    19547014.309  
  19547010.855  
  22612557.781   120707370.799                    93883506.250    22612561.352  
  22612556.301  
  20336534.516   106869231.147    20336542.707    83274755.4204   20336542.785  
                
  20649674.641   110423114.782                    85884646.414    20649678.254  
  20649673.621  
  19532925.125   104524632.267                    81296936.434    19532927.992  
  19532923.383  
  20822976.898   109425489.183    20822980.570    85266655.0124                 
                
  23306915.594   122478673.536    23306920.328    95437946.6484                 
                
 21  8 16  0 35 30.0000000  0 14R 6G 6G17G15R14R16G12R15R18G24R24R17
                                G19G 2
  23117568.898   123359770.352                                                  
  23117566.465  
  22166602.055   116486286.388    22166611.070    90768574.8594   22166611.488  
                
  23055090.242   121155347.087    23055095.801    94406796.6884   23055095.766  
                
  24665479.141   129617963.329    24665486.043   101001041.5704   24665485.816  
                
  20702303.609   110354956.655                    85831627.697    20702307.180  
  20702303.273  
  22989018.742   122803218.330                    95513600.806    22989020.402  
  22989018.441  
  21809595.688   114610209.899    21809601.801    89306686.1144   21809601.793  
                
  19544873.797   104441911.255                    81232577.863    19544877.371  
  19544873.926  
  22604189.680   120662701.222                    93848763.258    22604193.188  
  22604188.184  
  20336345.906   106868239.997    20336354.078    83273983.1024   20336354.164  
                
  20654154.969   110447072.985                    85903280.573    20654158.559  
  20654153.996  
  19529436.648   104505964.789                    81282417.288    19529439.523  
  19529434.887  
  20826403.719   109443497.251    20826407.375    85280687.2854                 
                
  23301124.812   122448242.745    23301129.477    95414234.3324                 
                
 21  8 16  0 35 40.0000000  0 14R 6G 6G17G15R14R16G12R15R18G24R24R17
                                G19G 2
  23119779.891   123371568.232                                                  
  23119777.438  
  22162538.805   116464933.831    22162547.789    90751936.5094   22162548.223  
                
  23060669.234   121184664.860    23060674.758    94429641.7064   23060674.750  
                
  24671719.195   129650754.613    24671726.012   101026593.2274   24671725.789  
                
  20706388.664   110376732.297                    85848564.287    20706392.223  
  20706388.316  
  22982438.258   122768066.615                    95486260.632    22982439.984  
  22982437.922  
  21805168.484   114586944.780    21805174.578    89288557.4564   21805174.582  
                
  19542745.039   104430535.858                    81223730.327    19542748.609  
  19542745.152  
  22595826.023   120618055.127                    93814038.521    22595829.449  
  22595824.496  
  20336168.938   106867310.037    20336177.090    83273258.4554   20336177.176  
                
  20658648.680   110471102.785                    85921970.428    20658652.227  
  20658647.758  
  19525963.750   104487380.631                    81267962.949    19525966.633  
  19525961.973  
  20829840.344   109461556.856    20829843.977    85294759.7074                 
                
  23295338.445   122417835.266    23295343.008    95390540.1854                 
                
 21  8 16  0 35 50.0000000  0 14R 6G 6G17G15R14R16G12R15R18G24R24R17
                                G19G 2
  23122005.117   123383441.999                                                  
  23122002.641  
  22158485.305   116443632.548    22158494.297    90735338.1224   22158494.746  
                
  23066251.617   121214000.432    23066257.156    94452500.5794   23066257.152  
                
  24677959.273   129683546.013    24677966.027   101052144.9774   24677965.801  
                
  20710481.594   110398549.871                    85865533.517    20710485.160  
  20710481.246  
  22975858.031   122732916.475                    95458921.673    22975859.785  
  22975857.660  
  21800745.609   114563702.434    21800751.723    89270446.5544   21800751.688  
                
  19540624.453   104419204.087                    81214916.734    19540628.023  
  19540624.547  
  22587466.852   120573432.955                    93779332.383    22587470.227  
  22587465.285  
  20336003.625   106866441.272    20336011.762    83272581.4874   20336011.855  
                
  20663155.781   110495204.213                    85940715.989    20663159.312  
  20663154.883  
  19522506.430   104468879.855                    81253573.457    19522509.309  
  19522504.645  
  20833286.742   109479667.809    20833290.359    85308872.1334                 
                
  23289556.484   122387451.162    23289560.969    95366864.2604                 
                
 21  8 16  0 36  0.0000000  0 14R 6G 6G17G15R14R16G12R15R18G24R24R17
                                G19G 2
  23124244.445   123395391.618                                                  
  23124241.996  
  22154441.672   116422383.134    22154450.688    90718780.1494   22154451.141  
                
  23071837.453   121243354.114    23071843.027    94475373.5804   23071843.020  
                
  24684199.383   129716337.969    24684206.164   101077697.1494   24684205.926  
                
  20714582.461   110420409.762                    85882535.650    20714586.008  
  20714582.133  
  22969278.227   122697768.341                    95431584.262    22969279.984  
  22969277.812  
  21796327.148   114540483.276    21796333.266    89252353.7034   21796333.227  
                
  19538512.109   104407916.348                    81206137.369    19538515.695  
  19538512.203  
  22579112.125   120528834.911                    93744645.032    22579115.527  
  22579110.578  
  20335850.039   106865634.172    20335858.168    83271952.5824   20335858.270  
                
  20667676.320   110519377.475                    85959517.412    20667679.820  
  20667675.414  
  19519064.789   104450462.954                    81239249.211    19519067.672  
  19519063.004  
  20836742.992   109497830.517    20836746.594    85323024.8934                 
                
  23283779.039   122357090.997    23283783.508    95343206.9904                 
                
 21  8 16  0 36 10.0000000  0 14R 6G 6G17G15R14R16G12R15R18G24R24R17
                                G19G 2
  23126498.070   123407417.464                                                  
  23126495.617  
  22150407.969   116401185.843    22150416.992    90702262.7814   22150417.453  
                
  23077426.742   121272725.964    23077432.332    94498260.7444   23077432.316  
                
  24690439.477   129749130.511    24690446.391   101103249.7694   24690446.152  
                
  20718691.297   110442312.179                    85899570.857    20718694.836  
  20718690.973  
