     2.11           OBSERVATION DATA    M (MIXED)           RINEX VERSION / TYPE
EFT-CORS.RU                             20210817 144821 UTC PGM / RUN BY / DATE 
MDNG                                                        MARKER NAME         
                                                            MARKER NUMBER       
MDNG                EFT-CORS.RU                             OBSERVER / AGENCY   
0                   TRIMBLE BD970       2.0                 REC # / TYPE / VERS 
0                   UNKNOWN EXT NONE                        ANT # / TYPE        
  3463911.2830  3030468.2400  4402179.3760                  APPROX POSITION XYZ 
        0.0000        0.0000        0.0000                  ANTENNA: DELTA H/E/N
     1     1                                                WAVELENGTH FACT L1/2
     6    C1    L1    P2    L2    C2    P1                  # / TYPES OF OBSERV 
    10.000                                                  INTERVAL            
  2021     8    16     6    30    0.0000000     GPS         TIME OF FIRST OBS   
  2021     8    16     7    30    0.0000000     GPS         TIME OF LAST OBS    
     0                                                      RCV CLOCK OFFS APPL 
                                                            END OF HEADER       
 21  8 16  6 30  0.0000000  0 16G26R 3R 4R21R19G29R 5R10G16G18R20G15
                                G 5G10G23G25
  21429381.219   112612169.850    21429391.070    87749780.3194   21429390.926  
                
  23644609.039   126571458.892                    98444468.931    23644613.957  
  23644607.949  
  21051043.227   112727410.349                    87676891.631    21051046.309  
  21051042.074  
  22929397.445   122699840.374                    95433199.435    22929401.094  
  22929395.672  
  21964668.812   117496192.408                    91385909.626    21964673.230  
  21964666.902  
  21315921.703   112015931.215    21315929.047    87285167.5344   21315929.117  
                
  21602483.297   115477671.101                    89815958.760    21602488.289  
  21602483.188  
  21293764.742   113507739.813                                                  
  21293764.074  
  22779295.461   119706016.977    22779301.680    93277444.1584                 
                
  20230522.898   106312152.815    20230529.844    82840656.8644   20230529.883  
                
  19811152.273   105939152.476                    82397142.502    19811158.441  
  19811151.398  
  23800778.461   125073952.789    23800786.574    97460254.7444   23800786.402  
                
  22478047.602   118122954.143    22478054.477    92043901.6934   22478054.473  
                
  24621317.516   129385899.073    24621328.242   100820230.5134   24621328.148  
                
  21945416.203   115323965.283    21945424.051    89862862.9804   21945424.020  
                
  24778535.734   130212067.698    24778547.320   101463968.5384   24778547.750  
                
 21  8 16  6 30 10.0000000  0 16G26R 3R 4R21R19G29R 5R10G16G18R20G15
                                G 5G10G23G25
  21429055.891   112610460.260    21429065.730    87748448.1694   21429065.586  
                
  23650540.891   126603212.511                    98469166.167    23650545.793  
  23650539.828  
  21051070.539   112727556.700                    87677005.475    21051073.629  
  21051069.379  
  22924028.586   122671110.547                    95410853.995    22924032.219  
  22924026.844  
  21969496.078   117522015.382                    91405994.134    21969500.559  
  21969494.250  
  21319398.711   112034203.000    21319406.066    87299405.2744   21319406.145  
                
  21595928.422   115442631.663                    89788705.892    21595933.453  
  21595928.277  
  21298792.859   113534542.501                                                  
  21298792.180  
  22774745.266   119682105.547    22774751.496    93258811.8744                 
                
  20229798.812   106308347.729    20229805.762    82837691.8614   20229805.801  
                
  19810555.031   105935958.813                    82394658.544    19810561.203  
  19810554.141  
  23795997.484   125048829.177    23796005.648    97440677.9224   23796005.457  
                
  22482965.789   118148799.377    22482972.672    92064040.8414   22482972.652  
                
  24614249.758   129348757.605    24614260.496   100791289.1084   24614260.352  
                
  21939651.469   115293671.427    21939659.297    89839257.3934   21939659.277  
                
  24785904.867   130250792.349    24785916.422   101494143.5534   24785916.863  
                
 21  8 16  6 30 20.0000000  0 16G26R 3R 4R21R19G29R 5R10G16G18R20G15
                                G 5G10G23G25
  21428743.039   112608816.192    21428752.859    87747167.0764   21428752.711  
                
  23656483.070   126635021.376                    98493906.390    23656487.977  
  23656482.027  
  21051115.086   112727795.266                    87677191.043    21051118.195  
  21051113.926  
  22918661.523   122642390.072                    95388515.843    22918665.121  
  22918659.836  
  21974326.250   117547853.626                    91426090.525    21974330.766  
  21974324.430  
  21322882.820   112052512.062    21322890.203    87313672.0734   21322890.266  
                
  21589382.906   115407642.125                    89761491.819    21589387.938  
  21589382.762  
  21303833.398   113561411.309                                                  
  21303832.730  
  22770204.742   119658244.924    22770210.980    93240219.1794                 
                
  20229082.641   106304584.177    20229089.590    82834759.2184   20229089.621  
                
  19809963.953   105932798.031                    82392200.156    19809970.117  
  19809963.066  
  23791223.133   125023739.768    23791231.309    97421127.7624   23791231.121  
                
  22487893.117   118174692.666    22487900.051    92084217.4234   22487899.992  
                
  24607183.312   129311623.294    24607194.125   100762353.2794   24607193.918  
                
  21933894.227   115263416.861    21933902.059    89815682.4124   21933902.031  
                
  24793274.016   130289517.197    24793285.562   101524318.7164   24793286.016  
                
 21  8 16  6 30 30.0000000  0 15G26R 4R21R19G29R 5R10G16G18R20G15G 5
                                G10G23G25
  21428442.875   112607238.869    21428452.676    87745937.9904   21428452.520  
                
  21051177.078   112728127.271                    87677449.285    21051180.195  
  21051175.887  
  22913296.438   122613680.361                    95366186.106    22913300.023  
  22913294.680  
  21979159.461   117573708.042                    91446199.500    21979163.992  
  21979157.660  
  21326374.242   112070859.572    21326381.637    87327968.8204   21326381.699  
                
  21582846.961   115372703.837                    89734317.603    21582851.984  
  21582846.820  
  21308886.602   113588347.662                                                  
  21308885.941  
  22765674.109   119634436.284    22765680.336    93221667.0004                 
                
  20228374.578   106300863.316    20228381.531    82831859.8464   20228381.570  
                
  19809379.320   105929671.752                    82389768.602    19809385.496  
  19809378.414  
  23786455.539   124998685.828    23786463.750    97401605.2414   23786463.535  
                
  22492829.781   118200634.970    22492836.738    92104432.2094   22492836.672  
                
  24600118.500   129274497.467    24600129.379   100733424.0424   24600129.102  
                
  21928144.688   115233202.865    21928152.512    89792139.0524   21928152.488  
                
  24800643.359   130328243.397    24800654.949   101554494.9374   24800655.398  
                
 21  8 16  6 30 40.0000000  0 15G26R 4R21R19G29R 5R10G16G18R20G15G 5
                                G10G23G25
  21428154.969   112605725.928    21428164.746    87744759.0664   21428164.602  
                
  21051256.086   112728550.426                    87677778.416    21051259.211  
  21051254.887  
  22907932.836   122584978.840                    95343862.724    22907936.469  
  22907931.016  
  21983995.289   117599576.216                    91466319.176    21983999.797  
  21983993.488  
  21329872.508   112089243.055    21329879.926    87342293.6024   21329879.980  
                
  21576320.164   115337814.518                    89707181.486    21576325.223  
  21576320.016  
  21313951.953   113615348.827                                                  
  21313951.289  
  22761152.945   119610677.349    22761159.156    93203153.5464                 
                
  20227674.195   106297182.769    20227681.145    82828991.8874   20227681.180  
                
  19808800.625   105926577.217                    82387361.747    19808806.805  
  19808799.707  
  23781694.219   124973665.205    23781702.543    97382108.6994   23781702.301  
                
  22497775.312   118226623.858    22497782.305    92124683.2924   22497782.223  
                
  24593054.812   129237377.800    24593065.816   100704499.6344   24593065.469  
                
  21922402.445   115203027.174    21922410.250    89768625.5344   21922410.238  
                
  24808012.562   130366968.441    24808024.129   101584670.2564   24808024.574  
                
 21  8 16  6 30 50.0000000  0 15G26R 4R21R19G29R 5R10G16G18R20G15G 5
                                G10G23G25
  21427879.320   112604277.371    21427889.082    87743630.3214   21427888.953  
                
  21051352.117   112729064.707                    87678178.425    21051355.223  
  21051350.914  
  22902570.805   122556285.553                    95321545.751    22902574.430  
  22902568.973  
  21988833.688   117625458.316                    91486449.660    21988838.215  
  21988831.914  
  21333377.641   112107662.595    21333385.098    87356646.4854   21333385.141  
                
  21569802.562   115302974.263                    89680083.530    21569807.668  
  21569802.406  
  21319029.484   113642414.907                                                  
  21319028.797  
  22756641.273   119586968.257    22756647.484    93184678.9454                 
                
  20226981.492   106293542.532    20226988.445    82826155.3454   20226988.473  
                
  19808227.867   105923514.435                    82384979.586    19808234.051  
  19808226.973  
  23776939.266   124948677.981    23776947.734    97362638.1954   23776947.477  
                
  22502729.734   118252659.424    22502736.750    92144970.7314   22502736.660  
                
  24585992.352   129200264.394    24586003.457   100675580.1004   24586003.059  
                
  21916667.523   115172889.889    21916675.328    89745141.9404   21916675.312  
                
  24815381.547   130405692.294    24815393.086   101614844.6434   24815393.527  
                
 21  8 16  6 31  0.0000000  0 15G26R 4R21R19G29R 5R10G16G18R20G15G 5
                                G10G23G25
  21427616.000   112602893.669    21427625.758    87742552.1134   21427625.637  
                
  21051465.258   112729670.553                    87678649.656    21051468.352  
  21051464.047  
  22897210.406   122527601.184                    95299235.705    22897214.051  
  22897208.523  
  21993674.820   117651354.766                    91506591.340    21993679.305  
  21993672.984  
  21336889.719   112126118.626    21336897.199    87371027.7974   21336897.238  
                
  21563294.266   115268183.789                    89653024.288    21563299.406  
  21563294.113  
  21324119.219   113669546.044                                                  
  21324118.555  
  22752139.180   119563309.568    22752145.418    93166243.6064                 
                
  20226296.531   106289943.058    20226303.488    82823350.5604   20226303.500  
                
  19807661.172   105920484.002                    82382622.591    19807667.355  
  19807660.285  
  23772190.750   124923724.724    23772199.355    97343194.1534   23772199.090  
                
  22507693.062   118278741.912    22507700.109    92165294.7424   22507700.023  
                
  24578931.203   129163157.800    24578942.340   100646665.8684   24578941.910  
                
  21910939.992   115142791.530    21910947.824    89721688.6884   21910947.797  
                
  24822750.352   130444415.292    24822761.863   101645018.3704   24822762.312  
                
 21  8 16  6 31 10.0000000  0 15G26R 4R21R19G29R 5R10G16G18R20G15G 5
                                G10G23G25
  21427365.094   112601575.117    21427374.859    87741524.6664   21427374.727  
                
  21051595.539   112730368.198                    87679192.278    21051598.613  
  21051594.328  
  22891851.680   122498925.857                    95276932.672    22891855.324  
  22891849.793  
  21998518.570   117677265.792                    91526744.360    21998523.125  
  21998516.742  
  21340408.781   112144611.408    21340416.262    87385437.7524   21340416.285  
                
  21556795.414   115233443.651                    89626004.212    21556800.547  
  21556795.246  
  21329221.211   113696742.521                                                  
  21329220.566  
  22747646.750   119539701.707    22747653.004    93147847.8654                 
                
  20225619.383   106286384.599    20225626.348    82820577.7334   20225626.352  
                
  19807100.602   105917486.431                    82380291.141    19807106.781  
  19807099.742  
  23767448.789   124898805.893    23767457.504    97323776.9274   23767457.203  
                
  22512665.367   118304871.477    22512672.453    92185655.4354   22512672.375  
                
  24571871.383   129126058.390    24571882.559   100617757.2374   24571882.117  
                
  21905219.945   115112732.493    21905227.785    89698266.0624   21905227.758  
                
  24830119.016   130483137.666    24830130.555   101675191.6124   24830130.961  
                
 21  8 16  6 31 20.0000000  0 15G26R 4R21R19G29R 5R10G16G18R20G15G 5
                                G10G23G25
  21427126.578   112600321.631    21427136.355    87740547.9234   21427136.223  
                
  21051742.969   112731157.692                    87679806.346    21051746.055  
  21051741.750  
  22886494.688   122470259.570                    95254636.644    22886498.309  
  22886492.793  
  22003365.023   117703191.246                    91546908.589    22003369.645  
  22003363.254  
  21343934.836   112163140.874    21343942.320    87399876.2864   21343942.348  
                
  21550305.969   115198753.816                    89599023.243    21550311.098  
  21550305.801  
  21334335.367   113724003.765                                                  
  21334334.707  
  22743163.969   119516144.595    22743170.246    93129491.6794                 
                
  20224950.023   106282867.053    20224956.977    82817836.7894   20224956.984  
                
  19806546.109   105914521.268                    82377984.892    19806552.285  
  19806545.281  
  23762713.375   124873921.510    23762722.203    97304386.5414   23762721.902  
                
  22517646.602   118331047.996    22517653.734    92206052.7154   22517653.625  
                
  24564812.922   129088966.158    24564824.137   100588854.2064   24564823.688  
                
  21899507.375   115082712.759    21899515.180    89674874.0694   21899515.168  
                
  24837487.516   130521859.240    24837499.090   101705364.2234   24837499.469  
                
 21  8 16  6 31 30.0000000  0 15G26R 4R21R19G29R 5R10G16G18R20G15G 5
                                G10G23G25
  21426900.461   112599133.397    21426910.270    87739622.0224   21426910.129  
                
  21051907.539   112732039.030                    87680491.851    21051910.625  
  21051906.312  
  22881139.414   122441602.408                    95232347.778    22881143.027  
  22881137.469  
  22008214.250   117729131.243                    91567084.119    22008218.848  
  22008212.457  
  21347467.891   112181707.173    21347475.383    87414343.5314   21347475.406  
                
  21543825.977   115164114.549                    89572081.605    21543831.078  
  21543825.797  
  21339461.750   113751330.226                                                  
  21339461.082  
  22738690.906   119492638.517    22738697.191    93111175.2684                 
                
  20224288.477   106279390.586    20224295.418    82815127.8484   20224295.418  
                
  19805997.758   105911588.963                    82375704.215    19806003.930  
  19805996.941  
  23757984.578   124849071.902    23757993.441    97285023.2324   23757993.188  
                
  22522636.750   118357271.357    22522643.922    92226486.4984   22522643.805  
                
  24557755.914   129051881.348    24557767.125   100559956.9654   24557766.680  
                
  21893802.336   115052732.591    21893810.098    89651512.9114   21893810.121  
                
  24844855.891   130560580.076    24844867.465   101735536.2624   24844867.812  
                
 21  8 16  6 31 40.0000000  0 15G26R 4R21R19G29R 5R10G16G18R20G15G 5
                                G10G23G25
  21426686.750   112598010.288    21426696.582    87738746.8694   21426696.422  
                
  21052089.266   112733012.229                    87681248.806    21052092.363  
  21052088.016  
  22875785.828   122412954.282                    95210065.930    22875789.430  
  22875783.828  
  22013066.195   117755085.877                    91587271.035    22013070.801  
  22013064.445  
  21351007.938   112200310.197    21351015.434    87428839.3824   21351015.465  
                
  21537355.469   115129525.992                    89545179.400    21537360.547  
  21537355.297  
  21344600.211   113778721.002                                                  
  21344599.559  
  22734227.562   119469183.478    22734233.844    93092898.6324                 
                
  20223634.711   106275955.035    20223641.641    82812450.8004   20223641.641  
                
  19805455.484   105908689.138                    82373448.806    19805461.652  
  19805454.672  
  23753262.352   124824256.912    23753271.320    97265686.9454   23753271.074  
                
  22527635.797   118383541.478    22527643.004    92246956.7244   22527642.883  
                
  24550700.305   129014803.944    24550711.527   100531065.4904   24550711.051  
                
  21888104.820   115022791.970    21888112.590    89628182.5704   21888112.613  
                
  24852224.070   130599299.988    24852235.645   101765707.5724   24852235.973  
                
 21  8 16  6 31 50.0000000  0 15G26R 4R21R19G29R 5R10G16G18R20G15G 5
                                G10G23G25
  21426485.383   112596952.070    21426495.250    87737922.2814   21426495.090  
                
  21052288.102   112734076.998                    87682076.954    21052291.195  
  21052286.852  
  22870433.883   122384315.038                    95187790.935    22870437.461  
  22870431.875  
  22017920.781   117781054.651                    91607468.944    22017925.375  
  22017919.023  
  21354554.914   112218949.660    21354562.410    87443363.6314   21354562.430  
                
  21530894.422   115094988.087                    89518316.620    21530899.535  
  21530894.246  
  21349750.758   113806176.245                                                  
  21349750.105  
  22729773.906   119445779.358    22729780.168    93074661.6644                 
                
  20222988.695   106272560.175    20222995.609    82809805.4554   20222995.621  
                
  19804919.250   105905821.713                    82371218.582    19804925.418  
  19804918.438  
  23748546.844   124799476.493    23748555.785    97246377.5834   23748555.547  
                
  22532643.680   118409858.009    22532650.938    92267463.1134   22532650.816  
                
  24543646.133   128977733.794    24543657.324   100502179.6654   24543656.832  
                
  21882414.805   114992890.754    21882422.586    89604882.9254   21882422.574  
                
  24859591.984   130638018.657    24859603.586   101795877.9294   24859603.895  
                
 21  8 16  6 32  0.0000000  0 14G26R 4R21R19G29R 5R10G16G18R20G15G 5
                                G10G23
  21426296.422   112595959.018    21426306.328    87737148.4704   21426306.152  
                
  21052504.094   112735233.647                    87682976.579    21052507.180  
  21052502.840  
  22865083.680   122355685.004                    95165523.147    22865087.234  
  22865081.684  
  22022778.102   117807037.923                    91627678.145    22022782.672  
  22022776.340  
  21358108.875   112237625.808    21358116.375    87457916.4634   21358116.395  
                
  21524442.930   115060501.204                    89491493.530    21524448.082  
  21524442.723  
  21354913.438   113833696.108                                                  
  21354912.785  
  22725329.984   119422426.405    22725336.215    93056464.5684                 
                
  20222350.461   106269206.213    20222357.355    82807191.9804   20222357.375  
                
  19804389.172   105902987.153                    82369013.919    19804395.355  
  19804388.344  
  23743838.070   124774731.063    23743846.914    97227095.4724   23743846.680  
                
  22537660.422   118436221.118    22537667.715    92288005.7784   22537667.609  
                
  24536593.359   128940671.222    24536604.562   100473299.7354   24536604.035  
                
  21876732.352   114963029.268    21876740.102    89581614.2394   21876740.078  
                
 21  8 16  6 32 10.0000000  0 14G26R 4R21R19G29R 5R10G16G18R20G15G 5
                                G10G23
  21426119.883   112595031.241    21426129.824    87736425.5264   21426129.641  
                
  21052737.266   112736482.309                    87683947.780    21052740.355  
  21052736.039  
  22859735.188   122327064.136                    95143262.435    22859738.691  
  22859733.227  
  22027638.156   117833035.800                    91647898.690    22027642.707  
  22027636.418  
  21361669.844   112256338.778    21361677.352    87472497.9874   21361677.363  
                
  21518001.039   115026065.626                    89464710.321    21518006.207  
  21518000.816  
  21360088.172   113861280.233                                                  
  21360087.512  
  22720895.820   119399124.742    22720902.051    93038307.4374                 
                
  20221720.031   106265893.262    20221726.910    82804610.4644   20221726.938  
                
  19803865.172   105900185.133                    82366834.582    19803871.371  
  19803864.348  
  23739135.977   124750020.853    23739144.742    97207840.7974   23739144.508  
                
  22542686.023   118462630.789    22542693.332    92308584.7364   22542693.242  
                
  24529542.031   128903616.438    24529553.262   100444425.8754   24529552.723  
                
  21871057.500   114933207.708    21871065.215    89558376.6634   21871065.203  
                
 21  8 16  6 32 20.0000000  0 14G26R 4R21R19G29R 5R10G16G18R20G15G 5
                                G10G23
  21425955.703   112594168.429    21425965.680    87735753.2004   21425965.469  
                
  21052987.562   112737822.664                    87684990.279    21052990.648  
  21052986.328  
  22854388.344   122298452.173                    95121008.701    22854391.859  
  22854386.422  
  22032500.875   117859048.054                    91668130.440    22032505.414  
  22032499.129  
  21365237.742   112275088.165    21365245.250    87487107.8954   21365245.266  
                
  21511568.719   114991681.158                    89437966.860    21511573.859  
  21511568.516  
  21365274.898   113888928.309                                                  
  21365274.219  
  22716471.391   119375874.224    22716477.605    93020190.1544                 
                
  20221097.344   106262620.983    20221104.211    82802060.6354   20221104.242  
                
  19803347.250   105897415.553                    82364680.453    19803353.449  
  19803346.426  
  23734440.484   124725345.565    23734449.195    97188613.3524   23734448.953  
                
  22547720.422   118489086.678    22547727.742    92329199.7114   22547727.656  
                
  24522492.125   128866569.193    24522503.387   100415557.9034   24522502.848  
                
  21865390.188   114903425.863    21865397.887    89535170.0464   21865397.875  
                
 21  8 16  6 32 30.0000000  0 14G26R 4R21R19G29R 5R10G16G18R20G15G 5
                                G10G23
  21425803.906   112593370.740    21425813.902    87735131.6204   21425813.676  
                
  21053255.000   112739254.822                    87686104.204    21053258.094  
  21053253.734  
  22849043.195   122269849.253                    95098762.002    22849046.727  
  22849041.320  
  22037366.250   117885074.633                    91688373.323    22037370.789  
  22037364.465  
  21368812.609   112293874.199    21368820.117    87501746.3484   21368820.141  
                
  21505146.000   114957348.087                    89411263.382    21505151.109  
  21505145.789  
  21370473.594   113916640.223                                                  
  21370472.910  
  22712056.750   119352675.192    22712062.930    93002112.9914                 
                
  20220482.414   106259389.501    20220489.270    82799542.5964   20220489.309  
                
  19802835.430   105894678.615                    82362551.734    19802841.629  
  19802834.629  
  23729751.695   124700705.552    23729760.309    97169413.3654   23729760.059  
                
  22552763.602   118515588.760    22552770.914    92349850.6854   22552770.844  
                
  24515443.617   128829529.706    24515454.977   100386695.9784   24515454.453  
                
  21859730.492   114873683.961    21859738.137    89511994.5434   21859738.141  
                
 21  8 16  6 32 40.0000000  0 14G26R 4R21R19G29R 5R10G16G18R20G15G 5
                                G10G23
  21425664.539   112592638.294    21425674.535    87734560.8754   21425674.316  
                
  21053539.609   112740778.994                    87687289.660    21053542.715  
  21053538.320  
  22843699.766   122241255.560                    95076522.479    22843703.316  
  22843697.895  
  22042234.344   117911115.986                    91708627.689    22042238.977  
  22042232.598  
  21372394.469   112312696.962    21372401.980    87516413.4214   21372402.016  
                
  21498732.984   114923066.859                    89384600.234    21498738.105  
  21498732.785  
  21375684.344   113944416.399                                                  
  21375683.672  
  22707651.953   119329527.848    22707658.105    92984076.1074                 
                
  20219875.273   106256198.943    20219882.129    82797056.4484   20219882.172  
                
  19802329.734   105891974.420                    82360448.477    19802335.945  
  19802328.930  
  23725069.688   124676101.110    23725078.203    97150241.1154   23725077.969  
                
  22557815.594   118542137.106    22557822.898    92370537.7054   22557822.844  
                
  24508396.656   128792498.229    24508408.109   100357840.3074   24508407.598  
                
  21854078.445   114843982.238    21854086.059    89488850.3464   21854086.070  
                
 21  8 16  6 32 50.0000000  0 14G26R 4R21R19G29R 5R10G16G18R20G15G 5
                                G10G23
  21425537.547   112591970.936    21425547.520    87734040.8504   21425547.297  
                
  21053841.352   112742394.876                    87688546.463    21053844.445  
  21053840.047  
  22838358.047   122212670.965                    95054290.038    22838361.613  
  22838356.137  
  22047105.133   117937171.632                    91728893.154    22047109.844  
  22047103.461  
  21375983.289   112331556.351    21375990.797    87531109.0494   21375990.840  
                
  21492329.625   114888837.308                    89357977.260    21492334.742  
  21492329.445  
  21380907.008   113972255.958                                                  
  21380906.324  
  22703256.953   119306432.028    22703263.066    92966079.3674                 
                
  20219275.883   106253049.095    20219282.742    82794602.0304   20219282.781  
                
  19801830.125   105889302.815                    82358370.564    19801836.355  
  19801829.332  
  23720394.398   124651532.134    23720402.805    97131096.4824   23720402.570  
                
  22562876.344   118568731.520    22562883.645    92391260.6234   22562883.602  
                
  24501351.281   128755474.664    24501362.754   100328990.8024   24501362.254  
                
  21848434.016   114814320.581    21848441.656    89465737.3804   21848441.645  
                
 21  8 16  6 33  0.0000000  0 14G26R 4R21R19G29R 5R10G16G18R20G15G 5
                                G10G23
  21425422.914   112591368.539    21425432.840    87733571.4444   21425432.648  
                
  21054160.211   112744102.370                    87689874.521    21054163.285  
  21054158.922  
  22833018.016   122184095.350                    95032064.546    22833021.582  
  22833016.082  
  22051978.633   117963241.388                    91749169.609    22051983.371  
  22051976.977  
  21379579.047   112350452.164    21379586.551    87545833.0394   21379586.613  
                
  21485935.977   114854659.640                    89331394.660    21485941.090  
  21485935.781  
  21386141.523   114000158.822                                                  
  21386140.844  
  22698871.773   119283387.715    22698877.855    92948122.7684                 
                
  20218684.211   106249939.838    20218691.070    82792179.2344   20218691.113  
                
  19801336.578   105886663.577                    82356317.827    19801342.816  
  19801335.793  
  23715725.844   124626998.627    23715734.156    97111979.4804   23715733.922  
                
  22567945.812   118595371.696    22567953.086    92412019.2024   22567953.055  
                
  24494307.586   128718458.987    24494318.902   100300147.4294   24494318.414  
                
  21842797.211   114784698.974    21842804.855    89442655.6094   21842804.844  
                
 21  8 16  6 33 10.0000000  0 14G26R 4R21R19G29R 5R10G16G18R20G15G 5
                                G10G23
  21425320.641   112590831.105    21425330.508    87733152.6574   21425330.359  
                
  21054496.180   112745901.529                    87691273.887    21054499.270  
  21054494.898  
  22827679.680   122155528.666                    95009846.046    22827683.223  
  22827677.711  
  22056854.789   117989325.258                    91769457.064    22056859.496  
  22056853.117  
  21383181.734   112369384.384    21383189.242    87560585.4124   21383189.301  
                
  21479552.016   114820533.802                    89304852.349    21479557.121  
  21479551.816  
  21391387.945   114028125.144                                                  
  21391387.254  
  22694496.406   119260394.972    22694502.445    92930206.3334                 
                
  20218100.258   106246871.141    20218107.121    82789788.0414   20218107.152  
                
  19800849.086   105884056.728                    82354290.283    19800855.324  
  19800848.320  
  23711064.047   124602500.636    23711072.254    97092890.1554   23711072.023  
                
  22573024.016   118622057.736    22573031.273    92432813.5214   22573031.258  
                
  24487265.359   128681451.306    24487276.535   100271310.2664   24487276.043  
                
  21837168.047   114755117.511    21837175.699    89419605.1214   21837175.684  
                
 21  8 16  6 33 20.0000000  0 14G26R 4R21R19G29R 5R10G16G18R20G15G 5
                                G10G23
  21425230.766   112590358.809    21425240.578    87732784.6334   21425240.461  
                
  21054849.312   112747792.561                    87692744.677    21054852.398  
  21054848.012  
  22822343.031   122126971.183                    94987634.677    22822346.570  
  22822341.090  
  22061733.586   118015423.538                    91789755.710    22061738.285  
  22061731.898  
  21386791.383   112388353.190    21386798.883    87575366.2844   21386798.938  
                
  21473177.852   114786460.346                    89278350.798    21473182.953  
  21473177.637  
  21396646.180   114056154.545                                                  
  21396645.461  
  22690130.922   119237454.150    22690136.934    92912330.3804                 
                
  20217524.055   106243843.164    20217530.922    82787428.5764   20217530.949  
                
  19800367.672   105881482.410                    82352288.038    19800373.906  
  19800366.906  
  23706409.102   124578038.547    23706417.227    97073828.8274   23706416.992  
                
  22578110.914   118648789.556    22578118.176    92453643.5064   22578118.156  
                
  24480224.688   128644451.823    24480235.734   100242479.5014   24480235.242  
                
  21831546.562   114725576.420    21831554.277    89396586.1074   21831554.227  
                
 21  8 16  6 33 30.0000000  0 14G26R 4R21R19G29R 5R10G16G18R20G15G 5
                                G10G23
  21425153.273   112589951.575    21425163.043    87732467.3084   21425162.945  
                
  21055219.562   112749775.293                    87694286.816    21055222.641  
  21055218.262  
  22817008.086   122098422.832                    94965430.390    22817011.629  
  22817006.191  
  22066615.070   118041535.968                    91810065.362    22066619.730  
  22066613.410  
  21390407.969   112407358.506    21390415.457    87590175.6064   21390415.508  
                
  21466813.484   114752439.303                    89251890.007    21466818.621  
  21466813.242  
  21401916.266   114084247.090                                                  
  21401915.547  
  22685775.312   119214565.262    22685781.301    92894494.8834                 
                
  20216955.586   106240855.820    20216962.461    82785100.7794   20216962.480  
                
  19799892.336   105878940.653                    82350311.112    19799898.586  
  19799891.559  
  23701760.938   124553612.392    23701769.035    97054795.5154   23701768.809  
                
  22583206.477   118675566.898    22583213.727    92474508.9584   22583213.699  
                
  24473185.547   128607460.562    24473196.508   100213655.1514   24473196.023  
                
  21825932.766   114696075.749    21825940.547    89373598.5774   21825940.453  
                
 21  8 16  6 33 40.0000000  0 14G26R 4R21R19G29R 5R10G16G18R20G15G 5
                                G10G23
  21425088.203   112589609.589    21425097.949    87732200.8284   21425097.875  
                
  21055606.977   112751849.965                    87695900.454    21055610.051  
  21055605.668  
  22811674.891   122069883.708                    94943233.269    22811678.461  
  22811673.051  
  22071499.281   118067662.947                    91830386.322    22071503.918  
  22071497.578  
  21394031.562   112426400.560    21394039.039    87605013.5604   21394039.090  
                
  21460458.992   114718471.008                    89225470.246    21460464.137  
  21460458.727  
  21407198.172   114112402.527                                                  
  21407197.434  
  22681429.625   119191728.467    22681435.551    92876699.9704                 
                
  20216394.875   106237909.257    20216401.758    82782804.7564   20216401.770  
                
  19799423.172   105876431.753                    82348359.732    19799429.418  
  19799422.387  
  23697119.703   124529222.588    23697127.734    97035790.4914   23697127.535  
                
  22588310.703   118702389.826    22588317.949    92495409.9364   22588317.922  
                
  24466148.047   128570477.809    24466158.918   100184837.4324   24466158.414  
                
  21820326.711   114666615.743    21820334.508    89350642.7384   21820334.410  
                
 21  8 16  6 33 50.0000000  0 14G26R 4R21R19G29R 5R10G16G18R20G15G 5
                                G10G23
  21425035.562   112589332.914    21425045.305    87731985.2294   21425045.242  
                
  21056011.570   112754016.571                    87697585.584    21056014.629  
  21056010.250  
  22806343.406   122041353.914                    94921043.466    22806347.082  
  22806341.598  
  22076386.148   118093804.389                    91850718.531    22076390.816  
  22076384.492  
  21397662.156   112445479.415    21397669.605    87619880.1824   21397669.676  
                
  21454114.391   114684555.661                    89199091.652    21454119.520  
  21454114.109  
  21412491.914   114140621.098                                                  
  21412491.156  
  22677093.883   119168943.956    22677099.758    92858945.8004                 
                
  20215841.938   106235003.516    20215848.824    82780540.5464   20215848.836  
                
  19798960.109   105873955.543                    82346433.800    19798966.371  
  19798959.312  
  23692485.328   124504869.128    23692493.391    97016813.8024   23692493.168  
                
  22593423.617   118729258.380    22593430.863    92516346.4764   22593430.852  
                
  24459112.164   128533503.681    24459122.988   100156026.4384   24459122.469  
                
  21814728.422   114637196.538    21814736.227    89327718.6944   21814736.117  
                
 21  8 16  6 34  0.0000000  0 14G26R 4R21R19G29R 5R10G16G18R20G15G 5
                                G10G23
  21424995.344   112589121.511    21425005.098    87731820.5004   21425005.023  
                
  21056433.328   112756275.109                    87699342.235    21056436.367  
  21056431.973  
  22801013.656   122012833.433                    94898860.857    22801017.355  
  22801011.848  
  22081275.773   118119960.239                    91871061.946    22081280.414  
  22081274.098  
  21401299.734   112464594.987    21401307.152    87634775.4294   21401307.242  
                
  21447779.750   114650693.506                    89172754.436    21447784.883  
  21447779.484  
  21417797.367   114168902.144                                                  
  21417796.594  
  22672768.109   119146211.804    22672773.938    92841232.4434                 
                
  20215296.750   106232138.539    20215303.648    82778308.1034   20215303.645  
                
  19798503.148   105871511.934                    82344533.216    19798509.406  
  19798502.375  
  23687857.906   124480552.117    23687866.035    96997865.5154   23687865.766  
                
  22598545.203   118756172.455    22598552.449    92537318.4724   22598552.434  
                
  24452077.906   128496538.225    24452088.707   100127222.2074   24452088.184  
                
  21809137.914   114607818.195    21809145.719    89304826.4924   21809145.617  
                
 21  8 16  6 34 10.0000000  0 14G26R 4R21R19G29R 5R10G16G18R20G15G 5
                                G10G23
  21424967.461   112588974.985    21424977.246    87731706.3184   21424977.148  
                
  21056872.188   112758625.260                    87701170.123    21056875.223  
  21056870.801  
  22795685.578   121984321.973                    94876685.318    22795689.316  
  22795683.734  
  22086167.977   118146130.053                    91891416.227    22086172.598  
  22086166.289  
  21404944.195   112483746.720    21404951.582    87649698.8464   21404951.688  
                
  21441454.992   114616884.122                    89146458.276    21441460.141  
  21441454.695  
  21423114.523   114197245.517                                                  
  21423113.754  
  22668452.234   119123531.733    22668458.055    92823559.6564                 
                
  20214759.242   106229313.904    20214766.145    82776107.0914   20214766.137  
                
  19798052.258   105869100.828                    82342657.910    19798058.523  
  19798051.477  
  23683237.367   124456271.301    23683245.527    96978945.4224   23683245.219  
                
  22603675.336   118783131.489    22603682.594    92558325.5044   22603682.570  
                
  24445045.242   128459581.127    24445056.023   100098424.4804   24445055.480  
                
  21803555.109   114578480.398    21803562.934    89281965.8844   21803562.836  
                
 21  8 16  6 34 20.0000000  0 14G26R 4R21R19G29R 5R10G16G18R20G15G 5
                                G10G23
  21424951.961   112588893.482    21424961.789    87731642.8094   21424961.664  
                
  21057328.172   112761067.070                    87703069.303    21057331.199  
  21057326.781  
  22790359.203   121955819.616                    94854516.831    22790362.973  
  22790357.344  
  22091062.812   118172313.990                    91911781.495    22091067.430  
  22091061.039  
  21408595.578   112502934.815    21408602.926    87664650.5904   21408603.039  
                
  21435140.172   114583127.967                    89120203.510    21435145.336  
  21435139.836  
  21428443.367   114225651.130                                                  
  21428442.582  
  22664146.305   119100903.973    22664152.137    92805927.6434                 
                
  20214229.445   106226529.769    20214236.355    82773937.6344   20214236.348  
                
  19797607.430   105866722.122                    82340807.817    19797613.703  
  19797606.637  
  23678623.766   124432026.982    23678631.926    96960053.7664   23678631.613  
                
  22608814.047   118810135.590    22608821.324    92579367.6524   22608821.293  
                
  24438014.188   128422632.644    24438025.012   100069633.4794   24438024.453  
                
  21797980.070   114549183.403    21797987.898    89259137.0694   21797987.793  
                
 21  8 16  6 34 30.0000000  0 14G26R 4R21R19G29R 5R10G16G18R20G15G 5
                                G10G23
  21424948.883   112588877.300    21424958.754    87731630.1864   21424958.598  
                
  21057801.328   112763600.832                    87705040.000    21057804.332  
  21057799.953  
  22785034.617   121927326.691                    94832355.662    22785038.371  
  22785032.730  
  22095960.375   118198512.494                    91932158.086    22095964.988  
  22095958.582  
  21412253.930   112522159.575    21412261.258    87679630.9264   21412261.383  
                
  21428835.383   114549425.415                    89093990.414    21428840.582  
  21428835.059  
  21433783.891   114254119.078                                                  
  21433783.109  
  22659850.383   119078328.785    22659856.234    92788336.5964                 
                
  20213707.391   106223786.377    20213714.305    82771799.9314   20213714.301  
                
  19797168.719   105864376.138                    82338983.159    19797174.992  
  19797167.879  
  23674017.117   124407819.510    23674025.305    96941190.8364   23674025.000  
                
  22613961.359   118837184.917    22613968.617    92600445.0484   22613968.609  
                
  24430984.859   128385693.134    24430995.688   100040849.4584   24430995.105  
                
  21792412.867   114519927.561    21792420.676    89236340.3184   21792420.559  
                
 21  8 16  6 34 40.0000000  0 14G26R 4R21R19G29R 5R10G16G18R20G15G 5
                                G10G23
  21424958.195   112588926.235    21424968.109    87731668.3084   21424967.941  
                
  21058291.633   112766226.375                    87707082.094    21058294.625  
  21058290.293  
  22779711.742   121898842.976                    94810201.646    22779715.477  
  22779709.887  
  22100860.602   118224725.024                    91952545.601    22100865.172  
  22100858.789  
  21415919.242   112541420.825    21415926.562    87694639.6714   21415926.680  
                
  21422540.641   114515776.458                    89067819.024    21422545.859  
  21422540.305  
  21439136.047   114282649.033                                                  
  21439135.277  
  22655564.461   119055806.125    22655570.320    92770786.4624                 
                
  20213193.062   106221083.526    20213199.969    82769693.8184   20213199.965  
                
  19796736.094   105862062.729                    82337183.839    19796742.391  
  19796735.211  
  23669417.523   124383648.871    23669425.770    96922356.5884   23669425.453  
                
  22619117.227   118864279.117    22619124.414    92621557.4094   22619124.418  
                
  24423957.133   128348762.483    24423968.062   100012072.3294   24423967.426  
                
  21786853.492   114490712.793    21786861.246    89213575.5654   21786861.152  
                
 21  8 16  6 34 50.0000000  0 14G26R 4R21R19G29R 5R10G16G18R20G15G 5
                                G10G23
  21424979.922   112589040.389    21424989.875    87731757.2614   21424989.676  
                
  21058799.070   112768943.718                    87709195.598    21058802.051  
  21058797.770  
  22774390.609   121870368.583                    94788054.914    22774394.301  
  22774388.789  
  22105763.500   118250952.069                    91972944.398    22105768.059  
  22105761.664  
  21419591.484   112560718.554    21419598.805    87709676.8524   21419598.914  
                
  21416255.953   114482181.337                    89041689.516    21416261.203  
  21416255.594  
  21444499.805   114311240.767                                                  
  21444499.023  
  22651288.570   119033336.190    22651294.441    92753277.4324                 
                
  20212686.453   106218421.286    20212693.355    82767619.3464   20212693.355  
                
  19796309.586   105859782.045                    82335409.978    19796315.871  
  19796308.703  
  23664824.945   124359515.136    23664833.285    96903551.1364   23664832.988  
                
  22624281.641   118891418.275    22624288.773    92642704.8014   22624288.762  
                
  24416931.125   128311840.880    24416942.105    99983302.2554   24416941.445  
                
  21781301.953   114461539.254    21781309.680    89190842.9484   21781309.578  
                
 21  8 16  6 35  0.0000000  0 14G26R 4R21R19G29R 5R10G16G18R20G15G 5
                                G10G23
  21425014.016   112589219.602    21425023.988    87731896.9024   21425023.770  
                
  21059323.648   112771752.830                    87711380.454    21059326.621  
  21059322.340  
  22769071.211   121841903.402                    94765915.349    22769074.867  
  22769069.387  
  22110669.008   118277193.145                    91993354.126    22110673.566  
  22110667.160  
  21423270.656   112580052.686    21423277.984    87724742.4044   21423278.086  
                
  21409981.367   114448640.098                    89015601.871    21409986.598  
  21409981.020  
  21449875.109   114339894.074                                                  
  21449874.332  
  22647022.695   119010918.895    22647028.594    92735809.4154                 
                
  20212187.547   106215799.484    20212194.445    82765576.3884   20212194.445  
                
  19795889.172   105857533.887                    82333661.413    19795895.457  
  19795888.266  
  23660239.414   124335418.443    23660247.816    96884774.5264   23660247.543  
                
  22629454.562   118918602.171    22629461.680    92663887.0484   22629461.668  
                
  24409906.828   128274928.245    24409917.871    99954539.1874   24409917.195  
                
  21775758.242   114432406.887    21775765.949    89168142.4114   21775765.848  
                
 21  8 16  6 35 10.0000000  0 14G26R 4R21R19G29R 5R10G16G18R20G15G 5
                                G10G23
  21425060.523   112589464.014    21425070.492    87732087.3414   21425070.262  
                
  21059865.367   112774653.742                    87713636.724    21059868.340  
  21059864.059  
  22763753.523   121813447.492                    94743782.989    22763757.152  
  22763751.688  
  22115577.234   118303448.435                    92013774.878    22115581.723  
  22115575.367  
  21426956.766   112599423.283    21426964.109    87739836.3634   21426964.191  
                
  21403716.898   114415152.968                    88989556.337    21403722.098  
  21403716.566  
  21455262.031   114368609.318                                                  
  21455261.199  
  22642766.898   118988554.476    22642772.797    92718382.5854                 
                
  20211696.344   106213218.227    20211703.242    82763565.0214   20211703.242  
                
  19795474.867   105855318.460                    82331938.303    19795481.141  
  19795473.949  
  23655660.992   124311358.935    23655669.414    96866026.8804   23655669.152  
                
  22634635.984   118945830.736    22634643.109    92685104.0994   22634643.090  
                
  24402884.305   128238024.788    24402895.395    99925783.2744   24402894.723  
                
  21770222.414   114403315.899    21770230.098    89145474.1184   21770229.984  
                
 21  8 16  6 35 20.0000000  0 14G26R 4R21R19G29R 5R10G16G18R20G15G 5
                                G10G23
  21425119.406   112589773.422    21425129.352    87732328.4334   21425129.137  
                
  21060424.195   112777646.287                    87715964.257    21060427.168  
  21060422.883  
  22758437.594   121785000.794                    94721657.788    22758441.180  
  22758435.719  
  22120488.055   118329717.840                    92034206.625    22120492.523  
  22120486.148  
  21430649.797   112618830.234    21430657.160    87754958.6534   21430657.230  
                
  21397462.555   114381720.013                    88963552.945    21397467.758  
  21397462.211  
  21460660.438   114397385.833                                                  
  21460659.582  
  22638521.125   118966242.814    22638527.000    92700996.8694                 
                
  20211212.828   106210677.319    20211219.730    82761585.0934   20211219.719  
                
  19795066.625   105853135.409                    82330240.376    19795072.895  
  19795065.688  
  23651089.625   124287336.586    23651098.113    96847308.1994   23651097.855  
                
  22639825.867   118973103.776    22639832.996    92706355.8134   22639832.969  
                
  24395863.477   128201130.422    24395874.633    99897034.4444   24395873.945  
                
  21764694.438   114374266.193    21764702.070    89122837.9864   21764701.941  
                
 21  8 16  6 35 30.0000000  0 14G26R 4R21R19G29R 5R10G16G18R20G15G 5
                                G10G23
  21425190.695   112590148.048    21425200.605    87732620.3494   21425200.391  
                
  21061000.172   112780730.591                    87718363.150    21061003.133  
  21060998.871  
  22753123.414   121756563.515                    94699539.892    22753126.945  
  22753121.562  
  22125401.445   118356001.580                    92054649.483    22125406.020  
  22125399.574  
  21434349.781   112638273.677    21434357.156    87770109.3804   21434357.211  
                
  21391218.422   114348341.548                    88937591.927    21391223.621  
  21391218.074  
  21466070.336   114426223.557                                                  
  21466069.492  
  22634285.477   118943984.270    22634291.348    92683652.5604                 
                
  20210737.031   106208176.959    20210743.953    82759636.7674   20210743.934  
                
  19794664.500   105850985.058                    82328567.885    19794670.766  
  19794663.555  
  23646525.453   124263351.727    23646533.957    96828618.7194   23646533.691  
                
  22645024.219   119000421.309    22645031.320    92727642.1994   22645031.297  
                
  24388844.430   128164245.433    24388855.641    99868292.9294   24388854.969  
                
  21759174.383   114345258.081    21759181.953    89100234.2724   21759181.844  
                
 21  8 16  6 35 40.0000000  0 14G26R 4R21R19G29R 5R10G16G18R20G15G 5
                                G10G23
  21425274.344   112590587.641    21425284.203    87732962.8814   21425284.023  
                
  21061593.250   112783906.564                    87720833.333    21061596.203  
  21061591.961  
  22747810.930   121728135.420                    94677429.172    22747814.465  
  22747809.102  
  22130317.484   118382299.215                    92075103.188    22130322.078  
  22130315.648  
  21438056.648   112657753.369    21438064.012    87785288.3594   21438064.082  
                
  21384984.453   114315017.468                    88911673.220    21384989.676  
  21384984.094  
  21471491.680   114455122.377                                                  
  21471490.820  
  22630059.875   118921778.630    22630065.770    92666349.4604                 
                
  20210268.891   106205716.865    20210275.840    82757719.8104   20210275.797  
                
  19794268.445   105848867.239                    82326920.689    19794274.695  
  19794267.484  
  23641968.359   124239404.190    23641976.898    96809958.3234   23641976.637  
                
  22650230.977   119027783.029    22650238.016    92748963.0154   22650238.016  
                
  24381827.172   128127369.663    24381838.391    99839558.5954   24381837.703  
                
  21753662.203   114316291.376    21753669.742    89077662.8204   21753669.645  
                
 21  8 16  6 35 50.0000000  0 14G26R 4R21R19G29R 5R10G16G18R20G15G 5
                                G10G23
  21425370.422   112591092.479    21425380.230    87733356.2604   21425380.070  
                
  21062203.477   112787174.323                    87723374.925    21062206.402  
  21062202.195  
  22742500.195   121699716.689                    94655325.717    22742503.746  
  22742498.391  
  22135236.188   118408611.218                    92095568.076    22135240.855  
  22135234.410  
  21441770.477   112677269.590    21441777.824    87800495.7924   21441777.910  
                
  21378760.742   114281748.229                    88885797.154    21378765.961  
  21378760.391  
  21476924.500   114484082.315                                                  
  21476923.645  
  22625844.406   118899626.238    22625850.352    92649087.8634                 
                
  20209808.461   106203297.295    20209815.441    82755834.4354   20209815.371  
                
  19793878.523   105846782.154                    82325298.970    19793884.766  
  19793877.566  
  23637418.406   124215494.382    23637427.008    96791327.3204   23637426.742  
                
  22655446.195   119055189.187    22655453.195    92770318.4664   22655453.211  
                
  24374811.789   128090503.483    24374822.953    99810831.7334   24374822.277  
                
  21748157.977   114287366.463    21748165.543    89055123.9434   21748165.426  
                
 21  8 16  6 36  0.0000000  0 14G26R 4R21R19G29R 5R10G16G18R20G15G 5
                                G10G23
  21425478.867   112591662.382    21425488.621    87733800.3374   21425488.477  
                
  21062830.820   112790533.756                    87725987.819    21062833.730  
  21062829.539  
  22737191.203   121671307.248                    94633229.459    22737194.727  
  22737189.418  
  22140157.570   118434937.312                    92116043.904    22140162.277  
  22140155.734  
  21445491.219   112696822.128    21445498.574    87815731.5364   21445498.656  
                
  21372547.305   114248534.014                    88859963.876    21372552.520  
  21372546.957  
  21482368.680   114513102.808                                                  
  21482367.848  
  22621639.070   118877527.076    22621645.055    92631867.7444                 
                
  20209355.711   106200918.062    20209362.719    82753980.4974   20209362.637  
                
  19793494.688   105844729.595                    82323702.527    19793500.918  
  19793493.719  
  23632875.594   124191622.265    23632884.309    96772725.7194   23632884.035  
                
  22660669.789   119082639.404    22660676.770    92791708.2264   22660676.793  
                
  24367798.219   128053646.805    24367809.320    99782112.2724   24367808.668  
                
  21742661.680   114258483.260    21742669.289    89032617.5634   21742669.152  
                
 21  8 16  6 36 10.0000000  0 14G26R 4R21R19G29R 5R10G16G18R20G15G 5
                                G10G23
  21425599.727   112592297.447    21425609.430    87734295.1914   21425609.305  
                
  21063475.289   112793984.905                    87728672.040    21063478.188  
  21063473.988  
  22731883.984   121642907.243                    94611140.609    22731887.516  
  22731882.203  
  22145081.586   118461277.673                    92136530.844    22145086.371  
  22145079.746  
  21449218.883   112716411.109    21449226.246    87830995.6714   21449226.320  
                
  21366344.164   114215374.793                    88834173.388    21366349.375  
  21366343.820  
  21487824.266   114542184.041                                                  
  21487823.414  
  22617443.898   118855481.313    22617449.871    92614689.2284                 
                
  20208910.656   106198579.264    20208917.676    82752158.0534   20208917.586  
                
  19793116.961   105842709.776                    82322131.557    19793123.188  
  19793116.012  
  23628340.031   124167788.088    23628348.828    96754153.6474   23628348.527  
                
  22665901.797   119110133.724    22665908.785    92813132.3684   22665908.785  
                
  24360786.414   128016799.805    24360797.496    99753400.3514   24360796.887  
                
  21737173.352   114229641.933    21737180.973    89010143.8134   21737180.832  
                
 21  8 16  6 36 20.0000000  0 14G26R 4R21R19G29R 5R10G16G18R20G15G 5
                                G10G23
  21425732.992   112592997.733    21425742.652    87734840.8674   21425742.555  
                
  21064136.906   112797527.860                    87731427.653    21064139.797  
  21064135.613  
  22726578.508   121614516.709                    94589059.081    22726582.082  
  22726576.758  
  22150008.188   118487632.065                    92157028.683    22150013.086  
  22150006.359  
  21452953.492   112736036.557    21452960.844    87846288.2104   21452960.930  
                
  21360151.391   114182270.997                    88808425.995    21360156.617  
  21360151.047  
  21493291.203   114571325.931                                                  
  21493290.332  
  22613258.914   118833489.045    22613264.879    92597552.3974                 
                
