     2.11           OBSERVATION DATA    M (MIXED)           RINEX VERSION / TYPE
EFT-CORS.RU                             20210817 150623 UTC PGM / RUN BY / DATE 
MDNG                                                        MARKER NAME         
                                                            MARKER NUMBER       
MDNG                EFT-CORS.RU                             OBSERVER / AGENCY   
0                   TRIMBLE BD970       2.0                 REC # / TYPE / VERS 
0                   UNKNOWN EXT NONE                        ANT # / TYPE        
  3463911.2830  3030468.2400  4402179.3760                  APPROX POSITION XYZ 
        0.0000        0.0000        0.0000                  ANTENNA: DELTA H/E/N
     1     1                                                WAVELENGTH FACT L1/2
     6    C1    L1    P2    L2    C2    P1                  # / TYPES OF OBSERV 
    10.000                                                  INTERVAL            
  2021     8    14    11    30    0.0000000     GPS         TIME OF FIRST OBS   
  2021     8    14    12    30    0.0000000     GPS         TIME OF LAST OBS    
     0                                                      RCV CLOCK OFFS APPL 
                                                            END OF HEADER       
 21  8 14 11 30  0.0000000  0 13R 4G 8G21G 1G27G22G32G10G 3R 6R21R20
                                R 5
  22950844.328   122900759.334                    95589477.556    22950847.676  
  22950842.805  
  21971613.375   115461615.282    21971622.695    89970131.9614   21971623.277  
                
  21616691.391   113596486.896    21616697.297    88516799.7924                 
                
  22214688.664   116739001.733    22214698.812    90965500.6284   22214698.367  
                
  23287935.695   122378927.440    23287945.414    95360234.4904   23287945.473  
                
  22823526.438   119938460.615    22823531.172    93458573.9334                 
                
  20720385.109   108886406.848    20720393.023    84846606.5794   20720393.512  
                
  22389612.828   117658239.720    22389622.215    91681806.7664   22389621.621  
                
  24461260.961   128544798.393    24461271.371   100164820.9164   24461271.828  
                
  20713570.773   110531593.957                                                  
  20713568.285  
  20646593.828   110484114.384                    85932086.280    20646597.262  
  20646592.023  
  19509088.070   104323849.719                    81140831.164    19509094.594  
  19509087.414  
  19540435.984   104454861.637                    81242687.710    19540439.812  
  19540435.922  
 21  8 14 11 30 10.0000000  0 13R 4G 8G21G 1G27G22G32G10G 3R 6R21R20
                                R 5
  22957916.859   122938632.791                    95618934.673    22957920.297  
  22957915.371  
  21975652.180   115482839.288    21975661.531    89986670.1444   21975662.129  
                
  21613531.469   113579881.398    21613537.371    88503860.4424                 
                
  22209021.750   116709221.903    22209031.887    90942295.5714   22209031.438  
                
  23294564.469   122413761.572    23294574.203    95387377.9484   23294574.262  
                
  22818942.664   119914372.686    22818947.395    93439804.1324                 
                
  20721514.422   108892341.442    20721522.348    84851230.9354   20721522.828  
                
  22394096.383   117681800.893    22394105.773    91700166.1214   22394105.191  
                
  24455508.469   128514569.155    24455518.957   100141265.6894   24455519.414  
                
  20708750.164   110505870.318                                                  
  20708747.672  
  20641131.234   110454882.957                    85909350.731    20641134.656  
  20641129.445  
  19512285.195   104340946.164                    81154128.376    19512291.715  
  19512284.539  
  19543414.805   104470785.137                    81255072.653    19543418.633  
  19543414.727  
 21  8 14 11 30 20.0000000  0 13R 4G 8G21G 1G27G22G32G10G 3R 6R21R20
                                R 5
  22964990.117   122976510.143                    95648394.837    22964993.645  
  22964988.652  
  21979700.617   115504113.944    21979710.012    90003247.7974   21979710.617  
                
  21610377.250   113563305.887    21610383.129    88490944.4644                 
                
  22203359.328   116679465.740    22203369.438    90919108.9584   22203369.016  
                
  23301197.094   122448615.760    23301206.805    95414537.0494   23301206.852  
                
  22814362.516   119890303.830    22814367.223    93421049.1844                 
                
  20722655.000   108898335.296    20722662.938    84855901.4804   20722663.426  
                
  22398583.117   117705378.819    22398592.508    91718538.5184   22398591.926  
                
  24449758.000   128484350.633    24449768.551   100117718.8044   24449768.969  
                
  20703938.656   110480195.178                                                  
  20703936.180  
  20635679.266   110425708.370                    85886659.402    20635682.680  
  20635677.465  
  19515497.086   104358121.635                    81167487.083    19515503.609  
  19515496.434  
  19546403.516   104486761.524                    81267498.730    19546407.344  
  19546403.418  
 21  8 14 11 30 30.0000000  0 13R 4G 8G21G 1G27G22G32G10G 3R 6R21R20
                                R 5
  22972063.969   123014390.867                    95677857.543    22972067.629  
  22972062.449  
  21983758.531   115525438.444    21983767.992    90019864.2774   21983768.598  
                
  21607228.688   113546760.056    21607234.555    88478051.6114                 
                
  22197701.367   116649733.013    22197711.473    90895940.6124   22197711.035  
                
  23307833.430   122483489.514    23307843.090    95441711.3904   23307843.125  
                
  22809785.930   119866253.669    22809790.629    93402308.8054                 
                
  20723806.781   108904387.996    20723814.734    84860617.8684   20723815.230  
                
  22403072.953   117728973.062    22403082.340    91736923.6424   22403081.777  
                
  24444009.562   128454142.419    24444020.145   100094179.9894   24444020.547  
                
  20699136.156   110454568.191                                                  
  20699133.703  
  20630237.859   110396590.289                    85864012.005    20630241.270  
  20630236.066  
  19518723.750   104375376.028                    81180907.166    19518730.285  
  19518723.117  
  19549402.047   104502790.376                    81279965.610    19549405.883  
  19549401.938  
 21  8 14 11 30 40.0000000  0 13R 4G 8G21G 1G27G22G32G10G 3R 6R21R20
                                R 5
  22979138.484   123052274.674                    95707322.689    22979142.156  
  22979136.934  
  21987825.867   115546812.430    21987835.391    90036519.3204   21987835.992  
                
  21604085.695   113530243.560    21604091.551    88465181.6174                 
                
  22192047.805   116620023.401    22192057.883    90872790.2694   22192057.461  
                
  23314473.391   122518382.393    23314482.984    95468900.6414   23314483.004  
                
  22805212.828   119842221.949    22805217.512    93383582.8044                 
                
  20724969.695   108910499.164    20724977.672    84865379.8234   20724978.160  
                
  22407565.836   117752583.288    22407575.215    91755321.2174   22407574.652  
                
  24438263.039   128423944.248    24438273.543   100070648.9204   24438273.941  
                
  20694342.656   110428989.179                                                  
  20694340.223  
  20624807.000   110367528.711                    85841408.560    20624810.395  
  20624805.211  
  19521965.023   104392708.540                    81194388.003    19521971.562  
  19521964.414  
  19552410.281   104518871.149                    81292472.871    19552414.125  
  19552410.160  
 21  8 14 11 30 50.0000000  0 13R 4G 8G21G 1G27G22G32G10G 3R 6R21R20
                                R 5
  22986213.703   123090162.094                    95736790.672    22986217.355  
  22986212.133  
  21991902.773   115568236.642    21991912.352    90053213.5084   21991912.934  
                
  21600948.477   113513757.339    21600954.312    88452335.2074                 
                
  22186398.836   116590337.933    22186408.910    90849658.7454   22186408.520  
                
  23321117.062   122553295.208    23321126.672    95496105.4114   23321126.695  
                
  22800643.414   119818209.588    22800648.086    93364871.8844                 
                
  20726143.891   108916669.674    20726151.895    84870188.0084   20726152.379  
                
  22412061.914   117776210.356    22412071.297    91773731.9094   22412070.719  
                
  24432518.508   128393756.943    24432529.090   100047126.4274   24432529.480  
                
  20689558.234   110403458.692                                                  
  20689555.824  
  20619386.875   110338524.508                    85818849.743    20619390.250  
  20619385.090  
  19525221.180   104410120.568                    81207930.692    19525227.719  
  19525220.586  
  19555428.414   104535004.827                    81305021.280    19555432.266  
  19555428.297  
 21  8 14 11 31  0.0000000  0 13R 4G 8G21G 1G27G22G32G10G 3R 6R21R20
                                R 5
  22993289.492   123128052.514                    95766260.977    22993293.133  
  22993287.914  
  21995989.109   115589710.485    21995998.738    90069946.3694   21995999.301  
                
  21597816.898   113497300.816    21597822.723    88439511.9454                 
                
  22180754.352   116560676.016    22180764.473    90826545.5714   22180764.078  
                
  23327764.414   122588227.184    23327773.984    95523325.1164   23327774.004  
                
  22796077.570   119794215.975    22796082.199    93346175.5564                 
                
  20727329.250   108922898.827    20727337.297    84875041.8914   20727337.785  
                
  22416561.078   117799853.602    22416570.457    91792155.2164   22416569.895  
                
  24426776.016   128363579.982    24426786.559   100023611.8924   24426786.922  
                
  20684782.859   110377976.329                                                  
  20684780.434  
  20613977.375   110309577.201                    85796335.167    20613980.711  
  20613975.590  
  19528491.969   104427610.992                    81221534.352    19528498.520  
  19528491.387  
  19558456.258   104551190.402                    81317610.059    19558460.109  
  19558456.137  
 21  8 14 11 31 10.0000000  0 13R 4G 8G21G 1G27G22G32G10G 3R 6R21R20
                                R 5
  23000365.914   123165946.387                    95795733.994    23000369.543  
  23000364.395  
  22000084.984   115611234.393    22000094.660    90086718.2384   22000095.207  
                
  21594691.109   113480874.707    21594696.930    88426712.3804                 
                
  22175114.461   116531038.250    22175124.637    90803451.2224   22175124.219  
                
  23334415.461   122623178.748    23334425.035    95550560.0904   23334425.062  
                
  22791515.406   119770241.684    22791520.031    93327494.3034                 
                
  20728525.859   108929187.108    20728533.953    84879941.8544   20728534.426  
                
  22421063.406   117823513.530    22421072.766    91810591.5124   22421072.246  
                
  24421035.523   128333413.843    24421046.215   100000105.8914   24421046.535  
                
  20680016.602   110352542.671                                                  
  20680014.195  
  20608578.648   110280687.554                    85773865.439    20608581.957  
  20608576.879  
  19531777.547   104445180.386                    81235199.418    19531784.102  
  19531776.961  
  19561493.961   104567428.632                    81330239.791    19561497.816  
  19561493.844  
 21  8 14 11 31 20.0000000  0 13R 4G 8G21G 1G27G22G32G10G 3R 6R21R20
                                R 5
  23007442.836   123203843.059                    95825209.161    23007446.465  
  23007441.348  
  22004190.250   115632807.668    22004199.969    90103528.5694   22004200.512  
                
  21591571.000   113464478.406    21591576.816    88413936.0454                 
                
  22169479.070   116501424.112    22169489.293    90780375.2904   22169488.844  
                
  23341070.062   122658149.179    23341079.695    95577809.7494   23341079.711  
                
  22786956.805   119746286.099    22786961.441    93308827.6224                 
                
  20729733.602   108935533.867    20729741.746    84884887.3764   20729742.207  
                
  22425568.789   117847189.475    22425578.164    91829040.2914   22425577.660  
                
  24415297.117   128303257.991    24415307.750    99976607.8084   24415308.051  
                
  20675259.367   110327157.119                                                  
  20675256.961  
  20603190.609   110251855.064                    85751440.173    20603193.898  
  20603188.844  
  19535077.805   104462828.229                    81248925.515    19535084.367  
  19535077.258  
  19564541.320   104583718.520                    81342909.699    19564545.191  
  19564541.207  
 21  8 14 11 31 30.0000000  0 13R 4G 8G21G 1G27G22G32G10G 3R 6R21R20
                                R 5
  23014520.336   123241742.843                    95854686.735    23014523.969  
  23014518.836  
  22008304.977   115654430.645    22008314.723    90120377.6384   22008315.254  
                
  21588456.625   113448112.277    21588462.445    88401183.2094                 
                
  22163848.266   116471833.990    22163858.484    90757318.0584   22163858.027  
                
  23347728.305   122693138.682    23347737.973    95605074.2794   23347737.980  
                
  22782401.805   119722349.455    22782406.469    93290175.7024                 
                
  20730952.516   108941939.378    20730960.715    84889878.6814   20730961.152  
                
  22430077.273   117870881.755    22430086.664    91847501.7944   22430086.164  
                
  24409560.711   128273112.713    24409571.305    99953118.0194   24409571.594  
                
  20670511.242   110301820.232                                                  
  20670508.852  
  20597813.328   110223080.155                    85729059.693    20597816.609  
  20597811.551  
  19538392.742   104480554.663                    81262712.738    19538399.305  
  19538392.234  
  19567598.422   104600060.489                    81355620.122    19567602.277  
  19567598.312  
 21  8 14 11 31 40.0000000  0 13R 4G 8G21G 1G27G22G32G10G 3R 6R21R20
                                R 5
  23021598.359   123279645.204                    95884166.323    23021601.977  
  23021596.879  
  22012429.062   115676102.751    22012438.812    90137264.9944   22012439.328  
                
  21585347.945   113431776.021    21585353.777    88388453.6674                 
                
  22158221.984   116442267.707    22158232.180    90734279.3894   22158231.719  
                
  23354390.133   122728146.873    23354399.785    95632353.3774   23354399.812  
                
  22777850.398   119698431.571    22777855.070    93271538.3934                 
                
  20732182.562   108948403.319    20732190.809    84894915.5274   20732191.227  
                
  22434588.812   117894590.068    22434598.215    91865975.7944   22434597.723  
                
  24403826.188   128242977.751    24403836.812    99929636.2584   24403837.133  
                
  20665772.164   110276531.529                                                  
  20665769.789  
  20592446.773   110194362.689                    85706723.891    20592450.047  
  20592444.996  
  19541722.344   104498359.455                    81276560.909    19541728.910  
  19541721.836  
  19570665.180   104616454.050                    81368370.671    19570669.027  
  19570665.074  
 21  8 14 11 31 50.0000000  0 13R 4G 8G21G 1G27G22G32G10G 3R 6R21R20
                                R 5
  23028676.984   123317550.702                    95913648.363    23028680.590  
  23028675.508  
  22016562.594   115697824.525    22016572.340    90154191.0454   22016572.867  
                
  21582245.094   113415470.433    21582250.934    88375748.0104                 
                
  22152600.375   116412725.980    22152610.531    90711259.8674   22152610.082  
                
  23361055.641   122763174.312    23361065.250    95659647.4694   23361065.309  
                
  22773302.656   119674533.024    22773307.359    93252916.1524                 
                
  20733423.844   108954926.306    20733432.141    84899998.3744   20733432.543  
                
  22439103.516   117918315.017    22439112.957    91884462.7534   22439112.438  
                
  24398093.883   128212853.820    24398104.305    99906163.0404   24398104.641  
                
  20661042.258   110251291.813                                                  
  20661039.879  
  20587091.125   110165703.579                    85684433.469    20587094.391  
  20587089.363  
  19545066.672   104516243.096                    81290470.393    19545073.266  
  19545066.156  
  19573741.695   104632899.803                    81381161.816    19573745.547  
  19573741.590  
 21  8 14 11 32  0.0000000  0 13R 4G 8G21G 1G27G22G32G10G 3R 6R21R20
                                R 5
  23035756.070   123355458.836                    95943132.449    23035759.660  
  23035754.617  
  22020705.508   115719595.626    22020715.258    90171155.5334   22020715.773  
                
  21579147.977   113399194.977    21579153.816    88363065.8394                 
                
  22146983.352   116383208.373    22146993.469    90688259.1474   22146993.047  
                
  23367724.695   122798220.351    23367734.273    95686956.0474   23367734.340  
                
  22768758.492   119650653.298    22768763.266    93234308.6024                 
                
  20734676.258   108961507.803    20734684.594    84905126.8124   20734684.984  
                
  22443621.281   117942056.082    22443630.758    91902962.2714   22443630.223  
                
  24392363.359   128182740.315    24392373.996    99882698.1134   24392374.309  
                
  20656321.406   110226100.511                                                  
  20656319.031  
  20581746.297   110137102.336                    85662188.058    20581749.520  
  20581744.539  
  19548425.664   104534205.093                    81304440.832    19548432.273  
  19548425.164  
  19576827.859   104649397.134                    81393993.072    19576831.699  
  19576827.746  
 21  8 14 11 32 10.0000000  0 13R 4G 8G21G 1G27G22G32G10G 3R 6R21R20
                                R 5
  23042835.617   123393369.374                    95972618.401    23042839.184  
  23042834.188  
  22024857.719   115741415.552    22024867.477    90188158.0664   22024867.980  
                
  21576056.570   113382949.511    21576062.398    88350407.0394                 
                
  22141370.898   116353714.760    22141380.992    90665277.1274   22141380.602  
                
  23374397.281   122833284.686    23374406.789    95714278.8934   23374406.879  
                
  22764217.875   119626792.229    22764222.684    93215715.5694                 
                
  20735939.758   108968147.521    20735948.137    84910300.6234   20735948.512  
                
  22448142.078   117965812.998    22448151.551    91921474.1464   22448151.027  
                
  24386635.148   128152637.238    24386645.496    99859241.1034   24386645.812  
                
  20651609.633   110200957.567                                                  
  20651607.230  
  20576412.289   110108558.933                    85639987.642    20576415.484  
  20576410.535  
  19551799.258   104552245.148                    81318471.981    19551805.887  
  19551798.781  
  19579923.602   104665945.642                    81406864.135    19579927.430  
  19579923.488  
 21  8 14 11 32 20.0000000  0 13R 4G 8G21G 1G27G22G32G10G 3R 6R21R20
                                R 5
  23049915.609   123431282.412                    96002106.307    23049919.180  
  23049914.199  
  22029019.273   115763284.633    22029029.031    90205198.8964   22029029.504  
                
  21572970.953   113366734.488    21572976.773    88337771.9514                 
                
  22135763.094   116324245.590    22135773.234    90642314.1484   22135772.812  
                
  23381073.375   122868367.578    23381082.809    95741616.1974   23381082.918  
                
  22759680.875   119602950.207    22759685.691    93197137.3734                 
                
  20737214.398   108974845.825    20737222.812    84915520.0834   20737223.184  
                
  22452665.969   117989586.146    22452675.469    91939998.6614   22452674.918  
                
  24380908.648   128122544.793    24380919.113    99835792.5264   24380919.418  
                
  20646906.969   110175863.241                                                  
  20646904.555  
  20571089.172   110080073.877                    85617832.604    20571092.336  
  20571087.391  
  19555187.531   104570363.706                    81332564.176    19555194.141  
  19555187.070  
  19583028.992   104682545.699                    81419775.286    19583032.809  
  19583028.879  
 21  8 14 11 32 30.0000000  0 13R 4G 8G21G 1G27G22G32G10G 3R 6R21R20
                                R 5
  23056996.062   123469197.974                    96031596.179    23056999.629  
  23056994.676  
  22033190.109   115785202.490    22033199.852    90222277.7454   22033200.309  
                
  21569891.117   113350549.858    21569896.934    88325160.5504                 
                
  22130159.938   116294800.816    22130170.133    90619370.1784   22130169.672  
                
  23387752.906   122903468.826    23387762.297    95768967.8024   23387762.422  
                
  22755147.477   119579127.090    22755152.309    93178573.9214                 
                
  20738500.148   108981602.522    20738508.602    84920785.0444   20738508.953  
                
  22457192.898   118013375.342    22457202.395    91958535.6914   22457201.836  
                
  24375184.336   128092463.018    24375194.777    99812352.1814   24375195.066  
                
  20642213.422   110150817.590                                                  
  20642210.992  
  20565776.961   110051647.284                    85595723.030    20565780.117  
  20565775.180  
  19558590.414   104588560.435                    81346717.177    19558597.027  
  19558589.957  
  19586143.977   104699197.061                    81432726.335    19586147.789  
  19586143.871  
 21  8 14 11 32 40.0000000  0 13R 4G 8G21G 1G27G22G32G10G 3R 6R21R20
                                R 5
  23064077.047   123507116.229                    96061088.148    23064080.594  
  23064075.680  
  22037370.312   115807169.557    22037380.031    90239394.9214   22037380.504  
                
  21566817.156   113334396.038    21566822.984    88312573.1654                 
                
  22124561.516   116265380.888    22124571.699    90596445.5604   22124571.262  
                
  23394435.984   122938588.649    23394445.312    95796333.8844   23394445.473  
                
  22750617.766   119555323.334    22750622.578    93160025.5334                 
                
  20739797.078   108988417.950    20739805.578    84926095.7634   20739805.910  
                
  22461722.961   118037180.937    22461732.418    91977085.5014   22461731.879  
                
  24369461.898   128062392.142    24369472.387    99788920.3544   24369472.668  
                
  20637529.016   110125820.749                                                  
  20637526.578  
  20560475.766   110023279.559                    85573659.254    20560478.926  
  20560474.000  
  19562008.008   104606835.847                    81360931.390    19562014.625  
  19562007.551  
  19589268.617   104715900.038                    81445717.548    19589272.434  
  19589268.531  
 21  8 14 11 32 50.0000000  0 13R 4G 8G21G 1G27G22G32G10G 3R 6R21R20
                                R 5
  23071158.453   123545036.702                    96090581.847    23071161.984  
  23071157.141  
  22041559.812   115829185.489    22041569.492    90256550.1894   22041569.996  
                
  21563749.000   113318272.779    21563754.848    88300009.5914                 
                
  22118967.766   116235985.526    22118977.953    90573540.0884   22118977.539  
                
  23401122.570   122973726.552    23401131.754    95823714.0634   23401131.930  
                
  22746091.680   119531538.580    22746096.465    93141491.9634                 
                
  20741105.109   108995291.700    20741113.645    84931451.9294   20741113.969  
                
  22466256.062   118061002.530    22466265.477    91995647.7764   22466264.969  
                
  24363741.789   128032331.962    24363752.199    99765496.8614   24363752.441  
                
  20632853.758   110100872.752                                                  
  20632851.340  
  20555185.531   109994970.461                    85551641.063    20555188.672  
  20555183.781  
  19565440.203   104625189.251                    81375206.247    19565446.809  
  19565439.711  
  19592402.812   104732654.039                    81458748.432    19592406.625  
  19592402.719  
 21  8 14 11 33  0.0000000  0 13R 4G 8G21G 1G27G22G32G10G 3R 6R21R20
                                R 5
  23078240.219   123582959.083                    96120077.044    23078243.727  
  23078238.945  
  22045758.523   115851249.872    22045768.148    90273743.2074   22045768.660  
                
  21560686.594   113302179.734    21560692.461    88287469.5534                 
                
  22113378.633   116206614.484    22113388.871    90550653.5704   22113388.441  
                
  23407812.594   123008882.178    23407821.594    95851108.0514   23407821.812  
                
  22741569.133   119507772.534    22741573.887    93122972.9804                 
                
  20742424.156   109002223.405    20742432.730    84936853.2544   20742433.035  
                
  22470792.156   118084839.820    22470801.543    92014222.2834   22470801.039  
                
  24358023.289   128002282.104    24358033.875    99742081.4224   24358034.129  
                
  20628187.594   110075973.282                                                  
  20628185.176  
  20549906.234   109966719.856                    85529668.366    20549909.367  
  20549904.496  
  19568886.938   104643620.527                    81389541.673    19568893.531  
  19568886.402  
  19595546.492   104749458.861                    81471818.845    19595550.312  
  19595546.406  
 21  8 14 11 33 10.0000000  0 13R 4G 8G21G 1G27G22G32G10G 3R 6R21R20
                                R 5
  23085322.453   123620884.101                    96149574.257    23085326.000  
  23085321.164  
  22049966.570   115873363.230    22049976.125    90290974.3904   22049976.652  
                
  21557630.109   113286117.772    21557636.004    88274953.7454                 
                
  22107794.312   116177268.683    22107804.605    90527786.7254   22107804.176  
                
  23414506.039   123044056.218    23414514.992    95878516.3884   23414515.238  
                
  22737050.320   119484026.006    22737055.031    93104469.1924                 
                
  20743754.391   109009213.849    20743763.008    84942300.3544   20743763.293  
                
  22475331.383   118108693.576    22475340.742    92032809.6264   22475340.250  
                
  24352307.195   127972243.495    24352317.699    99718674.6964   24352317.934  
                
  20623530.570   110051122.595                                                  
  20623528.152  
  20544638.047   109938528.730                    85507741.949    20544641.188  
  20544636.316  
  19572348.375   104662130.334                    81403938.191    19572354.957  
  19572347.820  
  19598699.812   104766315.113                    81484929.265    19598703.637  
  19598699.723  
 21  8 14 11 33 20.0000000  0 13R 4G 8G21G 1G27G22G32G10G 3R 6R21R20
                                R 5
  23092405.047   123658811.091                    96179073.001    23092408.625  
  23092403.781  
  22054183.844   115895525.148    22054193.320    90308243.4104   22054193.891  
                
  21554579.461   113270086.534    21554585.383    88262461.8714                 
                
  22102214.711   116147947.689    22102225.035    90504939.2024   22102224.590  
                
  23421202.812   123079248.061    23421211.816    95905938.5884   23421212.066  
                
  22732535.117   119460298.495    22732539.805    93085980.2364                 
                
  20745095.703   109016262.508    20745104.359    84947792.8094   20745104.625  
                
  22479873.656   118132563.288    22479882.969    92051409.4004   22479882.492  
                
  24346592.836   127942215.511    24346603.621    99695276.3544   24346603.859  
                
  20618882.742   110026320.885                                                  
  20618880.320  
  20539380.898   109910396.677                    85485861.474    20539384.047  
  20539379.148  
  19575824.414   104680718.275                    81418395.473    19575830.977  
  19575823.871  
  19601862.633   104783222.211                    81498079.226    19601866.453  
  19601862.535  
 21  8 14 11 33 30.0000000  0 13R 4G 8G21G 1G27G22G32G10G 3R 6R21R20
                                R 5
  23099488.008   123696740.120                    96208573.344    23099491.637  
  23099486.734  
  22058410.344   115917735.516    22058419.742    90325550.1874   22058420.352  
                
  21551534.664   113254086.072    21551540.609    88249993.9804                 
                
  22096639.859   116118651.694    22096650.191    90482111.1664   22096649.738  
                
  23427902.992   123114457.752    23427912.043    95933374.6824   23427912.289  
                
  22728023.562   119436590.158    22728028.250    93067506.2144                 
                
  20746448.094   109023369.423    20746456.797    84953330.6674   20746457.039  
                
  22484418.961   118156449.025    22484428.254    92070021.6554   22484427.789  
                
  24340880.812   127912198.420    24340891.418    99671886.3704   24340891.703  
                
  20614244.078   110001568.159                                                  
  20614241.664  
  20534134.828   109882323.964                    85464027.147    20534138.000  
  20534133.062  
  19579315.016   104699384.094                    81432913.329    19579321.559  
  19579314.473  
  19605034.961   104800180.091                    81511268.686    19605038.785  
  19605034.875  
 21  8 14 11 33 40.0000000  0 13R 4G 8G21G 1G27G22G32G10G 3R 6R21R20
                                R 5
  23106571.422   123734671.473                    96238075.490    23106575.113  
  23106570.102  
  22062646.094   115939994.506    22062655.430    90342894.8514   22062656.078  
                
  21548495.812   113238116.751    21548501.770    88237550.3594                 
                
  22091069.828   116089380.993    22091080.160    90459302.8394   22091079.707  
                
  23434606.523   123149685.321    23434615.660    95960824.7164   23434615.926  
                
  22723515.703   119412901.255    22723520.406    93049047.3374                 
                
  20747811.617   109030534.766    20747820.367    84958914.0584   20747820.578  
                
  22488967.359   118180350.977    22488976.668    92088646.5504   22488976.176  
                
  24335170.773   127882192.354    24335181.570    99648505.1144   24335181.859  
                
  20609614.609   109976864.560                                                  
  20609612.184  
  20528899.945   109854311.056                    85442239.333    20528903.121  
  20528898.176  
  19582820.266   104718128.243                    81447492.108    19582826.801  
  19582819.727  
  19608216.836   104817189.020                    81524497.848    19608220.652  
  19608216.750  
 21  8 14 11 33 50.0000000  0 13R 4G 8G21G 1G27G22G32G10G 3R 6R21R20
                                R 5
  23113655.094   123772604.387                    96267578.831    23113658.863  
  23113653.691  
  22066890.977   115962301.539    22066900.289    90360276.9374   22066900.934  
                
  21545462.773   113222178.089    21545468.727    88225130.6204                 
                
  22085504.523   116060135.168    22085514.848    90436513.8904   22085514.387  
                
  23441313.383   123184930.206    23441322.535    95988288.2524   23441322.805  
                
  22719011.438   119389231.228    22719016.172    93030603.1774                 
                
  20749186.148   109037758.024    20749194.938    84964542.5684   20749195.121  
                
  22493518.734   118204268.627    22493528.047    92107283.6734   22493527.547  
                
  24329462.805   127852196.920    24329473.480    99625132.0124   24329473.824  
                
  20604994.281   109952209.676                                                  
  20604991.855  
  20523676.156   109826357.546                    85420497.720    20523679.332  
  20523674.398  
  19586340.062   104736950.179                    81462131.376    19586346.578  
  19586339.508  
  19611408.086   104834248.098                    81537766.026    19611411.895  
  19611407.980  
 21  8 14 11 34  0.0000000  0 13R 4G 8G21G 1G27G22G32G10G 3R 6R21R20
                                R 5
  23120739.055   123810538.920                    96297083.429    23120742.883  
  23120737.578  
  22071144.992   115984656.486    22071154.281    90377696.3764   22071154.922  
                
  21542435.609   113206270.198    21542441.555    88212734.8674                 
                
  22079943.992   116030914.373    22079954.281    90413744.4464   22079953.824  
                
  23448023.539   123220192.369    23448032.711    96015765.2504   23448032.984  
                
  22714510.797   119365580.226    22714515.539    93012173.8334                 
                
  20750571.719   109045039.195    20750580.531    84970216.2034   20750580.699  
                
  22498073.109   118228202.030    22498082.445    92125933.0684   22498081.953  
                
  24323756.914   127822212.148    24323767.570    99601767.2974   24323767.875  
                
  20600383.086   109927603.502                                                  
  20600380.652  
  20518463.508   109798463.589                    85398802.407    20518466.672  
  20518461.750  
  19589874.406   104755849.866                    81476831.140    19589880.906  
  19589873.875  
  19614608.781   104851357.635                    81551073.434    19614612.586  
  19614608.664  
 21  8 14 11 34 10.0000000  0 13R 4G 8G21G 1G27G22G32G10G 3R 6R21R20
                                R 5
  23127823.352   123848475.121                    96326589.380    23127827.160  
  23127821.879  
  22075408.188   116007059.657    22075417.461    90395153.3904   22075418.098  
                
  21539414.352   113190393.375    21539420.289    88200363.3194                 
                
  22074388.273   116001718.887    22074398.578    90390994.7174   22074398.121  
                
  23454736.992   123255471.875    23454746.172    96043255.7524   23454746.453  
                
  22710013.828   119341948.445    22710018.586    92993759.4694                 
                
  20751968.328   109052378.426    20751977.152    84975935.0894   20751977.309  
                
  22502630.516   118252151.319    22502639.910    92144594.8374   22502639.406  
                
  24318053.141   127792238.247    24318063.793    99578411.0834   24318064.094  
                
  20595781.047   109903046.233                                                  
  20595778.629  
  20513262.062   109770629.574                    85377153.745    20513265.238  
  20513260.289  
  19593423.305   104774827.348                    81491591.401    19593429.773  
  19593422.785  
  19617818.914   104868517.665                    81564420.133    19617822.723  
  19617818.770  
 21  8 14 11 34 20.0000000  0 13R 4G 8G21G 1G27G22G32G10G 3R 6R21R20
                                R 5
  23134907.883   123886412.786                    96356096.450    23134911.723  
  23134906.445  
  22079680.492   116029510.719    22079689.758    90412647.7164   22079690.395  
                
  21536398.984   113174547.495    21536404.914    88188015.8864                 
                
  22068837.320   115972548.539    22068847.672    90368264.5874   22068847.191  
                
  23461453.695   123290768.443    23461462.891    96070759.5554   23461463.184  
                
  22705520.469   119318335.697    22705525.223    92975359.9244                 
                
  20753375.945   109059775.470    20753384.762    84981699.0224   20753384.914  
                
  22507190.898   118276116.273    22507200.348    92163268.8144   22507199.793  
                
  24312351.422   127762275.101    24312361.809    99555063.1164   24312362.164  
                
  20591188.211   109878538.022                                                  
  20591185.781  
  20508071.773   109742855.350                    85355551.572    20508074.949  
  20508069.973  
  19596986.750   104793882.613                    81506412.156    19596993.199  
  19596986.254  
  19621038.391   104885727.622                    81577805.652    19621042.211  
  19621038.223  
 21  8 14 11 34 30.0000000  0 13R 4G 8G21G 1G27G22G32G10G 3R 6R21R20
                                R 5
  23141992.781   123924352.259                    96385604.889    23141996.645  
  23141991.336  
  22083961.969   116052009.974    22083971.254    90430179.6094   22083971.855  
                
  21533389.602   113158733.058    21533395.523    88175692.9534                 
                
  22063291.281   115943403.930    22063301.672    90345554.5284   22063301.180  
                
  23468173.695   123326082.410    23468182.938    96098276.9114   23468183.238  
                
  22701030.836   119294742.499    22701035.574    92956975.6344                 
                
  20754794.641   109067230.767    20754803.434    84987508.3464   20754803.594  
                
  22511754.352   118300097.336    22511763.852    92181955.3544   22511763.281  
                
  24306651.555   127732323.040    24306662.199    99531723.9404   24306662.504  
                
  20586604.562   109854078.917                                                  
  20586602.102  
  20502892.797   109715141.672                    85333996.490    20502896.008  
  20502890.980  
  19600564.750   104813015.753                    81521293.480    19600571.188  
  19600564.289  
  19624267.328   104902988.185                    81591230.536    19624271.156  
  19624267.152  
 21  8 14 11 34 40.0000000  0 13R 4G 8G21G 1G27G22G32G10G 3R 6R21R20
                                R 5
  23149077.945   123962292.947                    96415114.307    23149081.801  
  23149076.500  
  22088252.477   116074556.765    22088261.789    90447748.5284   22088262.387  
                
  21530386.109   113142949.591    21530392.023    88163394.1404                 
                
  22057750.047   115914284.549    22057760.457    90322864.1104   22057759.949  
                
  23474896.914   123361413.089    23474906.156    96125807.2874   23474906.469  
                
  22696544.812   119271168.246    22696549.512    92938606.0774                 
                
  20756224.305   109074743.688    20756233.059    84993362.5694   20756233.242  
                
  22516320.750   118324093.938    22516330.281    92200653.9924   22516329.688  
                
  24300953.914   127702381.687    24300964.520    99508393.0004   24300964.801  
                
  20582030.055   109829668.647                                                  
  20582027.598  
  20497725.070   109687488.075                    85312488.132    20497728.297  
  20497723.254  
  19604157.250   104832226.401                    81536235.085    19604163.672  
  19604156.805  
  19627505.586   104920298.565                    81604694.152    19627509.426  
  19627505.391  
 21  8 14 11 34 50.0000000  0 13R 4G 8G21G 1G27G22G32G10G 3R 6R21R20
                                R 5
  23156163.391   124000235.231                    96444624.967    23156167.230  
  23156162.004  
  22092552.125   116097151.527    22092561.465    90465354.8214   22092562.047  
                
  21527388.594   113127197.535    21527394.516    88151119.8214                 
                
  22052213.719   115885190.965    22052224.148    90300193.7934   22052223.633  
                
  23481623.398   123396760.884    23481632.676    96153351.0014   23481632.957  
                
  22692062.469   119247613.375    22692067.141    92920251.6294                 
                
  20757665.016   109082314.668    20757673.734    84999262.0364   20757673.934  
                
  22520890.195   118348106.501    22520899.746    92219365.0684   22520899.129  
                
  24295258.180   127672451.381    24295268.902    99485070.7394   24295269.164  
                
  20577464.797   109805307.702                                                  
  20577462.324  
  20492568.641   109659895.062                    85291026.913    20492571.887  
  20492566.820  
  19607764.305   104851514.937                    81551237.275    19607770.738  
  19607763.875  
  19630753.227   104937659.101                    81618196.794    19630757.094  
  19630753.043  
 21  8 14 11 35  0.0000000  0 13R 4G 8G21G 1G27G22G32G10G 3R 6R21R20
                                R 5
  23163249.070   124038178.618                    96474136.465    23163252.910  
  23163247.742  
  22096860.828   116119793.867    22096870.223    90482998.1994   22096870.781  
                
  21524397.023   113111476.695    21524402.941    88138869.8154                 
                
  22046682.258   115856122.903    22046692.676    90277543.3624   22046692.164  
                
  23488353.086   123432125.296    23488362.359    96180907.6664   23488362.602  
                
  22687583.758   119224077.623    22687588.441    92901912.1094                 
                
  20759116.695   109089943.306    20759125.379    85005206.4324   20759125.586  
                
  22525462.609   118372134.658    22525472.160    92238088.3044   22525471.559  
                
  24289564.797   127642531.974    24289575.379    99461756.9044   24289575.625  
                
  20572908.703   109780995.586                                                  
  20572906.230  
  20487423.531   109632362.573                    85269612.753    20487426.797  
  20487421.715  
  19611385.859   104870880.961                    81566299.744    19611392.289  
  19611385.434  
  19634010.180   104955069.342                    81631738.081    19634014.035  
  19634010.012  
 21  8 14 11 35 10.0000000  0 13R 4G 8G21G 1G27G22G32G10G 3R 6R21R20
                                R 5
  23170334.922   124076123.063                    96503648.790    23170338.758  
  23170333.656  
  22101178.508   116142483.462    22101187.949    90500678.3934   22101188.488  
                
  21521411.367   113095786.951    21521417.270    88126644.0454                 
                
  22041155.648   115827080.406    22041166.027    90254912.8364   22041165.531  
                
  23495085.898   123467506.196    23495095.121    96208477.1864   23495095.348  
                
  22683108.664   119200560.887    22683113.359    92883587.3864                 
                
  20760579.328   109097629.510    20760587.977    85011195.6854   20760588.203  
                
  22530037.969   118396178.336    22530047.535    92256823.6254   22530046.930  
                
  24283873.320   127612623.290    24283883.922    99438451.4604   24283884.141  
                
  20568361.805   109756732.483                                                  
  20568359.336  
  20482289.727   109604890.603                    85248245.675    20482293.000  
  20482287.898  
  19615021.852   104890324.255                    81581422.292    19615028.293  
  19615021.414  
  19637276.406   104972529.230                    81645317.990    19637280.273  
  19637276.250  
 21  8 14 11 35 20.0000000  0 13R 4G 8G21G 1G27G22G32G10G 3R 6R21R20
                                R 5
  23177421.039   124114068.811                    96533162.100    23177424.867  
  23177419.805  
  22105505.234   116165220.501    22105514.703    90518395.5604   22105515.238  
                
  21518431.711   113080128.762    21518437.598    88114442.8594                 
                
  22035633.992   115798063.851    22035644.336    90232302.5344   22035643.883  
                
  23501821.867   123502903.813    23501831.043    96236059.7354   23501831.270  
                
  22678637.250   119177063.497    22678641.965    92865277.7424                 
                
  20762052.969   109105373.557    20762061.582    85017230.0064   20762061.812  
                
  22534616.336   118420237.828    22534625.898    92275571.2684   22534625.301  
                
  24278184.070   127582725.714    24278194.543    99415154.6654   24278194.777  
                
  20563824.141   109732518.638                                                  
  20563821.684  
  20477167.320   109577479.654                    85226926.053    20477170.617  
  20477165.477  
  19618672.336   104909845.015                    81596605.105    19618678.781  
  19618671.914  
  19640551.969   104990038.938                    81658936.653    19640555.828  
  19640551.832  
 21  8 14 11 35 30.0000000  0 13R 4G 8G21G 1G27G22G32G10G 3R 6R21R20
                                R 5
  23184507.383   124152015.524                    96562676.200    23184511.160  
  23184506.168  
  22109840.969   116188004.913    22109850.477    90536149.6424   22109851.008  
                
  21515458.039   113064501.947    21515463.895    88102266.1164                 
                
  22030117.227   115769073.039    22030127.562    90209712.3054   22030127.117  
                
  23508560.984   123538317.721    23508570.090    96263654.9844   23508570.324  
                
  22674169.484   119153585.304    22674174.234    92846983.0714                 
                
  20763537.562   109113175.113    20763546.141    85023309.1444   20763546.395  
                
  22539197.672   118444312.811    22539207.199    92294330.9984   22539206.645  
                
  24272496.836   127552839.025    24272507.258    99391866.3194   24272507.477  
                
  20559295.719   109708354.167                                                  
  20559293.258  
  20472056.273   109550129.420                    85205653.657    20472059.594  
  20472054.426  
  19622337.281   104929443.087                    81611848.049    19622343.742  
  19622336.855  
  19643836.766   105007598.048                    81672593.743    19643840.617  
  19643836.645  
 21  8 14 11 35 40.0000000  0 13R 4G 8G21G 1G27G22G32G10G 3R 6R21R20
                                R 5
  23191593.906   124189963.347                    96592191.146    23191597.676  
  23191592.695  
  22114185.750   116210836.861    22114195.301    90553940.7664   22114195.816  
                
  21512490.414   113048906.954    21512496.246    88090114.1774                 
                
  22024605.461   115740108.522    22024615.762    90187142.5594   22024615.324  
                
  23515303.234   123573748.290    23515312.340    96291263.2024   23515312.586  
                
  22669705.477   119130126.822    22669710.238    92828703.7404                 
                
  20765033.172   109121034.587    20765041.715    85029433.4114   20765041.980  
                
  22543782.031   118468403.754    22543791.566    92313103.1444   22543791.008  
                
  24266811.719   127522963.604    24266822.227    99368586.8504   24266822.445  
                
  20554776.531   109684238.922                                                  
  20554774.047  
  20466956.734   109522840.816                    85184429.182    20466960.062  
  20466954.910  
  19626016.758   104949118.860                    81627151.416    19626023.230  
  19626016.336  
  19647130.883   105025206.970                    81686289.564    19647134.730  
  19647130.773  
 21  8 14 11 35 50.0000000  0 13R 4G 8G21G 1G27G22G32G10G 3R 6R21R20
                                R 5
  23198680.578   124227911.922                    96621706.674    23198684.344  
  23198679.359  
  22118539.484   116233715.869    22118549.066    90571768.5604   22118549.570  
                
  21509528.750   113033343.308    21509534.562    88077986.6634                 
                
  22019098.609   115711169.848    22019108.863    90164592.9414   22019108.449  
                
  23522048.539   123609194.855    23522057.664    96318883.8884   23522057.906  
                
  22665245.094   119106687.414    22665249.840    92810439.2684                 
                
  20766539.688   109128951.410    20766548.195    85035602.3624   20766548.477  
                
  22548369.312   118492510.055    22548378.840    92331887.2584   22548378.277  
                
  24261128.641   127493099.006    24261138.969    99345315.6874   24261139.289  
                
  20550266.516   109660172.651                                                  
  20550264.035  
  20461868.609   109495613.210                    85163252.163    20461871.930  
  20461866.773  
  19629710.633   104968871.710                    81642514.736    19629717.121  
  19629710.184  
  19650434.203   105042865.110                    81700023.677    19650438.047  
  19650434.098  
 21  8 14 11 36  0.0000000  0 13R 4G 8G21G 1G27G22G32G10G 3R 6R21R20
                                R 5
  23205767.438   124265861.273                    96651222.819    23205771.188  
  23205766.250  
  22122902.180   116256641.951    22122911.789    90589633.0314   22122912.293  
                
  21506573.117   113017811.313    21506578.926    88065883.8144                 
                
  22013596.742   115682257.281    22013606.965    90142063.6724   22013606.566  
                
  23528796.875   123644657.546    23528806.051    96346517.1314   23528806.289  
                
  22660788.391   119083267.297    22660793.129    92792189.8394                 
                
  20768057.148   109136925.723    20768065.633    85041816.1144   20768065.922  
                
  22552959.555   118516631.894    22552969.039    92350683.4964   22552968.500  
                
  24255447.750   127463245.438    24255458.133    99322053.2474   24255458.441  
                
  20545765.766   109636155.846                                                  
  20545763.266  
  20456791.977   109468447.139                    85142123.007    20456795.301  
  20456790.129  
  19633418.984   104988701.891                    81657938.204    19633425.492  
  19633418.484  
  19653746.727   105060572.443                    81713796.043    19653750.555  
  19653746.621  
 21  8 14 11 36 10.0000000  0 13R 4G 8G21G 1G27G22G32G10G 3R 6R21R20
                                R 5
  23212854.461   124303811.610                    96680739.733    23212858.195  
  23212853.312  
  22127273.852   116279615.241    22127283.500    90607534.2834   22127284.008  
                
  21503623.555   113002311.239    21503629.359    88053805.8364                 
                
  22008099.914   115653371.235    22008110.133    90119555.0634   22008109.715  
                
  23535548.344   123680136.556    23535557.555    96374163.1024   23535557.777  
                
  22656335.414   119059866.763    22656340.129    92773955.6664                 
                
  20769585.609   109144957.802    20769594.070    85048074.8794   20769594.367  
                
  22557552.812   118540769.606    22557562.281    92369492.0954   22557561.754  
                
  24249768.945   127433403.229    24249779.230    99298799.5504   24249779.621  
                
  20541274.258   109612188.356                                                  
  20541271.785  
  20451726.883   109441342.843                    85121041.872    20451730.215  
  20451725.043  
  19637141.805   105008609.527                    81673421.909    19637148.332  
  19637141.301  
  19657068.531   105078329.353                    81727606.969    19657072.352  
  19657068.426  
 21  8 14 11 36 20.0000000  0 13R 4G 8G21G 1G27G22G32G10G 3R 6R21R20
                                R 5
  23219941.586   124341762.662                    96710257.180    23219945.340  
  23219940.430  
  22131654.422   116302635.314    22131664.102    90625471.9914   22131664.594  
                
  21500680.023   112986842.875    21500685.828    88041752.5654                 
                
  22002608.070   115624511.440    22002618.270    90097066.9254   22002617.852  
                
  23542302.844   123715631.425    23542312.070    96401821.4274   23542312.281  
                
  22651886.117   119036485.558    22651890.809    92755736.5454                 
                
  20771124.984   109153047.276    20771133.430    85054378.3654   20771133.723  
                
  22562149.023   118564922.808    22562158.500    92388312.7544   22562157.965  
                
  24244092.156   127403572.075    24244102.473    99275554.5284   24244102.887  
                
  20536792.016   109588270.265                                                  
  20536789.551  
  20446673.336   109414300.281                    85100008.780    20446676.664  
  20446671.516  
  19640879.047   105028594.185                    81688965.536    19640885.590  
  19640878.531  
  19660399.484   105096135.192                    81741455.961    19660403.309  
  19660399.379  
 21  8 14 11 36 30.0000000  0 13R 4G 8G21G 1G27G22G32G10G 3R 6R21R20
                                R 5
  23227028.828   124379714.272                    96739775.093    23227032.566  
  23227027.695  
  22136043.938   116325702.372    22136053.637    90643446.3094   22136054.125  
                
  21497742.586   112971406.531    21497748.395    88029724.2474                 
                
  21997121.289   115595678.171    21997131.445    90074599.4384   21997131.047  
                
  23549060.258   123751142.256    23549069.602    96429492.1814   23549069.797  
                
  22647440.539   119013123.873    22647445.207    92737532.6464                 
                
  20772675.297   109161194.245    20772683.719    85060726.6524   20772684.012  
                
  22566748.195   118589091.636    22566757.695    92407145.5854   22566757.145  
                
  24238417.594   127373752.143    24238427.953    99252318.2484   24238428.391  
                
  20532319.055   109564401.637                                                  
  20532316.598  
  20441631.383   109387319.806                    85079023.965    20441634.715  
  20441629.566  
  19644630.688   105048656.009                    81704569.164    19644637.262  
  19644630.137  
  19663739.648   105113990.333                    81755343.286    19663743.480  
  19663739.543  
 21  8 14 11 36 40.0000000  0 13R 4G 8G21G 1G27G22G32G10G 3R 6R21R20
                                R 5
  23234116.164   124417666.351                    96769293.382    23234119.859  
  23234115.090  
  22140442.344   116348816.100    22140452.066    90661457.0114   22140452.531  
                
  21494811.188   112956001.894    21494817.016    88017720.6414                 
                
  21991639.492   115566871.180    21991649.637    90052152.4304   21991649.238  
                
  23555820.625   123786668.611    23555830.062    96457175.0264   23555830.258  
                
  22642998.641   118989781.519    22643003.285    92719343.7874                 
                
  20774236.492   109169398.362    20774244.891    85067119.4724   20774245.199  
                
  22571350.289   118613275.737    22571359.785    92425990.3364   22571359.234  
                
  24232745.156   127343943.154    24232755.297    99229090.4484   24232755.816  
                
  20527855.367   109540582.584                                                  
  20527852.941  
  20436601.000   109360401.146                    85058087.242    20436604.316  
  20436599.184  
  19648396.734   105068794.741                    81720232.632    19648403.340  
  19648396.160  
  19667088.930   105131894.127                    81769268.452    19667092.770  
  19667088.820  
 21  8 14 11 36 50.0000000  0 13R 4G 8G21G 1G27G22G32G10G 3R 6R21R20
                                R 5
  23241203.523   124455618.569                    96798811.775    23241207.188  
  23241202.449  
  22144849.570   116371976.192    22144859.297    90679503.8234   22144859.770  
                
  21491885.797   112940628.846    21491891.641    88005741.6414                 
                
  21986162.680   115538090.416    21986172.832    90029725.8714   21986172.426  
                
  23562583.977   123822210.261    23562593.402    96484869.7984   23562593.637  
                
  22638560.367   118966458.273    22638565.012    92701169.8434                 
                
  20775808.523   109177659.490    20775816.891    85073556.7084   20775817.227  
                
  22575955.266   118637475.028    22575964.750    92444846.9104   22575964.203  
                
  24227074.930   127314145.028    24227084.891    99205871.1534   24227085.395  
                
  20523400.836   109516812.326                                                  
  20523398.402  
  20431582.164   109333544.362                    85037198.621    20431585.469  
  20431580.359  
  19652177.109   105089010.142                    81735955.706    19652183.742  
  19652176.531  
  19670447.250   105149846.310                    81783231.266    19670451.102  
  19670447.152  
 21  8 14 11 37  0.0000000  0 13R 4G 8G21G 1G27G22G32G10G 3R 6R21R20
                                R 5
  23248290.938   124493571.126                    96828330.406    23248294.547  
  23248289.852  
  22149265.656   116395182.808    22149275.383    90697586.8944   22149275.859  
                
  21488966.492   112925287.803    21488972.336    87993787.5824                 
                
  21980690.953   115509336.322    21980701.113    90007320.0934   21980700.715  
                
  23569350.312   123857767.436    23569359.727    96512576.6734   23569359.969  
                
  22634125.805   118943154.447    22634130.422    92683011.0264                 
                
  20777391.445   109185977.857    20777399.781    85080038.5534   20777400.133  
