     2.11           OBSERVATION DATA    M (MIXED)           RINEX VERSION / TYPE
EFT-CORS.RU                             20210817 144906 UTC PGM / RUN BY / DATE 
MDNG                                                        MARKER NAME         
                                                            MARKER NUMBER       
MDNG                EFT-CORS.RU                             OBSERVER / AGENCY   
0                   TRIMBLE BD970       2.0                 REC # / TYPE / VERS 
0                   UNKNOWN EXT NONE                        ANT # / TYPE        
  3463911.2830  3030468.2400  4402179.3760                  APPROX POSITION XYZ 
        0.0000        0.0000        0.0000                  ANTENNA: DELTA H/E/N
     1     1                                                WAVELENGTH FACT L1/2
     6    C1    L1    P2    L2    C2    P1                  # / TYPES OF OBSERV 
    10.000                                                  INTERVAL            
  2021     8    16    15    30    0.0000000     GPS         TIME OF FIRST OBS   
  2021     8    16    16    30    0.0000000     GPS         TIME OF LAST OBS    
     0                                                      RCV CLOCK OFFS APPL 
                                                            END OF HEADER       
 21  8 16 15 30  0.0000000  0 18G 4G16R 1R24G26R17G 9G31G 1R18G 6G22
                                R12G 7R 8R10G 3R 2
  20450378.422   107467510.318    20450386.242    83740967.6014   20450385.984  
                
  23702653.586   124558299.982    23702661.520    97058453.7364                 
                
  19920506.695   106486556.326                    82822880.422    19920512.312  
  19920506.121  
  23414381.164   125207214.101                    97383376.678    23414388.414  
  23414380.328  
  22947694.586   120591005.810    22947705.172    93967037.9244   22947705.102  
                
  21756613.688   116424039.992                    90552022.495    21756618.109  
  21756612.125  
  22053076.648   115889726.957    22053085.516    90303735.0564   22053085.375  
                
  23949028.273   125853034.306    23949035.270    98067359.1224   23949035.836  
                
  24103856.891   126666622.662    24103869.066    98701297.5464   24103868.719  
                
  22832498.617   121881432.081                    94796661.485    22832502.875  
  22832496.949  
  23093767.719   121358553.834    23093777.855    94565166.5754   23093777.996  
                
  22027493.625   115755281.476    22027498.891    90198948.8564                 
                
  21869760.070   116824347.643                    90863376.992    21869764.883  
  21869759.340  
  24471968.945   128601061.111    24471977.531   100208660.7674   24471977.473  
                
  22922431.961   122748583.891                    95471127.093    22922436.273  
  22922431.066  
  22374074.078   119266414.745                                                  
  22374072.980  
  20700580.727   108782308.897    20700590.113    84765489.6284   20700590.477  
                
  20825425.117   111128469.614                    86433257.592    20825428.504  
  20825423.000  
 21  8 16 15 30 10.0000000  0 18G 4G16R 1R24G26R17G 9G31G 1R18G 6G22
                                R12G 7R 8R10G 3R 2
  20449677.156   107463825.114    20449684.977    83738096.0114   20449684.715  
                
  23697162.422   124529443.463    23697170.270    97035968.1584                 
                
  19922494.172   106497180.483                    82831143.644    19922499.785  
  19922493.617  
  23421986.617   125247883.251                    97415008.202    23421993.820  
  23421985.746  
  22946211.703   120583213.134    22946222.254    93960965.7164   22946222.180  
                
  21760174.367   116443093.815                    90566842.104    21760178.812  
  21760172.785  
  22048778.102   115867137.991    22048786.988    90286133.2794   22048786.840  
                
  23955717.102   125888184.140    23955724.078    98094748.6084   23955724.621  
                
  24111098.609   126704677.574    24111110.730    98730950.6864   24111110.387  
                
  22829757.250   121866798.489                    94785279.824    22829761.527  
  22829755.598  
  23090595.758   121341885.078    23090605.910    94552177.9434   23090606.074  
                
  22032232.359   115780183.610    22032237.625    90218353.1014                 
                
  21861963.703   116782700.605                    90830984.854    21861968.461  
  21861962.957  
  24465526.250   128567204.492    24465534.727   100182278.9864   24465534.680  
                
  22927858.281   122777641.400                    95493727.357    22927862.613  
  22927857.395  
  22380069.133   119298371.709                                                  
  22380068.082  
  20703474.633   108797516.421    20703484.047    84777339.6414   20703484.395  
                
  20820976.672   111104731.840                    86414794.877    20820980.031  
  20820974.566  
 21  8 16 15 30 20.0000000  0 18G 4G16R 1R24G26R17G 9G31G 1R18G 6G22
                                R12G 7R 8R10G 3R 2
  20448982.586   107460175.143    20448990.410    83735251.8824   20448990.145  
                
  23691677.141   124500617.810    23691684.844    97013506.5904                 
                
  19924488.898   106507843.442                    82839437.059    19924494.516  
  19924488.348  
  23429594.141   125288563.800                    97446648.565    23429601.391  
  23429593.254  
  22944740.414   120575481.536    22944750.945    93954941.1144   22944750.879  
                
  21763749.312   116462224.158                    90581721.244    21763753.770  
  21763747.715  
  22044484.047   115844572.633    22044492.926    90268549.8914   22044492.785  
                
  23962409.836   125923354.547    23962416.809    98122154.1274   23962417.312  
                
  24118340.945   126742736.284    24118353.078    98760606.7754   24118352.750  
                
  22827031.375   121852247.722                    94773962.553    22827035.680  
  22827029.738  
  23087435.070   121325275.608    23087445.199    94539235.5004   23087445.383  
                
  22036977.969   115805121.934    22036983.223    90237785.5504                 
                
  21854173.375   116741086.677                    90798618.487    21854178.258  
  21854172.719  
  24459085.711   128533359.596    24459094.195   100155906.3534   24459094.133  
                
  22933287.930   122806716.623                    95516341.411    22933292.223  
  22933287.066  
  22386075.156   119330387.130                                                  
  22386074.121  
  20706377.906   108812773.229    20706387.340    84789228.0614   20706387.680  
                
  20816531.781   111081013.145                    86396347.018    20816535.117  
  20816529.695  
 21  8 16 15 30 30.0000000  0 18G 4G16R 1R24G26R17G 9G31G 1R18G 6G22
                                R12G 7R 8R10G 3R 2
  20448294.711   107456560.347    20448302.531    83732435.1604   20448302.266  
                
  23686197.648   124471823.024    23686205.312    96991069.1204                 
                
  19926490.891   106518545.197                    82847760.644    19926496.496  
  19926490.332  
  23437203.688   125329255.511                    97478297.643    23437211.004  
  23437202.824  
  22943280.766   120567811.040    22943291.309    93948964.1194   22943291.250  
                
  21767338.531   116481430.784                    90596659.737    21767343.004  
  21767336.883  
  22040194.477   115822030.826    22040203.324    90250984.8604   22040203.180  
                
  23969106.453   125958545.353    23969113.426    98149575.5334   23969113.898  
                
  24125583.914   126780798.584    24125596.102    98790265.6844   24125595.801  
                
  22824321.094   121837780.063                    94762709.923    22824325.398  
  22824319.453  
  23084285.680   121308725.433    23084295.781    94526339.2454   23084295.973  
                
  22041730.453   115830096.342    22041735.719    90257246.1144                 
                
  21846389.344   116699506.061                    90766278.026    21846394.312  
  21846388.730  
  24452647.383   128499526.536    24452655.965   100129542.9554   24452655.859  
                
  22938720.961   122835809.928                    95538969.529    22938725.191  
  22938720.109  
  22392092.086   119362460.653                                                  
  22392091.066  
  20709290.562   108828079.269    20709300.004    84801154.8434   20709300.336  
                
  20812090.414   111057313.199                    86377913.734    20812093.715  
  20812088.340  
 21  8 16 15 30 40.0000000  0 18G 4G16R 1R24G26R17G 9G31G 1R18G 6G22
                                R12G 7R 8R10G 3R 2
  20447613.508   107452980.578    20447621.320    83729645.7314   20447621.062  
                
  23680724.023   124443058.959    23680731.648    96968655.5734                 
                
  19928500.102   106529285.600                    82856114.298    19928505.719  
  19928499.543  
  23444815.211   125369957.993                    97509955.088    23444822.605  
  23444814.324  
  22941832.727   120560201.541    22941843.270    93943034.6444   22941843.195  
                
  21770941.969   116500713.607                    90611657.472    21770946.414  
  21770940.254  
  22035909.375   115799512.473    22035918.176    90233438.0974   22035918.039  
                
  23975806.906   125993756.309    23975813.855    98177012.6314   23975814.332  
                
  24132827.547   126818864.256    24132839.758    98819927.2054   24132839.492  
                
  22821626.344   121823395.250                    94751521.746    22821630.633  
  22821624.672  
  23081147.539   121292234.425    23081157.625    94513489.1214   23081157.832  
                
  22046489.789   115855106.729    22046495.090    90276734.7284                 
                
  21838611.586   116657958.703                    90733963.431    21838616.582  
  21838610.977  
  24446211.344   128465705.174    24446219.965   100103188.6734   24446219.844  
                
  22944157.250   122864920.845                    95561611.354    22944161.383  
  22944156.422  
  22398119.930   119394592.305                                                  
  22398118.957  
  20712212.555   108843434.375    20712222.000    84813119.8524   20712222.344  
                
  20807652.578   111033632.016                    86359495.042    20807655.848  
  20807650.512  
 21  8 16 15 30 50.0000000  0 18G 4G16R 1R24G26R17G 9G31G 1R18G 6G22
                                R12G 7R 8R10G 3R 2
  20446939.008   107449436.099    20446946.797    83726883.8034   20446946.543  
                
  23675256.367   124414326.107    23675263.926    96946266.3444                 
                
  19930516.602   106540064.957                    82864498.224    19930522.230  
  19930516.035  
  23452428.828   125410671.488                    97541621.113    23452436.254  
  23452427.945  
  22940396.359   120552653.366    22940406.906    93937152.9564   22940406.801  
                
  21774559.648   116520072.663                    90626714.525    21774564.098  
  21774557.895  
  22031628.773   115777017.848    22031637.555    90215909.8284   22031637.441  
                
  23982511.180   126028987.551    23982518.117    98204465.5594   23982518.633  
                
  24140071.805   126856933.485    24140084.102    98849591.5104   24140083.828  
                
  22818947.156   121809093.609                    94740398.282    22818951.457  
  22818945.535  
  23078020.719   121275802.956    23078030.766    94500685.3744   23078030.996  
                
  22051255.992   115880153.240    22051261.320    90296251.4684                 
                
  21830840.180   116616445.257                    90701675.212    21830845.156  
  21830839.551  
  24439777.586   128431895.774    24439786.262   100076843.7114   24439786.098  
                
  22949596.898   122894049.825                    95584267.257    22949600.934  
  22949596.113  
  22404158.625   119426781.932                                                  
  22404157.688  
  20715143.922   108858838.841    20715153.375    84825123.3234   20715153.727  
                
  20803218.297   111009969.870                    86341091.148    20803221.570  
  20803216.211  
 21  8 16 15 31  0.0000000  0 18G 4G16R 1R24G26R17G 9G31G 1R18G 6G22
                                R12G 7R 8R10G 3R 2
  20446271.203   107445926.729    20446278.973    83724149.2234   20446278.730  
                
  23669794.680   124385624.443    23669802.129    96923901.4274                 
                
  19932540.367   106550883.131                    82872912.356    19932546.004  
  19932539.793  
  23460044.680   125451395.711                    97573295.487    23460051.941  
  23460043.594  
  22938971.641   120545166.374    22938982.148    93931318.9454   22938982.035  
                
  21778191.523   116539507.621                    90641830.608    21778195.984  
  21778189.711  
  22027352.672   115754546.796    22027361.449    90198399.9284   22027361.332  
                
  23989219.281   126064238.783    23989226.207    98231934.0334   23989226.742  
                
  24147316.805   126895005.955    24147329.102    98879258.3354   24147328.812  
                
  22816283.547   121794875.053                    94729339.396    22816287.836  
  22816281.949  
  23074905.219   121259430.900    23074915.230    94487927.9414   23074915.484  
                
  22056029.039   115905235.662    22056034.375    90315796.1974                 
                
  21823074.992   116574965.383                    90669413.099    21823080.008  
  21823074.410  
  24433346.117   128398098.278    24433354.844   100050508.0234   24433354.668  
                
  22955039.836   122923196.602                    95606936.957    22955043.859  
  22955039.047  
  22410208.164   119459029.324                                                  
  22410207.281  
  20718084.648   108874292.423    20718094.109    84837165.0574   20718094.453  
                
  20798787.547   110986326.580                    86322701.919    20798790.820  
  20798785.477  
 21  8 16 15 31 10.0000000  0 18G 4G16R 1R24G26R17G 9G31G 1R18G 6G22
                                R12G 7R 8R10G 3R 2
  20445610.047   107442452.331    20445617.797    83721441.9014   20445617.562  
                
  23664338.883   124356954.035    23664346.309    96901560.8654                 
                
  19934571.352   106561739.948                    82881356.544    19934577.000  
  19934570.770  
  23467662.227   125492130.232                    97604977.825    23467669.539  
  23467661.160  
  22937558.539   120537740.525    22937569.027    93925532.5824   22937568.918  
                
  21781837.547   116559018.282                    90657005.550    21781842.004  
  21781835.719  
  22023081.031   115732099.216    22023089.824    90180908.3154   22023089.699  
                
  23995931.141   126099509.767    23995938.059    98259417.9204   23995938.609  
                
  24154562.391   126933081.430    24154574.648    98908927.5194   24154574.344  
                
  22813635.500   121780739.672                    94718345.223    22813639.801  
  22813633.910  
  23071801.008   121243118.219    23071811.012    94475216.7754   23071811.273  
                
  22060808.883   115930353.856    22060814.238    90335368.8014                 
                
  21815316.227   116533519.318                    90637177.280    21815321.195  
  21815315.629  
  24426916.922   128364312.682    24426925.668   100024181.6094   24426925.480  
                
  22960486.055   122952361.043                    95629620.386    22960490.105  
  22960485.270  
  22416268.508   119491334.264                                                  
  22416267.625  
  20721034.703   108889795.022    20721044.176    84849244.9974   20721044.512  
                
  20794360.289   110962701.931                    86304327.214    20794363.547  
  20794358.223  
 21  8 16 15 31 20.0000000  0 18G 4G16R 1R24G26R17G 9G31G 1R18G 6G22
                                R12G 7R 8R10G 3R 2
  20444955.578   107439013.090    20444963.309    83718761.9764   20444963.086  
                
  23658889.086   124328315.085    23658896.469    96879244.8274                 
                
  19936609.625   106572635.654                    82889830.977    19936615.270  
  19936609.031  
  23475281.805   125532875.136                    97636668.272    23475289.086  
  23475280.699  
  22936157.125   120530376.040    22936167.598    93919794.0404   22936167.488  
                
  21785497.734   116578604.703                    90672239.437    21785502.164  
  21785495.852  
  22018813.906   115709675.330    22018822.715    90163435.1704   22018822.566  
                
  24002646.789   126134800.587    24002653.699    98286917.2614   24002654.262  
                
  24161808.594   126971160.047    24161820.770    98938599.1544   24161820.480  
                
  22811003.070   121766687.544                    94707415.789    22811007.371  
  22811001.508  
  23068708.141   121226865.141    23068718.141    94462552.0464   23068718.410  
                
  22065595.555   115955507.895    22065600.953    90354969.3394                 
                
  21807563.867   116492107.397                    90604968.016    21807568.781  
  21807563.250  
  24420490.016   128330539.203    24420498.836    99997864.6464   24420498.664  
                
  22965935.656   122981543.307                    95652317.681    22965939.754  
  22965934.898  
  22422339.656   119523696.712                                                  
  22422338.762  
  20723994.109   108905346.790    20724003.594    84861363.2504   20724003.926  
                
  20789936.648   110939096.568                    86285967.491    20789939.883  
  20789934.578  
 21  8 16 15 31 30.0000000  0 18G 4G16R 1R24G26R17G 9G31G 1R18G 6G22
                                R12G 7R 8R10G 3R 2
  20444307.789   107435608.934    20444315.504    83716109.3914   20444315.289  
                
  23653445.328   124299707.668    23653452.625    96856953.3234                 
                
  19938655.172   106583570.231                    82898335.637    19938660.797  
  19938654.586  
  23482903.195   125573630.074                    97668366.534    23482910.531  
  23482902.125  
  22934767.398   120523072.947    22934777.867    93914103.3294   22934777.750  
                
  21789172.031   116598266.646                    90687532.050    21789176.457  
  21789170.133  
  22014551.273   115687275.061    22014560.078    90145980.4114   22014559.930  
                
  24009366.195   126170111.094    24009373.098    98314431.9464   24009373.660  
                
  24169055.375   127009241.624    24169067.430    98968273.0924   24169067.172  
                
  22808386.234   121752718.739                    94696551.182    22808390.543  
  22808384.637  
  23065626.617   121210671.684    23065636.613    94449933.7674   23065636.883  
                
  22070389.047   115980697.790    22070394.496    90374597.8134                 
                
  21799817.930   116450729.623                    90572785.305    21799822.805  
  21799817.277  
  24414065.383   128296777.850    24414074.340    99971557.1274   24414074.164  
                
  22971388.586   123010743.470                    95675028.871    22971392.730  
  22971387.859  
  22428421.562   119556116.649                                                  
  22428420.691  
  20726962.859   108920947.668    20726972.352    84873519.7694   20726972.680  
                
  20785516.594   110915510.282                    86267622.603    20785519.820  
  20785514.520  
 21  8 16 15 31 40.0000000  0 18G 4G16R 1R24G26R17G 9G31G 1R18G 6G22
                                R12G 7R 8R10G 3R 2
  20443666.656   107432239.757    20443674.359    83713484.0574   20443674.148  
                
  23648007.586   124271131.858    23648014.840    96834686.4824                 
                
  19940707.961   106594543.512                    82906870.410    19940713.574  
  19940707.387  
  23490526.430   125614394.986                    97700072.531    23490533.816  
  23490525.387  
  22933389.328   120515831.154    22933399.809    93908460.3784   22933399.680  
                
  21792860.430   116618004.037                    90702883.325    21792864.859  
  21792858.539  
  22010293.117   115664898.353    22010301.914    90128544.0294   22010301.789  
                
  24016089.305   126205441.179    24016096.230    98341961.8794   24016096.770  
                
  24176302.648   127047325.969    24176314.605    98997949.1764   24176314.391  
                
  22805785.016   121738833.300                    94685751.377    22805789.324  
  22805783.418  
  23062556.438   121194537.798    23062566.430    94437361.9264   23062566.699  
                
  22075189.320   116005923.334    22075194.797    90394254.0634                 
                
  21792078.336   116409385.977                    90540629.158    21792083.223  
  21792077.691  
  24407642.969   128263028.600    24407652.117    99945259.0384   24407651.949  
                
  22976844.898   123039961.433                    95697753.905    22976849.031  
  22976844.137  
  22434514.172   119588593.649                                                  
  22434513.340  
  20729940.938   108936597.544    20729950.445    84885714.4734   20729950.762  
                
  20781100.047   110891942.767                    86249292.321    20781103.250  
  20781097.969  
 21  8 16 15 31 50.0000000  0 18G 4G16R 1R24G26R17G 9G31G 1R18G 6G22
                                R12G 7R 8R10G 3R 2
  20443032.211   107428905.770    20443039.902    83710886.1444   20443039.703  
                
  23642575.891   124242588.025    23642583.172    96812444.5524                 
                
  19942768.047   106605555.813                    82915435.532    19942773.652  
  19942767.477  
  23498151.500   125655169.837                    97731786.250    23498158.918  
  23498150.480  
  22932022.977   120508650.950    22932033.496    93902865.4294   22932033.367  
                
  21796562.938   116637816.811                    90718293.263    21796567.371  
  21796561.035  
  22006039.484   115642545.436    22006048.277    90111126.1874   22006048.164  
                
  24022816.148   126240790.903    24022823.113    98369507.1104   24022823.625  
                
  24183550.375   127085413.198    24183562.324    99027627.5134   24183562.148  
                
  22803199.453   121725031.339                    94675016.513    22803203.711  
  22803197.852  
  23059497.641   121178463.791    23059507.625    94424836.7224   23059507.898  
                
  22079996.422   116031184.742    22080001.891    90413938.2634                 
                
  21784345.156   116368077.050                    90508500.014    21784350.125  
  21784344.559  
  24401222.930   128229291.668    24401232.195    99918970.5584   24401232.031  
                
  22982304.445   123069197.019                    95720492.681    22982308.621  
  22982303.734  
  22440617.484   119621127.678                                                  
  22440616.641  
  20732928.375   108952296.617    20732937.887    84897947.5124   20732938.191  
                
  20776687.133   110868394.660                    86230977.117    20776690.332  
  20776685.047  
 21  8 16 15 32  0.0000000  0 18G 4G16R 1R24G26R17G 9G31G 1R18G 6G22
                                R12G 7R 8R10G 3R 2
  20442404.445   107425606.854    20442412.129    83708315.5554   20442411.930  
                
  23637150.242   124214076.111    23637157.539    96790227.4864                 
                
  19944835.414   106616607.072                    82924030.951    19944841.027  
  19944834.863  
  23505778.469   125695954.240                    97763507.425    23505785.816  
  23505777.414  
  22930668.344   120501532.263    22930678.898    93897318.4104   22930678.766  
                
  21800279.500   116657704.904                    90733761.749    21800283.934  
  21800277.613  
  22001790.359   115620216.224    22001799.148    90093726.8094   22001799.035  
                
  24029546.680   126276160.036    24029553.680    98397067.4644   24029554.164  
                
  24190798.625   127123503.090    24190810.586    99057307.9094   24190810.430  
                
  22800629.555   121711313.005                    94664346.727    22800633.785  
  22800627.977  
  23056450.219   121162449.568    23056460.195    94412358.1164   23056460.484  
                
  22084810.328   116056481.865    22084815.793    90433650.2944                 
                
  21776618.453   116326802.716                    90476397.787    21776623.512  
  21776617.918  
  24394805.305   128195567.081    24394814.609    99892691.6724   24394814.457  
                
  22987767.414   123098450.587                    95743245.425    22987771.578  
  22987766.727  
  22446731.523   119653718.846                                                  
  22446730.664  
  20735925.156   108968044.749    20735934.656    84910218.7844   20735934.965  
                
  20772277.852   110844865.909                    86212676.984    20772281.039  
  20772275.762  
 21  8 16 15 32 10.0000000  0 18G 4G16R 1R24G26R17G 9G31G 1R18G 6G22
                                R12G 7R 8R10G 3R 2
  20441783.336   107422342.932    20441791.012    83705772.2434   20441790.824  
                
  23631730.680   124185596.177    23631737.922    96768035.3134                 
                
  19946910.031   106627697.030                    82932656.463    19946915.637  
  19946909.488  
  23513407.195   125736748.231                    97795236.051    23513414.516  
  23513406.137  
  22929325.391   120494475.076    22929336.004    93891819.3174   22929335.832  
                
  21804010.086   116677667.941                    90749288.527    21804014.492  
  21804008.227  
  21997545.742   115597910.662    21997554.531    90076345.8614   21997554.410  
                
  24036280.859   126311548.448    24036287.895    98424642.8344   24036288.363  
                
  24198047.383   127161595.465    24198059.336    99086990.2454   24198059.164  
                
  22798075.320   121697678.297                    94653741.963    22798079.543  
  22798073.723  
  23053414.180   121146495.146    23053424.145    94399926.1024   23053424.457  
                
  22089631.000   116081814.578    22089636.465    90453390.0584                 
                
  21768898.359   116285563.288                    90444322.702    21768903.406  
  21768897.801  
  24388389.977   128161854.786    24388399.355    99866422.3974   24388399.180  
                
  22993233.602   123127721.533                    95766011.719    22993237.734  
  22993232.926  
  22452856.172   119686366.688                                                  
  22452855.352  
  20738931.250   108983841.865    20738940.734    84922528.2174   20738941.039  
                
  20767872.086   110821355.911                    86194391.459    20767875.270  
  20767869.973  
 21  8 16 15 32 20.0000000  0 18G 4G16R 1R24G26R17G 9G31G 1R18G 6G22
                                R12G 7R 8R10G 3R 2
  20441168.891   107419113.987    20441176.562    83703256.1804   20441176.367  
                
  23626317.266   124157148.371    23626324.383    96745868.1944                 
                
  19948991.906   106638825.776                    82941312.173    19948997.516  
  19948991.375  
  23521037.578   125777551.242                    97826971.694    23521044.945  
  23521036.562  
  22927994.164   120487479.435    22928004.832    93886368.1814   22928004.648  
                
  21807754.672   116697705.856                    90764873.568    21807759.051  
  21807752.820  
  21993305.617   115575628.737    21993314.402    90058983.3344   21993314.273  
                
  24043018.680   126346955.982    24043025.742    98452233.1104   24043026.219  
                
  24205296.672   127199690.222    24205308.555    99116674.4484   24205308.371  
                
  22795536.695   121684126.995                    94643202.062    22795540.934  
  22795535.078  
  23050389.547   121130600.568    23050399.500    94387540.7304   23050399.809  
                
  22094458.438   116107182.871    22094463.891    90473157.5504                 
                
  21761184.773   116244358.692                    90412274.702    21761189.809  
  21761184.188  
  24381977.023   128128154.841    24381986.445    99840162.7324   24381986.273  
                
  22998703.055   123157010.194                    95788791.784    22998707.230  
  22998702.371  
  22458991.422   119719070.921                                                  
  22458990.625  
  20741946.664   108999687.933    20741956.133    84934875.8004   20741956.457  
                
  20763469.914   110797865.050                    86176120.764    20763473.082  
  20763467.820  
 21  8 16 15 32 30.0000000  0 18G 4G16R 1R24G26R17G 9G31G 1R18G 6G22
                                R12G 7R 8R10G 3R 2
  20440561.125   107415920.172    20440568.797    83700767.4954   20440568.598  
                
  23620909.906   124128732.919    23620917.059    96723726.3144                 
                
  19951081.070   106649993.523                    82949998.188    19951086.672  
  19951080.555  
  23528669.828   125818363.567                    97858714.581    23528677.133  
  23528668.742  
  22926674.695   120480545.543    22926685.391    93880965.1644   22926685.191  
                
  21811513.258   116717818.722                    90780516.895    21811517.621  
  21811511.430  
  21989070.047   115553370.648    21989078.820    90041639.3804   21989078.699  
                
  24049760.148   126382382.733    24049767.230    98479838.3644   24049767.688  
                
  24212546.297   127237787.417    24212558.250    99146360.5484   24212558.043  
                
  22793013.781   121670659.562                    94632727.386    22793017.988  
  22793012.191  
  23047376.336   121114766.072    23047386.285    94375202.1814   23047386.586  
                
  22099292.680   116132586.902    22099298.113    90492952.8884                 
                
  21753477.758   116203189.294                    90380254.067    21753482.758  
  21753477.199  
  24375566.594   128094467.560    24375575.930    99813912.9314   24375575.770  
                
  23004175.836   123186316.658                    95811585.665    23004180.051  
  23004175.117  
  22465137.297   119751831.770                                                  
  22465136.531  
  20744971.422   109015583.095    20744980.863    84947261.6324   20744981.203  
                
  20759071.461   110774394.025                    86157865.552    20759074.633  
  20759069.379  
 21  8 16 15 32 40.0000000  0 18G 4G16R 1R24G26R17G 9G31G 1R18G 6G22
                                R12G 7R 8R10G 3R 2
  20439959.984   107412761.165    20439967.656    83698305.9344   20439967.461  
                
  23615508.742   124100349.728    23615515.879    96701609.5504                 
                
  19953177.477   106661199.980                    82958714.312    19953183.070  
  19953176.973  
  23536303.562   125859184.734                    97890464.329    23536310.941  
  23536302.516  
  22925366.922   120473673.158    22925377.633    93875610.0704   22925377.418  
                
  21815285.742   116738005.958                    90796218.094    21815290.121  
  21815283.910  
  21984838.945   115531136.096    21984847.707    90024313.7634   21984847.570  
                
  24056505.203   126417828.344    24056512.312    98507458.3094   24056512.762  
                
  24219796.352   127275886.618    24219808.324    99176048.2184   24219808.078  
                
  22790506.531   121657275.666                    94622317.676    22790510.703  
  22790504.980  
  23044374.500   121098991.394    23044384.434    94362910.2334   23044384.750  
                
  22104133.633   116158026.236    22104139.043    90512775.7244                 
                
  21745777.250   116162054.924                    90348260.671    21745782.250  
  21745776.723  
  24369158.492   128060792.648    24369167.785    99787672.7674   24369167.617  
                
  23009651.898   123215640.846                    95834393.363    23009656.160  
  23009651.180  
  22471293.672   119784648.711                                                  
  22471292.941  
  20748005.453   109031527.016    20748014.871    84959685.4664   20748015.227  
                
  20754676.516   110750941.795                    86139624.921    20754679.695  
  20754674.445  
 21  8 16 15 32 50.0000000  0 18G 4G16R 1R24G26R17G 9G31G 1R18G 6G22
                                R12G 7R 8R10G 3R 2
  20439365.531   107409637.306    20439373.207    83695871.7524   20439372.996  
                
  23610113.852   124071999.260    23610120.980    96679518.3064                 
                
  19955281.180   106672445.456                    82967460.794    19955286.777  
  19955280.691  
  23543938.945   125900014.854                    97922221.029    23543946.398  
  23543937.961  
  22924070.914   120466862.649    22924081.625    93870303.1884   22924081.406  
                
  21819072.172   116758267.942                    90811977.419    21819076.586  
  21819070.371  
  21980612.398   115508925.459    21980621.148    90007006.7734   21980621.012  
                
  24063253.883   126453293.052    24063261.004    98535093.1224   24063261.453  
                
  24227046.852   127313988.091    24227058.801    99205737.6594   24227058.539  
                
  22788015.000   121643975.737                    94611973.302    22788019.133  
  22788013.488  
  23041384.141   121083276.944    23041394.051    94350665.2164   23041394.410  
                
  22108981.352   116183501.129    22108986.758    90532626.2734                 
                
  21738083.398   116120956.098                    90316294.936    21738088.410  
  21738082.867  
  24362752.820   128027130.511    24362762.074    99761442.5524   24362761.914  
                
  23015131.234   123244982.638                    95857214.718    23015135.543  
  23015130.523  
  22477460.602   119817521.878                                                  
  22477459.859  
  20751048.836   109047520.064    20751058.238    84972147.5674   20751058.605  
                
  20750285.250   110727509.167                    86121399.559    20750288.438  
  20750283.195  
 21  8 16 15 33  0.0000000  0 18G 4G16R 1R24G26R17G 9G31G 1R18G 6G22
                                R12G 7R 8R10G 3R 2
  20438777.719   107406548.368    20438785.398    83693464.7894   20438785.180  
                
  23604725.188   124043681.273    23604732.312    96657452.3484                 
                
  19957392.180   106683729.864                    82976237.551    19957397.789  
  19957391.695  
  23551576.086   125940853.511                    97953984.374    23551583.488  
  23551575.059  
  22922786.656   120460113.846    22922797.367    93865044.4014   22922797.168  
                
  21822872.508   116778604.248                    90827794.503    21822876.914  
  21822870.730  
  21976390.352   115486738.503    21976399.094    89989718.2414   21976398.957  
                
  24070006.156   126488776.482    24070013.246    98562742.5604   24070013.719  
                
  24234297.656   127352091.498    24234309.664    99235428.5984   24234309.371  
                
  22785539.180   121630759.652                    94601694.113    22785543.309  
  22785537.684  
  23038405.203   121067622.555    23038415.121    94338466.9994   23038415.469  
                
  22113835.797   116209011.385    22113841.223    90552504.3854                 
                
  21730396.180   116079892.801                    90284356.822    21730401.234  
  21730395.688  
  24356349.570   127993480.954    24356358.773    99735222.1454   24356358.609  
                
  23020613.922   123274342.232                    95880049.940    23020618.242  
  23020613.207  
  22483638.039   119850451.024                                                  
  22483637.242  
  20754101.516   109063561.945    20754110.906    84984647.7324   20754111.273  
                
  20745897.625   110704095.988                    86103189.317    20745900.824  
  20745895.586  
 21  8 16 15 33 10.0000000  0 18G 4G16R 1R24G26R17G 9G31G 1R18G 6G22
                                R12G 7R 8R10G 3R 2
  20438196.609   107403494.581    20438204.285    83691085.2234   20438204.078  
                
  23599342.789   124015396.324    23599349.918    96635412.1234                 
                
  19959510.492   106695053.395                    82985044.735    19959516.105  
  19959510.016  
  23559214.930   125981700.905                    97985754.594    23559222.156  
  23559213.836  
  22921514.211   120453427.080    22921524.895    93859833.9414   22921524.703  
                
  21826686.797   116799015.071                    90843669.582    21826691.211  
  21826685.055  
  21972172.867   115464575.514    21972181.621    89972448.3924   21972181.484  
                
  24076762.023   126524278.815    24076769.102    98590406.7254   24076769.582  
                
  24241548.930   127390197.033    24241560.969    99265121.2044   24241560.648  
                
  22783079.102   121617627.664                    94591480.357    22783083.246  
  22783077.598  
  23035437.758   121052028.554    23035447.691    94326315.8374   23035448.039  
                
  22118697.031   116234557.264    22118702.469    90572410.2464                 
                
  21722715.781   116038865.384                    90252446.631    21722720.809  
  21722715.254  
  24349948.781   127959844.255    24349957.922    99709011.7484   24349957.754  
                
  23026099.969   123303719.604                    95902898.983    23026104.270  
  23026099.254  
  22489826.008   119883436.302                                                  
  22489825.223  
  20757163.539   109079652.931    20757172.934    84997186.1604   20757173.297  
                
  20741513.695   110680702.505                    86084994.395    20741516.902  
  20741511.691  
 21  8 16 15 33 20.0000000  0 18G 4G16R 1R24G26R17G 9G31G 1R18G 6G22
                                R12G 7R 8R10G 3R 2
  20437622.156   107400475.846    20437629.824    83688732.9624   20437629.625  
                
  23593966.609   123987144.462    23593973.773    96613397.6894                 
                
  19961636.070   106706415.842                    82993882.192    19961641.688  
  19961635.598  
  23566855.234   126022556.766                    98017531.330    23566862.406  
  23566854.164  
  22920253.539   120446802.252    22920264.176    93854671.7394   22920264.020  
                
  21830514.938   116819500.030                    90859602.325    21830519.328  
  21830513.207  
  21967959.906   115442436.378    21967968.680    89955197.1414   21967968.527  
                
  24083521.438   126559799.957    24083528.531    98618085.5204   24083529.000  
                
  24248800.609   127428304.424    24248812.645    99294815.2464   24248812.297  
                
  22780634.766   121604579.707                    94581331.980    22780638.910  
  22780633.246  
  23032481.789   121036494.889    23032491.754    94314211.6834   23032492.109  
                
  22123564.984   116260138.515    22123570.395    90592343.6724                 
                
  21715042.117   115997873.988                    90220564.453    21715047.133  
  21715041.555  
  24343550.438   127926220.436    24343559.520    99682811.3894   24343559.336  
                
  23031589.297   123333114.703                    95925761.807    23031593.566  
  23031588.578  
  22496024.414   119916477.390                                                  
  22496023.648  
  20760234.867   109095792.874    20760244.266    85009762.7314   20760244.629  
                
  20737133.430   110657328.608                    86066814.712    20737136.625  
  20737131.441  
 21  8 16 15 33 30.0000000  0 18G 4G16R 1R24G26R17G 9G31G 1R18G 6G22
                                R12G 7R 8R10G 3R 2
  20437054.328   107397491.924    20437061.977    83686407.8314   20437061.789  
                
  23588596.695   123958925.619    23588603.918    96591409.0124                 
                
  19963768.922   106717817.075                    83002749.812    19963774.535  
  19963768.465  
  23574496.953   126063420.531                    98049314.202    23574504.145  
  23574495.949  
  22919004.633   120440239.206    22919015.270    93849557.6994   22919015.121  
                
  21834356.898   116840058.981                    90875592.605    21834361.273  
  21834355.180  
  21963751.477   115420320.932    21963760.215    89937964.3344   21963760.066  
                
  24090284.352   126595339.455    24090291.488    98645778.6214   24090291.930  
                
  24256052.602   127466413.383    24256064.633    99324510.5114   24256064.270  
                
  22778206.188   121591615.755                    94571248.905    22778210.316  
  22778204.664  
  23029537.273   121021021.372    23029547.305    94302154.4164   23029547.637  
                
  22128439.633   116285754.932    22128445.047    90612304.4944                 
                
  21707375.117   115956918.383                    90188710.108    21707380.148  
  21707374.570  
  24337154.469   127892609.326    24337163.566    99656620.9434   24337163.363  
                
  23037081.906   123362527.173                    95948638.148    23037086.129  
  23037081.191  
  22502233.195   119949573.738                                                  
  22502232.445  
  20763315.484   109111981.567    20763324.898    85022377.2854   20763325.246  
                
  20732756.812   110633974.117                    86048650.113    20732760.016  
  20732754.832  
 21  8 16 15 33 40.0000000  0 17G 4G16R 1G26R17G 9G31G 1R18G 6G22R12
                                G 7R 8R10G 3R 2
  20436493.164   107394543.009    20436500.789    83684109.9774   20436500.633  
                
  23583233.070   123930739.947    23583240.406    96569446.1554                 
                
  19965909.062   106729257.342                    83011647.789    19965914.680  
  19965908.609  
  22917767.531   120433738.231    22917778.195    93844492.0124   22917778.016  
                
  21838212.656   116860691.846                    90891640.387    21838217.070  
  21838210.965  
  21959547.586   115398229.393    21959556.266    89920750.1484   21959556.156  
                
  24097050.789   126630897.443    24097057.973    98673486.1374   24097058.434  
                
  24263304.875   127504524.006    24263316.953    99354207.0734   24263316.566  
                
  22775793.352   121578735.789                    94561231.179    22775797.426  
  22775791.840  
  23026604.258   121005608.292    23026614.332    94290144.2254   23026614.652  
                
  22133321.008   116311406.697    22133326.449    90632292.8814                 
                
  21699714.883   115915999.098                    90156884.023    21699719.980  
  21699714.398  
  24330760.992   127859011.139    24330770.062    99630440.5634   24330769.840  
                
  23042577.812   123391957.427                    95971528.326    23042581.996  
  23042577.121  
  22508452.430   119982725.665                                                  
  22508451.688  
  20766405.406   109128219.176    20766414.828    85035029.9644   20766415.188  
                
  20728383.852   110610639.204                    86030500.746    20728387.070  
  20728381.883  
 21  8 16 15 33 50.0000000  0 17G 4G16R 1G26R17G 9G31G 1R18G 6G22R12
                                G 7R 8R10G 3R 2
  20435938.617   107391628.801    20435946.227    83681839.1664   20435946.094  
                
  23577875.805   123902587.419    23577883.184    96547509.1424                 
                
  19968056.484   106740736.490                    83020576.013    19968062.117  
  19968056.043  
  22916542.172   120427299.010    22916552.848    93839474.4514   22916552.656  
                
  21842082.148   116881398.192                    90907745.291    21842086.594  
  21842080.414  
  21955348.203   115376161.477    21955356.848    89903554.3764   21955356.754  
                
  24103820.680   126666473.503    24103827.914    98701207.7234   24103828.383  
                
  24270557.422   127542635.901    24270569.500    99383904.6194   24270569.105  
                
  22773396.273   121565939.948                    94551278.874    22773400.316  
  22773394.801  
  23023682.695   120990255.398    23023692.797    94278180.9464   23023693.117  
                
  22138209.047   116337093.472    22138214.484    90652308.5374                 
                
  21692061.469   115875115.877                    90125085.977    21692066.535  
  21692060.953  
  24324369.938   127825425.731    24324378.973    99604270.1404   24324378.742  
                
  23048076.977   123421404.958                    95994431.955    23048081.145  
  23048076.309  
  22514681.977   120015932.605                                                  
  22514681.238  
  20769504.586   109144505.408    20769514.031    85047720.5304   20769514.383  
                
  20724014.531   110587323.721                    86012366.484    20724017.734  
  20724012.566  
 21  8 16 15 34  0.0000000  0 17G 4G16R 1G26R17G 9G31G 1R18G 6G22R12
                                G 7R 8R10G 3R 2
  20435390.711   107388749.581    20435398.305    83679595.6214   20435398.184  
                
  23572524.914   123874468.490    23572532.316    96525598.2914                 
                
  19970211.180   106752254.548                    83029534.504    19970216.820  
  19970210.730  
  22915328.648   120420921.926    22915339.320    93834505.3004   22915339.133  
                
  21845965.383   116902178.225                    90923907.528    21845969.879  
  21845963.578  
  21951153.367   115354117.494    21951162.004    89886377.2434   21951161.902  
                
  24110594.055   126702067.864    24110601.348    98728943.5764   24110601.789  
                
  24277810.219   127580749.256    24277822.285    99413603.2984   24277821.883  
                
  22771014.953   121553228.357                    94541392.075    22771018.973  
  22771013.508  
  23020772.648   120974963.051    23020782.766    94266264.8374   23020783.055  
                
  22143103.781   116362815.475    22143109.164    90672351.6434                 
                
  21684414.828   115834269.208                    90093316.360    21684419.930  
  21684414.332  
  24317981.336   127791853.402    24317990.297    99578109.8974   24317990.086  
                
  23053579.438   123450870.316                    96017349.428    23053583.598  
  23053578.773  
  22520921.852   120049194.587                                                  
  22520921.094  
  20772613.055   109160840.508    20772622.531    85060449.1704   20772622.875  
                
  20719648.930   110564028.062                    85994247.643    20719652.125  
  20719646.930  
 21  8 16 15 34 10.0000000  0 17G 4G16R 1G26R17G 9G31G 1R18G 6G22R12
                                G 7R 8R10G 3R 2
  20434849.500   107385905.498    20434857.078    83677379.4534   20434856.969  
                
  23567180.461   123846383.349    23567187.828    96503713.7704                 
                
  19972373.203   106763811.769                    83038523.441    19972378.828  
  19972372.750  
  22914126.977   120414607.154    22914137.652    93829584.7134   22914137.461  
                
  21849862.398   116923032.011                    90940127.125    21849866.988  
  21849860.555  
  21946963.109   115332097.590    21946971.750    89869218.8834   21946971.652  
                
  24117370.945   126737680.552    24117378.270    98756693.7114   24117378.695  
                
  24285063.391   127618864.128    24285075.348    99443303.1724   24285074.941  
                
  22768649.484   121540601.361                    94531571.089    22768653.480  
  22768648.016  
  23017874.172   120959731.460    23017884.277    94254396.0764   23017884.586  
                
  22148005.234   116388572.762    22148010.570    90692422.2484                 
                
  21676775.156   115793459.488                    90061575.484    21676780.246  
  21676774.637  
  24311595.195   127758294.345    24311604.172    99551960.0104   24311603.969  
                
  23059085.219   123480353.399                    96040280.701    23059089.355  
  23059084.543  
  22527172.070   120082511.800                                                  
  22527171.340  
  20775730.867   109177224.628    20775740.363    85073216.0134   20775740.699  
                
  20715287.047   110540752.275                    85976144.278    20715290.250  
  20715285.043  
 21  8 16 15 34 20.0000000  0 17G 4G16R 1G26R17G 9G31G 1R18G 6G22R12
                                G 7R 8R10G 3R 2
  20434314.922   107383096.295    20434322.496    83675190.4664   20434322.395  
                
  23561842.375   123818331.904    23561849.758    96481855.5074                 
                
  19974542.523   106775407.980                    83047542.733    19974548.117  
  19974542.066  
  22912937.125   120408354.523    22912947.789    93824712.5494   22912947.605  
                
  21853773.109   116943959.073                    90956403.699    21853777.797  
  21853771.301  
  21942777.391   115310101.549    21942786.062    89852079.1314   21942785.957  
                
  24124151.250   126773311.239    24124158.594    98784457.8694   24124158.973  
                
  24292316.609   127656980.148    24292328.609    99473003.9454   24292328.195  
                
  22766299.781   121528058.507                    94521815.524    22766303.758  
  22766298.312  
  23014987.219   120944560.428    23014997.316    94242574.4884   23014997.625  
                
  22152913.352   116414365.120    22152918.676    90712520.1814                 
                
  21669142.367   115752686.542                    90029863.218    21669147.445  
  21669141.820  
  24305211.617   127724748.473    24305220.566    99525820.3964   24305220.348  
                
  23064594.328   123509854.153                    96063225.695    23064598.395  
  23064593.645  
  22533432.594   120115883.721                                                  
  22533431.895  
  20778857.945   109193657.503    20778867.473    85086020.8394   20778867.793  
                
  20710928.867   110517496.236                    85958056.245    20710932.059  
  20710926.859  
 21  8 16 15 34 30.0000000  0 17G 4G16R 1G26R17G 9G31G 1R18G 6G22R12
                                G 7R 8R10G 3R 2
  20433787.008   107380322.082    20433794.582    83673028.7424   20433794.480  
                
  23556510.734   123790314.368    23556518.203    96460023.6714                 
                
  19976719.141   106787043.295                    83056592.418    19976724.738  
  19976718.684  
  22911759.125   120402164.176    22911769.770    93819888.9164   22911769.602  
                
  21857697.547   116964959.468                    90972737.347    21857702.262  
  21857695.754  
  21938596.227   115288129.501    21938604.949    89834958.0644   21938604.809  
                
  24130934.977   126808959.936    24130942.320    98812236.0634   24130942.680  
                
  24299570.125   127695097.320    24299582.102    99502705.6134   24299581.695  
                
  22763965.898   121515600.061                    94512125.635    22763969.879  
  22763964.422  
  23012111.820   120929450.133    23012121.891    94230800.2404   23012122.195  
                
  22157828.156   116440192.620    22157833.488    90732645.5014                 
                
  21661516.547   115711950.474                    89998179.630    21661521.582  
  21661515.977  
  24298830.562   127691215.908    24298839.488    99499691.1384   24298839.273  
                
  23070106.656   123539372.304                    96086184.271    23070110.664  
  23070105.938  
  22539703.391   120149310.595                                                  
  22539702.645  
  20781994.320   109210139.224    20782003.895    85098863.7314   20782004.191  
                
  20706574.438   110494260.209                    85939983.792    20706577.637  
  20706572.445  
 21  8 16 15 34 40.0000000  0 17G 4G16R 1G26R17G 9G31G 1R18G 6G22R12
                                G 7R 8R10G 3R 2
  20433265.719   107377582.693    20433273.297    83670894.1584   20433273.195  
                
  23551185.594   123762330.694    23551193.145    96438218.2274                 
                
  19978903.039   106798717.480                    83065672.330    19978908.637  
  19978902.555  
  22910592.969   120396036.020    22910603.613    93815113.7314   22910603.457  
                
  21861635.625   116986032.885                    90989127.758    21861640.363  
  21861633.844  
  21934419.625   115266181.339    21934428.367    89817855.6124   21934428.207  
                
  24137722.062   126844626.391    24137729.371    98840028.1074   24137729.742  
                
  24306823.828   127733215.428    24306835.766    99532408.0154   24306835.371  
                
  22761647.859   121503226.094                    94502501.429    22761651.809  
  22761646.391  
  23009247.977   120914400.470    23009258.000    94219073.2344   23009258.320  
                
  22162749.609   116466055.007    22162754.969    90752798.0074                 
                
  21653897.648   115671251.585                    89966524.939    21653902.637  
  21653897.102  
  24292452.070   127657696.574    24292460.930    99473572.2014   24292460.750  
                
  23075622.188   123568908.060                    96109156.520    23075626.238  
  23075621.457  
  22545984.375   120182791.961                                                  
  22545983.555  
  20785139.961   109226669.627    20785149.570    85111744.5504   20785149.844  
                
  20702223.742   110471044.030                    85921926.781    20702226.930  
  20702221.734  
 21  8 16 15 34 50.0000000  0 17G 4G16R 1G26R17G 9G31G 1R18G 6G22R12
                                G 7R 8R10G 3R 2
  20432751.070   107374878.186    20432758.656    83668786.7514   20432758.547  
                
  23545866.922   123734380.995    23545874.512    96416439.2494                 
                
  19981094.250   106810430.788                    83074782.676    19981099.855  
  19981093.770  
  22909438.648   120389970.137    22909449.293    93810387.0994   22909449.129  
                
  21865587.328   117007179.281                    91005574.936    21865592.113  
  21865585.523  
  21930247.578   115244257.106    21930256.309    89800771.8074   21930256.152  
                
  24144512.547   126880310.628    24144519.789    98867834.0034   24144520.164  
                
  24314077.680   127771334.411    24314089.621    99562111.1004   24314089.246  
                
  22759345.648   121490936.756                    94492943.059    22759349.613  
  22759344.176  
  23006395.688   120899411.573    23006405.672    94207393.5814   23006406.016  
                
  22167677.711   116491952.364    22167683.109    90772977.7394                 
                
  21646285.734   115630589.896                    89934899.191    21646290.648  
  21646285.168  
  24286076.109   127624190.612    24286084.918    99447463.6814   24286084.773  
                
  23081141.062   123598461.380                    96132142.396    23081145.121  
  23081140.297  
  22552275.523   120216327.505                                                  
  22552274.590  
  20788294.867   109243248.738    20788304.504    85124663.3304   20788304.766  
                
  20697876.680   110447847.298                    85903884.887    20697879.859  
  20697874.664  
 21  8 16 15 35  0.0000000  0 17G 4G16R 1G26R17G 9G31G 1R18G 6G22R12
                                G 7R 8R10G 3R 2
  20432243.078   107372208.647    20432250.676    83666706.6024   20432250.562  
                
  23540554.734   123706465.681    23540562.414    96394687.0494                 
                
  19983292.789   106822183.223                    83083923.453    19983298.410  
  19983292.277  
  22908296.227   120383966.697    22908306.844    93805709.1094   22908306.707  
                
  21869552.680   117028398.694                    91022078.903    21869557.516  
  21869550.832  
  21926080.109   115222356.946    21926088.816    89783706.7454   21926088.680  
                
  24151306.445   126916012.672    24151313.633    98895653.7964   24151313.996  
                
  24321331.680   127809454.279    24321343.660    99591814.8614   24321343.285  
                
  22757059.266   121478731.860                    94483450.383    22757063.262  
  22757057.801  
  23003555.000   120884483.594    23003564.984    94195761.3974   23003565.316  
                
  22172612.477   116517884.727    22172617.875    90793184.7674                 
                
  21638680.828   115589965.800                    89903302.701    21638685.707  
  21638680.246  
  24279702.750   127590698.184    24279711.457    99421365.7014   24279711.363  
                
  23086663.172   123628032.299                    96155141.986    23086667.312  
  23086662.453  
  22558576.922   120249917.553                                                  
  22558575.902  
  20791459.062   109259876.662    20791468.738    85137620.1454   20791469.000  
                
  20693533.469   110424671.030                    85885858.898    20693536.641  
  20693531.441  
 21  8 16 15 35 10.0000000  0 17G 4G16R 1G26R17G 9G31G 1R18G 6G22R12
                                G 7R 8R10G 3R 2
  20431741.727   107369574.008    20431749.336    83664653.6364   20431749.219  
                
  23535249.078   123678584.727    23535256.863    96372961.6554                 
                
  19985498.617   106833974.684                    83093094.593    19985504.246  
  19985498.086  
  22907165.672   120378025.666    22907176.266    93801079.7474   22907176.156  
                
  21873531.617   117049690.797                    91038639.428    21873536.508  
  21873529.793  
  21921917.211   115200480.784    21921925.906    89766660.3924   21921925.777  
                
  24158103.695   126951732.271    24158110.828    98923487.2594   24158111.180  
                
  24328585.781   127847574.846    24328597.836    99621519.1724   24328597.457  
                
  22754788.766   121466611.792                    94474023.695    22754792.758  
  22754787.293  
  23000725.906   120869616.546    23000735.906    94184176.6824   23000736.211  
                
  22177553.883   116543851.977    22177559.297    90813418.9954                 
                
