     2.11           OBSERVATION DATA    M (MIXED)           RINEX VERSION / TYPE
EFT-CORS.RU                             20210817 150713 UTC PGM / RUN BY / DATE 
MDNG                                                        MARKER NAME         
                                                            MARKER NUMBER       
MDNG                EFT-CORS.RU                             OBSERVER / AGENCY   
0                   TRIMBLE BD970       2.0                 REC # / TYPE / VERS 
0                   UNKNOWN EXT NONE                        ANT # / TYPE        
  3463911.2830  3030468.2400  4402179.3760                  APPROX POSITION XYZ 
        0.0000        0.0000        0.0000                  ANTENNA: DELTA H/E/N
     1     1                                                WAVELENGTH FACT L1/2
     6    C1    L1    P2    L2    C2    P1                  # / TYPES OF OBSERV 
    10.000                                                  INTERVAL            
  2021     8    14    21    30    0.0000000     GPS         TIME OF FIRST OBS   
  2021     8    14    22    30    0.0000000     GPS         TIME OF LAST OBS    
     0                                                      RCV CLOCK OFFS APPL 
                                                            END OF HEADER       
 21  8 14 21 30  0.0000000  0 14G17G15R21R 3G14G 7G 5G13R13G30R 2R22
                                R12G19
  22124052.016   116262680.728    22124058.453    90594326.1104   22124058.293  
                
  22180208.102   116557792.967    22180214.148    90824287.3174   22180214.070  
                
  22256314.328   119098044.979                    92631814.283    22256317.500  
  22256312.488  
  20549307.391   110002078.253                    85557170.937    20549311.348  
  20549306.125  
  20209774.953   106203106.224    20209781.285    82755713.8584   20209781.195  
                
  23239912.414   122126606.182    23239919.566    95163635.8334   23239919.434  
                
  24037790.805   126319440.972    24037797.078    98430773.2004   24037797.172  
                
  20552842.086   108005928.810    20552847.852    84160499.5934                 
                
  20683994.750   110451419.548                    85906662.830    20683997.621  
  20683992.957  
  21074599.516   110747816.200    21074608.117    86297054.3254   21074608.262  
                
  20448353.711   109116352.302                    84868271.351    20448356.805  
  20448351.570  
  22272734.719   118893384.366                    92472644.054    22272737.992  
  22272733.023  
  19775265.781   105635948.224                    82161287.157    19775269.160  
  19775265.242  
  24159192.594   126957422.022    24159197.375    98927875.8984                 
                
 21  8 14 21 30 10.0000000  0 14G17G15R21R 3G14G 7G 5G13R13G30R 2R22
                                R12G19
  22119035.695   116236319.752    22119042.125    90573785.0974   22119041.965  
                
  22176101.797   116536214.188    22176107.867    90807472.6834   22176107.758  
                
  22256431.359   119098671.223                    92632301.364    22256434.531  
  22256429.469  
  20547313.531   109991404.978                    85548869.510    20547317.500  
  20547312.277  
  20210286.570   106205794.755    20210292.891    82757808.8274   20210292.812  
                
  23244776.500   122152166.857    23244783.605    95183553.2514   23244783.480  
                
  24042701.461   126345246.689    24042707.746    98450881.5504   24042707.840  
                
  20551018.438   107996345.431    20551024.207    84153032.0244                 
                
  20680475.227   110432625.481                    85892045.225    20680478.086  
  20680473.406  
  21077282.625   110761916.021    21077291.227    86308041.1974   21077291.367  
                
  20454018.328   109146579.770                    84891781.600    20454021.430  
  20454016.172  
  22266929.164   118862393.872                    92448540.326    22266932.457  
  22266927.469  
  19777429.266   105647505.137                    82170275.869    19777432.641  
  19777428.727  
  24151895.109   126919073.733    24151899.938    98897994.1324                 
                
 21  8 14 21 30 20.0000000  0 14G17G15R21R 3G14G 7G 5G13R13G30R 2R22
                                R12G19
  22114027.039   116209999.054    22114033.441    90553275.4564   22114033.289  
                
  22172005.656   116514688.824    22172011.738    90790699.6724   22172011.629  
                
  22256565.094   119099387.011                    92632858.121    22256568.281  
  22256563.160  
  20545336.328   109980820.873                    85540637.410    20545340.301  
  20545335.109  
  20210807.648   106208533.036    20210813.941    82759942.5634   20210813.883  
                
  23249644.367   122177747.439    23249651.453    95203486.1844   23249651.316  
                
  24047617.539   126371080.766    24047623.793    98471011.9964   24047623.898  
                
  20549206.258   107986822.342    20549212.031    84145611.4364                 
                
  20676961.734   110413863.673                    85877452.713    20676964.590  
  20676959.891  
  21079972.078   110776049.193    21079980.672    86319054.0544   21079980.812  
                
  20459695.328   109176873.381                    84915343.286    20459698.445  
  20459693.164  
  22261133.875   118831457.969                    92424479.080    22261137.152  
  22261132.188  
  19779598.844   105659094.662                    82179289.946    19779602.223  
  19779598.297  
  24144598.555   126880730.238    24144603.414    98868116.1074                 
                
 21  8 14 21 30 30.0000000  0 14G17G15R21R 3G14G 7G 5G13R13G30R 2R22
                                R12G19
  22109026.109   116183718.974    22109032.477    90532797.4824   22109032.344  
                
  22167919.672   116493216.859    22167925.770    90773968.2774   22167925.660  
                
  22256715.602   119100192.542                    92633484.670    22256718.801  
  22256713.605  
  20543375.852   109970326.271                    85532474.945    20543379.805  
  20543374.664  
  20211338.219   106211321.213    20211344.473    82762115.1784   20211344.445  
                
  23254515.945   122203348.122    23254523.105    95223434.7624   23254522.961  
                
  24052538.953   126396943.238    24052545.254    98491164.5804   24052545.367  
                
  20547405.602   107977359.831    20547411.379    84138238.0524                 
                
  20673454.234   110395133.802                    85862885.056    20673457.074  
  20673452.348  
  21082667.906   110790215.899    21082676.492    86330093.0434   21082676.641  
                
  20465384.703   109207232.959                    84938956.302    20465387.855  
  20465382.547  
  22255348.820   118800576.859                    92400460.434    22255352.094  
  22255347.109  
  19781774.578   105670717.068                    82188329.583    19781777.957  
  19781774.020  
  24137302.992   126842391.829    24137307.887    98838242.0344                 
                
 21  8 14 21 30 40.0000000  0 14G17G15R21R 3G14G 7G 5G13R13G30R 2R22
                                R12G19
  22104032.945   116157479.749    22104039.285    90512351.3304   22104039.164  
                
  22163843.906   116471798.612    22163850.004    90757278.7394   22163849.914  
                
  22256882.914   119101088.004                    92634181.143    22256886.105  
  22256880.809  
  20541432.102   109959921.270                    85524382.182    20541436.051  
  20541430.926  
  20211878.312   106214159.421    20211884.531    82764326.7624   20211884.527  
                
  23259391.398   122228969.020    23259398.605    95243399.0644   23259398.473  
                
  24057465.812   126422834.220    24057472.121    98511339.3664   24057472.238  
                
  20545616.500   107967958.025    20545622.273    84130911.9694                 
                
  20669952.781   110376436.390                    85848342.646    20669955.625  
  20669950.938  
  21085370.148   110804416.285    21085378.723    86341158.2704   21085378.875  
                
  20471086.523   109237659.013                    84962621.013    20471089.699  
  20471084.363  
  22249574.102   118769751.096                    92376484.853    22249577.348  
  22249572.449  
  19783956.484   105682372.471                    82197394.910    19783959.863  
  19783955.926  
  24130008.430   126804058.807    24130013.336    98808372.1544                 
                
 21  8 14 21 30 50.0000000  0 14G17G15R21R 3G14G 7G 5G13R13G30R 2R22
                                R12G19
  22099047.477   116131280.863    22099053.793    90491936.6114   22099053.684  
                
  22159778.320   116450433.790    22159784.414    90740630.8314   22159784.328  
                
  22257066.938   119102072.831                    92634947.094    22257070.102  
  22257064.742  
  20539505.047   109949605.537                    85516358.825    20539508.984  
  20539503.867  
  20212427.805   106217047.016    20212434.000    82766576.8374   20212434.008  
                
  23264270.656   122254609.424    23264277.875    95263378.6024   23264277.719  
                
  24062398.000   126448753.052    24062404.312    98531535.8584   24062404.426  
                
  20543838.867   107958616.462    20543844.629    84123632.8224                 
                
  20666457.320   110357770.839                    85833824.969    20666460.160  
  20666455.461  
  21088078.695   110818649.753    21088087.262    86352249.2844   21088087.406  
                
  20476800.648   109268150.705                    84986336.754    20476803.824  
  20476798.492  
  22243809.664   118738979.953                    92352551.759    22243812.852  
  22243807.973  
  19786144.453   105694060.188                    82206485.351    19786147.824  
  19786143.875  
  24122714.797   126765730.707    24122719.738    98778506.1114                 
                
 21  8 14 21 31  0.0000000  0 14G17G15R21R 3G14G 7G 5G13R13G30R 2R22
                                R12G19
  22094069.742   116105122.732    22094076.070    90471553.6564   22094075.973  
                
  22155722.875   116429122.280    22155728.969    90724024.4664   22155728.891  
                
  22257267.664   119103147.123                    92635782.656    22257270.836  
  22257265.395  
  20537594.703   109939379.295                    85508405.086    20537598.629  
  20537593.527  
  20212986.719   106219984.159    20212992.902    82768865.5214   20212992.914  
                
  23269153.688   122280269.519    23269160.910    95283373.4994   23269160.719  
                
  24067335.477   126474699.783    24067341.820    98551754.0854   24067341.938  
                
  20542072.734   107949335.364    20542078.480    84116400.7974                 
                
  20662967.844   110339137.296                    85819332.232    20662970.695  
  20662965.977  
  21090793.555   110832916.480    21090802.121    86363366.2124   21090802.254  
                
  20482527.055   109298707.923                    85010103.483    20482530.242  
  20482524.883  
  22238055.508   118708263.938                    92328661.518    22238058.656  
  22238053.848  
  19788338.484   105705780.319                    82215601.004    19788341.855  
  19788337.906  
  24115422.133   126727407.754    24115427.156    98748644.0974                 
                
 21  8 14 21 31 10.0000000  0 14G17G15R21R 3G14G 7G 5G13R13G30R 2R22
                                R12G19
  22089099.781   116079005.391    22089106.156    90451202.4864   22089106.027  
                
  22151677.633   116407864.370    22151683.742    90707459.8684   22151683.664  
                
  22257485.172   119104311.189                    92636688.036    22257488.340  
  22257482.871  
  20535701.102   109929242.646                    85500521.017    20535705.027  
  20535699.953  
  20213555.078   106222970.915    20213561.270    82771192.8644   20213561.270  
                
  23274040.406   122305949.428    23274047.711    95303383.8154   23274047.477  
                
  24072278.305   126500674.451    24072284.621    98571994.0834   24072284.758  
                
  20540318.148   107940114.942    20540323.887    84109216.0544                 
                
  20659484.344   110320535.631                    85804864.292    20659487.164  
  20659482.445  
  21093514.773   110847216.605    21093523.344    86374509.1574   21093523.465  
                
  20488265.844   109329331.141                    85033921.530    20488269.012  
  20488263.660  
  22232311.789   118677603.304                    92304814.375    22232314.934  
  22232310.070  
  19790538.617   105717533.072                    82224742.041    19790541.988  
  19790538.023  
  24108130.531   126689090.261    24108135.617    98718786.3314                 
                
 21  8 14 21 31 20.0000000  0 14G17G15R21R 3G14G 7G 5G13R13G30R 2R22
                                R12G19
  22084137.602   116052929.026    22084144.020    90430883.2414   22084143.863  
                
  22147642.641   116386660.303    22147648.773    90690937.2114   22147648.688  
                
  22257719.461   119105564.967                    92637663.209    22257722.625  
  22257717.133  
  20533824.258   109919195.707                    85492706.739    20533828.191  
  20533823.137  
  20214132.883   106226007.285    20214139.082    82773558.8664   20214139.078  
                
  23278930.859   122331649.177    23278938.262    95323409.5794   23278938.004  
                
  24077226.367   126526676.882    24077232.691    98592255.7124   24077232.844  
                
  20538575.133   107930955.351    20538580.863    84102078.7064                 
                
  20656006.859   110301966.125                    85790421.336    20656009.652  
  20656004.973  
  21096242.352   110861550.136    21096250.930    86385678.1394   21096251.035  
                
  20494016.828   109360019.500                    85057790.265    20494019.996  
  20494014.660  
  22226578.570   118646998.199                    92281010.400    22226581.543  
  22226576.789  
  19792744.844   105729318.340                    82233908.364    19792748.223  
  19792744.250  
  24100840.070   126650778.382    24100845.117    98688932.9194                 
                
 21  8 14 21 31 30.0000000  0 14G17G15R21R 3G14G 7G 5G13R13G30R 2R22
                                R12G19
  22079183.250   116026893.798    22079189.676    90410596.0514   22079189.527  
                
  22143617.898   116365510.159    22143624.055    90674456.5734   22143623.965  
                
  22257970.508   119106908.446                    92638708.140    22257973.680  
  22257968.195  
  20531964.188   109909238.551                    85484962.287    20531968.121  
  20531963.098  
  20214720.109   106229093.202    20214726.324    82775963.4764   20214726.312  
                
  23283825.117   122357368.842    23283832.570    95343450.8614   23283832.289  
                
  24082179.727   126552706.964    24082186.055    98612538.8934   24082186.215  
                
  20536843.680   107921856.457    20536849.398    84094988.6574                 
                
  20652535.406   110283428.799                    85776003.404    20652538.188  
  20652533.531  
  21098976.289   110875917.070    21098984.867    86396873.1484   21098984.973  
                
  20499780.047   109390773.128                    85081709.754    20499783.219  
  20499777.891  
  22220855.727   118616448.909                    92257249.842    22220858.633  
  22220853.902  
  19794957.141   105741136.064                    82243099.929    19794960.531  
  19794956.539  
  24093550.664   126612472.195    24093555.691    98659083.9494                 
                
 21  8 14 21 31 40.0000000  0 14G17G15R21R 3G14G 7G 5G13R13G30R 2R22
                                R12G19
  22074236.727   116000899.675    22074243.145    90390340.8904   22074243.012  
                
  22139603.422   116344413.991    22139609.590    90658018.0064   22139609.492  
                
  22258238.305   119108341.552                    92639822.769    22258241.492  
  22258235.980  
  20530120.852   109899371.052                    85477287.566    20530124.812  
  20530119.770  
  20215316.750   106232228.561    20215322.977    82778406.6134   20215322.953  
                
  23288723.164   122383108.266    23288730.594    95363507.5634   23288730.312  
                
  24087138.281   126578764.521    24087144.645    98632843.4794   24087144.816  
                
  20535123.766   107912818.275    20535129.480    84087945.9174                 
                
  20649069.961   110264923.612                    85761610.489    20649072.754  
  20649068.086  
  21101716.562   110890317.282    21101725.152    86408094.0924   21101725.246  
                
  20505555.477   109421591.939                    85105679.919    20505558.621  
  20505553.305  
  22215143.227   118585955.448                    92233532.730    22215146.160  
  22215141.457  
  19797175.477   105752986.030                    82252316.556    19797178.855  
  19797174.879  
  24086262.383   126574171.827    24086267.363    98629239.5054                 
                
 21  8 14 21 31 50.0000000  0 14G17G15R21R 3G14G 7G 5G13R13G30R 2R22
                                R12G19
  22069298.070   115974946.864    22069304.473    90370117.9194   22069304.355  
                
  22135599.273   116323371.986    22135605.465    90641621.6464   22135605.344  
                
  22258522.906   119109864.572                    92641007.322    22258526.105  
  22258520.582  
  20528294.344   109889593.555                    85469682.847    20528298.309  
  20528293.273  
  20215922.828   106235413.540    20215929.062    82780888.4204   20215929.035  
                
  23293625.039   122408867.656    23293632.371    95383579.8164   23293632.102  
                
  24092102.047   126604849.563    24092108.445    98653169.4744   24092108.625  
                
  20533415.477   107903841.137    20533421.184    84080950.7434                 
                
  20645610.562   110246450.675                    85747242.666    20645613.371  
  20645608.715  
  21104463.219   110904751.049    21104471.812    86419341.1734   21104471.902  
                
  20511343.125   109452475.911                    85129700.785    20511346.266  
  20511340.953  
  22209441.359   118555518.206                    92209859.296    22209444.223  
  22209439.559  
  19799399.930   105764868.614                    82261558.571    19799403.309  
  19799399.344  
  24078975.258   126535877.465    24078980.203    98599399.7484                 
                
 21  8 14 21 32  0.0000000  0 14G17G15R21R 3G14G 7G 5G13R13G30R 2R22
                                R12G19
  22064367.219   115949035.072    22064373.629    90349926.9194   22064373.523  
                
  22131605.367   116302383.868    22131611.574    90625267.2674   22131611.422  
                
  22258824.211   119111476.944                    92642261.408    22258827.406  
  22258821.895  
  20526484.578   109879905.676                    85462147.830    20526488.551  
  20526483.523  
  20216538.266   106238647.663    20216544.496    82783408.5174   20216544.461  
                
  23298530.656   122434646.640    23298537.887    95403667.3344   23298537.613  
                
  24097070.992   126630961.643    24097077.398    98673516.5414   24097077.586  
                
  20531718.719   107894924.592    20531724.410    84074002.7804                 
                
  20642157.141   110228009.627                    85732899.627    20642159.961  
  20642155.281  
  21107216.172   110919217.902    21107224.773    86430614.0434   21107224.871  
                
  20517142.875   109483424.493                    85153771.900    20517145.996  
  20517140.715  
  22203749.891   118525136.865                    92186229.371    22203752.793  
  22203748.160  
  19801630.383   105776783.266                    82270825.519    19801633.758  
  19801629.805  
  24071689.164   126497588.776    24071694.113    98569564.4034                 
                
 21  8 14 21 32 10.0000000  0 14G17G15R21R 3G14G 7G 5G13R13G30R 2R22
                                R12G19
  22059444.273   115923164.930    22059450.730    90329768.3824   22059450.641  
                
  22127621.797   116281450.121    22127628.004    90608955.2644   22127627.848  
                
  22259142.305   119113179.202                    92643585.378    22259145.480  
  22259139.984  
  20524691.656   109870308.053                    85454683.021    20524695.648  
  20524690.594  
  20217163.141   106241931.402    20217169.352    82785967.2774   20217169.332  
                
  23303440.023   122460445.630    23303447.238    95423770.4554   23303446.957  
                
  24102045.203   126657101.135    24102051.527    98693884.9844   24102051.758  
                
  20530033.602   107886069.255    20530039.277    84067102.5164                 
                
  20638709.750   110209600.851                    85718581.715    20638712.559  
  20638707.859  
  21109975.508   110933718.321    21109984.117    86441913.0644   21109984.195  
                
  20522954.812   109514438.110                    85177893.608    20522957.898  
  20522952.633  
  22198069.094   118494812.228                    92162643.586    22198072.000  
  22198067.328  
  19803866.914   105788730.411                    82280117.746    19803870.285  
  19803866.355  
  24064404.297   126459306.334    24064409.211    98539733.9424                 
                
 21  8 14 21 32 20.0000000  0 14G17G15R21R 3G14G 7G 5G13R13G30R 2R22
                                R12G19
  22054529.227   115897336.233    22054535.730    90309642.1244   22054535.621  
                
  22123648.562   116260570.647    22123654.766    90592685.5534   22123654.617  
                
  22259477.195   119114971.332                    92644979.256    22259480.348  
  22259474.879  
  20522915.570   109860800.502                    85447288.252    20522919.586  
  20522914.496  
  20217797.422   106245264.561    20217803.617    82788564.5414   20217803.605  
                
  23308353.227   122486264.399    23308360.383    95443888.9824   23308360.102  
                
  24107024.562   126683267.806    24107030.824    98714274.6004   24107031.109  
                
  20528360.102   107877274.943    20528365.770    84060249.8054                 
                
  20635268.430   110191224.379                    85704288.899    20635271.238  
  20635266.547  
  21112741.219   110948252.183    21112749.828    86453238.1444   21112749.902  
                
  20528778.883   109545516.510                    85202065.696    20528781.945  
  20528776.680  
  22192398.945   118464544.307                    92139101.854    22192401.832  
  22192397.195  
  19806109.500   105800709.886                    82289435.117    19806112.859  
  19806108.953  
  24057120.617   126421030.196    24057125.547    98509908.3794                 
                
 21  8 14 21 32 30.0000000  0 14G17G15R21R 3G14G 7G 5G13R13G30R 2R22
                                R12G19
  22049622.133   115871549.291    22049628.660    90289548.4044   22049628.523  
                
  22119685.688   116239745.573    22119691.883    90576458.2224   22119691.727  
                
  22259828.859   119116853.224                    92646442.973    22259831.984  
  22259826.547  
  20521156.305   109851383.005                    85439963.533    20521160.312  
  20521155.215  
  20218441.094   106248647.084    20218447.277    82791200.2774   20218447.266  
                
  23313270.180   122512102.983    23313277.348    95464022.9474   23313277.066  
                
  24112009.086   126709461.617    24112015.309    98734685.3584   24112015.621  
                
  20526698.234   107868541.769    20526703.898    84053444.7294                 
                
  20631833.094   110172879.872                    85690020.929    20631835.871  
  20631831.215  
  21115513.289   110962819.469    21115521.902    86464589.2664   21115521.965  
                
  20534614.977   109576659.011                    85226287.636    20534617.996  
  20534612.781  
  22186739.344   118434332.951                    92115604.144    22186742.348  
  22186737.602  
  19808358.117   105812721.576                    82298777.537    19808361.480  
  19808357.582  
  24049838.141   126382760.435    24049843.086    98480087.7904                 
                
 21  8 14 21 32 40.0000000  0 14G17G15R21R 3G14G 7G 5G13R13G30R 2R22
                                R12G19
  22044722.945   115845803.994    22044729.484    90269487.1314   22044729.340  
                
  22115733.141   116218974.812    22115739.336    90560273.2204   22115739.172  
                
  22260197.273   119118824.735                    92647976.358    22260200.379  
  22260194.969  
  20519413.844   109842055.575                    85432708.861    20519417.863  
  20519412.723  
  20219094.109   106252078.743    20219100.285    82793874.3044   20219100.285  
                
  23318190.852   122537961.198    23318198.008    95484172.1964   23318197.730  
                
  24116998.625   126735682.170    24117004.914    98755116.9574   24117005.184  
                
  20525047.961   107859869.555    20525053.629    84046687.1574                 
                
  20628403.758   110154567.499                    85675777.989    20628406.539  
  20628401.879  
  21118291.664   110977419.940    21118300.285    86475966.2574   21118300.348  
                
  20540463.086   109607865.648                    85250559.472    20540466.078  
  20540460.891  
  22181090.422   118404178.541                    92092150.736    22181093.406  
  22181088.656  
  19810612.734   105824765.388                    82308144.940    19810616.098  
  19810612.195  
  24042556.867   126344496.932    24042561.809    98450272.0724                 
                
 21  8 14 21 32 50.0000000  0 14G17G15R21R 3G14G 7G 5G13R13G30R 2R22
                                R12G19
  22039831.734   115820100.549    22039838.250    90249458.4744   22039838.113  
                
  22111791.039   116198258.869    22111797.246    90544130.9324   22111797.086  
                
  22260582.461   119120886.009                    92649579.609    22260585.551  
  22260580.195  
  20517688.266   109832818.382                    85425524.377    20517692.297  
  20517687.129  
  20219756.531   106255559.757    20219762.695    82796586.7814   20219762.695  
                
  23323115.289   122563839.235    23323122.426    95504336.8784   23323122.184  
                
  24121993.344   126761929.529    24121999.652    98775569.4394   24121999.895  
                
  20523409.367   107851258.670    20523415.047    84039977.3824                 
                
  20624980.508   110136287.476                    85661560.221    20624983.297  
  20624978.629  
  21121076.430   110992053.901    21121085.051    86487369.3394   21121085.125  
                
  20546323.297   109639136.832                    85274881.502    20546326.273  
  20546321.129  
  22175452.211   118374081.096                    92068741.593    22175455.188  
  22175450.465  
  19812873.367   105836841.281                    82317537.305    19812876.719  
  19812872.816  
  24035276.891   126306240.050    24035281.781    98420461.5254                 
                
 21  8 14 21 33  0.0000000  0 14G17G15R21R 3G14G 7G 5G13R13G30R 2R22
                                R12G19
  22034948.398   115794438.578    22034954.883    90229462.1314   22034954.770  
                
  22107859.258   116177597.240    22107865.477    90528030.9664   22107865.316  
                
  22260984.375   119123036.831                    92651252.454    22260987.457  
  22260982.102  
  20515979.492   109823671.223                    85418409.929    20515983.539  
  20515978.344  
  20220428.258   106259089.762    20220434.418    82799337.4354   20220434.418  
                
  23328043.445   122589736.714    23328050.535    95524516.7354   23328050.320  
                
  24126993.055   126788203.218    24126999.359    98796042.4464   24126999.609  
                
  20521782.375   107842708.803    20521788.062    84033315.1434                 
                
  20621563.188   110118039.239                    85647367.133    20621565.984  
  20621561.320  
  21123867.484   111006720.986    21123876.102    86498798.2374   21123876.176  
                
  20552195.438   109670471.756                    85299253.105    20552198.391  
  20552193.266  
  22169824.656   118344040.780                    92045376.924    22169827.621  
  22169822.906  
  19815139.969   105848949.128                    82326954.519    19815143.324  
  19815139.418  
  24027998.102   126267989.613    24028002.980    98390655.9894                 
                
 21  8 14 21 33 10.0000000  0 14G17G15R21R 3G14G 7G 5G13R13G30R 2R22
                                R12G19
  22030073.133   115768818.975    22030079.613    90209498.8094   22030079.504  
                
  22103937.906   116156990.377    22103944.121    90511973.6744   22103943.980  
                
  22261403.133   119125277.717                    92652995.364    22261406.219  
  22261400.871  
  20514287.633   109814614.612                    85411365.908    20514291.715  
  20514286.465  
  20221109.391   106262669.103    20221115.547    82802126.5334   20221115.555  
                
  23332975.438   122615654.062    23332982.418    95544712.0894   23332982.223  
                
  24131997.828   126814503.544    24132004.141    98816536.2104   24132004.391  
                
  20520167.117   107834220.531    20520172.809    84026700.9094                 
                
  20618151.914   110099823.188                    85633199.102    20618154.707  
  20618150.027  
  21126664.930   111021421.583    21126673.543    86510253.2424   21126673.621  
                
  20558079.594   109701870.741                    85323674.537    20558082.547  
  20558077.402  
  22164207.945   118314058.064                    92022057.029    22164210.859  
  22164206.172  
  19817412.617   105861089.193                    82336396.786    19817415.961  
  19817412.059  
  24020720.602   126229746.098    24020725.527    98360855.8444                 
                
 21  8 14 21 33 20.0000000  0 14G17G15R21R 3G14G 7G 5G13R13G30R 2R22
                                R12G19
  22025205.828   115743241.279    22025212.332    90189568.1504   22025212.219  
                
  22100026.898   116136437.952    22100033.113    90495958.8054   22100032.980  
                
  22261838.578   119127607.964                    92654807.810    22261841.676  
  22261836.309  
  20512612.586   109805648.048                    85404391.906    20512616.703  
  20512611.410  
  20221799.797   106266297.268    20221805.953    82804953.6764   20221805.965  
                
  23337911.109   122641590.857    23337917.980    95564922.5814   23337917.793  
                
  24137007.508   126840830.009    24137013.891    98837050.3244   24137014.145  
                
  20518563.477   107825793.362    20518569.156    84020134.2774                 
                
  20614746.633   110081639.215                    85619056.022    20614749.430  
  20614744.738  
  21129468.648   111036155.252    21129477.250    86521734.0134   21129477.320  
                
  20563975.602   109733333.087                    85348145.241    20563978.566  
  20563973.422  
  22158601.891   118284132.606                    91998781.673    22158604.809  
  22158600.113  
  19819691.195   105873260.965                    82345863.714    19819694.535  
  19819690.645  
  24013444.312   126191509.106    24013449.293    98331060.7944                 
                
 21  8 14 21 33 30.0000000  0 14G17G15R21R 3G14G 7G 5G13R13G30R 2R22
                                R12G19
  22020346.641   115717706.174    22020353.164    90169670.6724   22020353.059  
                
  22096126.414   116115940.701    22096132.645    90479986.9294   22096132.496  
                
  22262290.875   119130028.350                    92656690.338    22262293.969  
  22262288.605  
  20510954.492   109796772.148                    85397488.428    20510958.617  
  20510953.305  
  20222499.625   106269974.839    20222505.777    82807819.3194   20222505.789  
                
  23342850.594   122667547.685    23342857.391    95585148.6864   23342857.191  
                
  24142022.320   126867183.095    24142028.723    98857585.1874   24142028.973  
                
  20516971.562   107817427.802    20516977.246    84013615.6564                 
                
  20611347.438   110063487.672                    85604938.170    20611350.234  
  20611345.543  
  21132278.789   111050922.591    21132287.387    86533241.0254   21132287.453  
                
  20569883.664   109764859.642                    85372665.892    20569886.648  
  20569881.492  
  22153006.680   118254265.100                    91975551.380    22153009.586  
  22153004.926  
  19821975.836   105885465.102                    82355355.820    19821979.176  
  19821975.281  
  24006169.430   126153279.379    24006174.438    98301271.3894                 
                
 21  8 14 21 33 40.0000000  0 14G17G15R21R 3G14G 7G 5G13R13G30R 2R22
                                R12G19
  22015495.461   115692213.169    22015502.004    90149806.0004   22015501.898  
                
  22092236.336   116095498.226    22092242.574    90464057.7294   22092242.410  
                
  22262759.930   119132538.393                    92658642.594    22262763.023  
  22262757.645  
  20509313.273   109787986.637                    85390655.255    20509317.414  
  20509312.059  
  20223208.742   106273701.309    20223214.895    82810723.0664   20223214.910  
                
  23347793.773   122693524.053    23347800.496    95605390.0164   23347800.320  
                
  24147042.102   126893562.130    24147048.496    98878140.2894   24147048.734  
                
  20515391.297   107809123.449    20515396.980    84007144.7374                 
                
  20607954.227   110045368.096                    85590845.160    20607957.004  
  20607952.355  
  21135095.234   111065723.090    21135103.832    86544773.8814   21135103.887  
                
  20575803.516   109796449.184                    85397235.523    20575806.551  
  20575801.332  
  22147422.312   118224455.424                    91952366.095    22147425.207  
  22147420.566  
  19824266.406   105897700.925                    82364872.582    19824269.754  
  19824265.871  
  23998895.773   126115056.588    23998900.887    98271487.4044                 
                
 21  8 14 21 33 50.0000000  0 14G17G15R21R 3G14G 7G 5G13R13G30R 2R22
                                R12G19
  22010652.359   115666762.529    22010658.887    90129974.3434   22010658.781  
                
  22088356.742   116075110.836    22088362.988    90448171.4514   22088362.801  
                
  22263245.727   119135138.091                    92660664.615    22263248.852  
  22263243.465  
  20507688.969   109779291.605                    85383892.453    20507693.121  
  20507687.730  
  20223927.188   106277476.746    20223933.340    82813664.9664   20223933.359  
                
  23352740.695   122719520.037    23352747.375    95625646.6244   23352747.203  
                
  24152066.961   126919967.239    24152073.223    98898715.7014   24152073.445  
                
  20513822.734   107800880.578    20513828.426    84000721.7204                 
                
  20604567.070   110027280.823                    85576777.296    20604569.832  
  20604565.207  
  21137918.023   111080556.914    21137926.609    86556332.6964   21137926.676  
                
  20581735.227   109828101.967                    85421854.338    20581738.289  
  20581733.027  
  22141848.828   118194703.788                    91929225.971    22141851.707  
  22141847.066  
  19826562.953   105909968.660                    82374414.130    19826566.293  
  19826562.410  
  23991623.508   126076840.920    23991628.695    98241708.9564                 
                
 21  8 14 21 34  0.0000000  0 14G17G15R21R 3G14G 7G 5G13R13G30R 2R22
                                R12G19
  22005817.305   115641354.164    22005823.781    90110175.6144   22005823.703  
                
  22084487.594   116054778.311    22084493.844    90432327.9304   22084493.645  
                
  22263748.289   119137827.395                    92662756.293    22263751.406  
  22263746.062  
  20506081.516   109770686.828                    85377199.850    20506085.676  
  20506080.273  
  20224654.906   106281300.932    20224661.059    82816644.8574   20224661.078  
                
  23357691.281   122745535.477    23357697.930    95645918.3914   23357697.754  
                
  24157096.586   126946398.037    24157102.824    98919311.1304   24157103.020  
                
  20512265.844   107792699.037    20512271.543    83994346.4954                 
                
  20601185.867   110009225.369                    85562734.167    20601188.645  
  20601184.004  
  21140747.109   111095423.837    21140755.672    86567917.3074   21140755.746  
                
  20587678.758   109859817.763                    85446522.184    20587681.844  
  20587676.578  
  22136286.141   118165010.160                    91906130.928    22136289.074  
  22136284.422  
  19828865.414   105922267.986                    82383980.291    19828868.758  
  19828864.887  
  23984352.641   126038632.359    23984357.844    98211936.0474                 
                
 21  8 14 21 34 10.0000000  0 14G17G15R21R 3G14G 7G 5G13R13G30R 2R22
                                R12G19
  22000990.391   115615988.672    22000996.844    90090410.2894   22000996.797  
                
  22080628.969   116034501.129    22080635.242    90416527.5474   22080635.012  
                
  22264267.656   119140606.647                    92664917.939    22264270.789  
  22264265.492  
  20504491.039   109762172.926                    85370577.929    20504495.211  
  20504489.789  
  20225391.977   106285174.299    20225398.129    82819663.0624   20225398.152  
                
  23362645.609   122771570.823    23362652.211    95666205.6524   23362652.062  
                
  24162131.047   126972854.973    24162137.391    98939926.9314   24162137.578  
                
  20510720.703   107784579.322    20510726.406    83988019.4444                 
                
  20597810.703   109991202.238                    85548716.189    20597813.500  
  20597808.855  
  21143582.586   111110324.359    21143591.125    86579528.1044   21143591.223  
                
  20593634.188   109891597.070                    85471239.426    20593637.289  
  20593632.047  
  22130734.477   118135375.141                    91883081.444    22130737.457  
  22130732.781  
  19831173.875   105934599.402                    82393571.387    19831177.219  
  19831173.355  
  23977083.219   126000431.373    23977088.402    98182169.0384                 
                
 21  8 14 21 34 20.0000000  0 14G17G15R21R 3G14G 7G 5G13R13G30R 2R22
                                R12G19
  21996171.594   115590665.772    21996178.082    90070678.1654   21996178.027  
                
  22076780.836   116014279.108    22076787.137    90400770.1324   22076786.906  
                
  22264803.789   119143475.574                    92667149.348    22264806.910  
  22264801.676  
  20502917.492   109753749.656                    85364026.494    20502921.660  
  20502916.227  
  20226138.344   106289096.494    20226144.492    82822719.3194   20226144.516  
                
  23367603.711   122797625.762    23367610.211    95686508.1964   23367610.121  
                
  24167170.445   126999337.565    24167176.859    98960562.6954   24167177.051  
                
  20509187.289   107776521.174    20509192.996    83981740.3674                 
                
  20594441.523   109973211.081                    85534723.079    20594444.355  
  20594439.688  
  21146424.383   111125258.130    21146432.895    86591164.8004   21146433.008  
                
  20599601.367   109923439.047                    85496005.411    20599604.453  
  20599599.234  
  22125193.789   118105798.812                    91860077.643    22125196.828  
  22125192.098  
  19833488.281   105946962.519                    82403187.137    19833491.625  
  19833487.777  
  23969815.273   125962237.803    23969820.363    98152407.8174                 
                
 21  8 14 21 34 30.0000000  0 14G17G15R21R 3G14G 7G 5G13R13G30R 2R22
                                R12G19
  21991360.930   115565385.646    21991367.457    90050979.3774   21991367.379  
                
  22072943.250   115994112.449    22072949.562    90385055.8584   22072949.312  
                
  22265356.719   119146434.352                    92669450.638    22265359.836  
  22265354.660  
  20501360.930   109745417.279                    85357545.747    20501365.090  
  20501359.668  
  20226894.016   106293067.580    20226900.164    82825813.6704   20226900.188  
                
  23372565.562   122823700.350    23372571.934    95706826.0654   23372571.898  
                
  24172214.766   127025845.738    24172221.223    98981218.4014   24172221.395  
                
  20507665.617   107768524.720    20507671.320    83975509.3614                 
                
  20591078.398   109955252.187                    85520755.050    20591081.238  
  20591076.551  
  21149272.539   111140225.279    21149281.020    86602827.5054   21149281.152  
                
  20605580.266   109955343.541                    85520820.030    20605583.344  
  20605578.152  
  22119664.117   118076281.097                    91837119.443    22119667.160  
  22119662.445  
  19835808.617   105959357.333                    82412827.545    19835811.969  
  19835808.117  
  23962548.766   125924051.821    23962553.738    98122652.5134                 
                
 21  8 14 21 34 40.0000000  0 14G17G15R21R 3G14G 7G 5G13R13G30R 2R22
                                R12G19
  21986558.344   115540147.937    21986564.871    90031313.6434   21986564.812  
                
  22069116.172   115974001.013    22069122.480    90369384.6104   22069122.219  
                
  22265926.383   119149482.665                    92671821.557    22265929.496  
  22265924.391  
  20499821.273   109737175.383                    85351135.392    20499825.414  
  20499820.000  
  20227658.922   106297087.215    20227665.055    82828945.8554   20227665.086  
                
  23377531.078   122849794.256    23377537.363    95727158.9884   23377537.359  
                
  24177263.977   127052379.098    24177270.391    99001893.7414   24177270.539  
                
  20506155.641   107760589.754    20506161.336    83969326.2744                 
                
  20587721.281   109937325.391                    85506811.974    20587724.113  
  20587719.441  
  21152126.969   111155225.470    21152135.418    86614515.9654   21152135.574  
                
  20611570.852   109987310.468                    85545683.188    20611573.914  
  20611568.734  
  22114145.469   118046822.125                    91814206.884    22114148.496  
  22114143.801  
  19838134.852   105971783.666                    82422492.468    19838138.203  
  19838134.340  
  23955283.711   125885873.313    23955288.535    98092903.0224                 
                
 21  8 14 21 34 50.0000000  0 14G17G15R21R 3G14G 7G 5G13R13G30R 2R22
                                R12G19
  21981763.977   115514953.370    21981770.492    90011681.5194   21981770.445  
                
  22065299.688   115953945.277    22065305.984    90353756.7694   22065305.723  
                
  22266512.875   119152620.954                    92674262.447    22266516.000  
  22266510.977  
  20498298.586   109729024.347                    85344795.697    20498302.715  
  20498297.293  
  20228433.156   106301155.805    20228439.270    82832116.1894   20228439.309  
                
  23382500.367   122875908.027    23382506.672    95747507.3714   23382506.656  
                
  24182318.047   127078938.039    24182324.410    99022589.0284   24182324.555  
                
  20504657.461   107752716.777    20504663.148    83963191.4884                 
                
  20584370.195   109919430.700                    85492893.902    20584373.004  
  20584368.375  
  21154987.789   111170259.178    21154996.211    86626230.5274   21154996.387  
                
  20617573.125   110019339.818                    85570594.904    20617576.184  
  20617571.016  
  22108637.945   118017422.464                    91791340.499    22108640.918  
  22108636.285  
  19840467.039   105984241.747                    82432182.084    19840470.391  
  19840466.512  
  23948020.188   125847702.857    23948024.891    98063159.7964                 
                
 21  8 14 21 35  0.0000000  0 15G17G15R21R 3G14G 7G 5G13R13R 4G30R 2
                                R22R12G19
  21976977.773   115489801.671    21976984.266    89992082.7774   21976984.219  
                
  22061493.742   115933944.898    22061500.008    90338172.0574   22061499.770  
                
  22267116.094   119155848.778                    92676772.973    22267119.238  
  22267114.281  
  20496792.867   109720964.089                    85338526.596    20496796.984  
  20496791.582  
  20229216.617   106305272.952    20229222.703    82835324.3604   20229222.758  
                
  23387473.352   122902041.206    23387479.699    95767870.8714   23387479.652  
                
  24187376.867   127105522.100    24187383.184    99043303.8624   24187383.344  
                
  20503171.031   107744905.534    20503176.707    83957104.7994                 
                
  20581025.086   109901567.882                    85479000.605    20581027.844  
  20581023.262  
  23601949.750   126387363.774                    98301276.381    23601951.000  
  23601948.500  
  21157854.922   111185326.026    21157863.324    86637970.9244   21157863.508  
                
  20623587.102   110051431.644                    85595555.212    20623590.168  
  20623585.000  
  22103141.445   117988081.826                    91768520.015    22103144.477  
  22103139.812  
  19842805.133   105996731.403                    82441896.266    19842808.480  
  19842804.594  
  23940758.102   125809540.187    23940762.762    98033422.6474                 
                
 21  8 14 21 35 10.0000000  0 15G17G15R21R 3G14G 7G 5G13R13R 4G30R 2
                                R22R12G19
  21972199.766   115464693.171    21972206.246    89972517.7184   21972206.203  
                
  22057698.391   115914000.212    22057704.621    90322630.7434   22057704.418  
                
  22267736.109   119159166.515                    92679353.448    22267739.262  
  22267734.320  
  20495304.117   109712994.724                    85332328.200    20495308.215  
  20495302.852  
  20230009.367   106309438.880    20230015.426    82838570.5434   20230015.500  
                
  23392450.102   122928194.020    23392456.488    95788249.6814   23392456.410  
                
  24192440.430   127132131.322    24192446.750    99064038.3104   24192446.883  
                
  20501696.391   107737156.270    20501702.055    83951066.4124                 
                
  20577686.039   109883737.605                    85465132.596    20577688.789  
  20577684.223  
  23594910.125   126349666.991                    98271956.702    23594911.547  
  23594908.887  
  21160728.391   111200426.272    21160736.781    86649737.3504   21160736.977  
                
  20629612.750   110083585.697                    85620563.928    20629615.816  
  20629610.641  
  22097656.133   117958800.716                    91745745.822    22097659.180  
  22097654.496  
  19845149.133   106009252.644                    82451635.011    19845152.473  
  19845148.605  
  23933497.586   125771385.729    23933502.191    98003691.8934                 
                
 21  8 14 21 35 20.0000000  0 15G17G15R21R 3G14G 7G 5G13R13R 4G30R 2
                                R22R12G19
  21967430.047   115439628.202    21967436.516    89952986.5814   21967436.473  
                
  22053913.672   115894111.375    22053919.867    90307132.9604   22053919.680  
                
  22268372.914   119162574.116                    92682003.811    22268376.070  
  22268371.160  
  20493832.406   109705116.500                    85326200.701    20493836.480  
  20493831.152  
  20230811.406   106313653.616    20230817.445    82841854.7624   20230817.527  
                
  23397430.625   122954366.511    23397437.000    95808643.8334   23397436.906  
                
  24197508.703   127158765.859    24197515.141    99084792.4824   24197515.273  
                
  20500233.578   107729469.138    20500239.223    83945076.4374                 
                
  20574353.062   109865939.703                    85451289.791    20574355.797  
  20574351.242  
  23587878.133   126312011.330                    98242668.967    23587879.684  
  23587877.027  
  21163608.242   111215559.971    21163616.625    86661529.8374   21163616.820  
                
  20635649.977   110115801.533                    85645620.675    20635653.047  
  20635647.848  
  22092182.055   117929579.374                    91723018.118    22092185.020  
  22092180.363  
  19847499.047   106021805.477                    82461398.330    19847502.383  
  19847498.516  
  23926238.633   125733239.552    23926243.203    97973967.5904                 
                
 21  8 14 21 35 30.0000000  0 15G17G15R21R 3G14G 7G 5G13R13R 4G30R 2
                                R22R12G19
  21962668.570   115414606.518    21962675.039    89933489.1754   21962674.988  
                
  22050139.547   115874278.290    22050145.730    90291678.6144   22050145.562  
                
  22269026.484   119166071.403                    92684723.904    22269029.605  
  22269024.781  
  20492377.680   109697329.206                    85320143.909    20492381.730  
  20492376.438  
  20231622.680   106317916.879    20231628.707    82845176.7914   20231628.797  
                
  23402414.852   122980558.371    23402421.199    95829053.0704   23402421.086  
                
  24202581.797   127185425.194    24202588.250    99105565.9804   24202588.371  
                
  20498782.555   107721843.944    20498788.180    83939134.7294                 
                
  20571026.070   109848173.781                    85437471.871    20571028.789  
  20571024.258  
  23580853.836   126274396.848                    98213413.267    23580855.492  
  23580852.797  
  21166494.414   111230726.889    21166502.781    86673348.2094   21166502.984  
                
  20641698.836   110148079.449                    85670725.718    20641701.887  
  20641696.691  
  22086719.094   117900417.613                    91700336.742    22086721.973  
  22086717.391  
  19849854.852   106034389.765                    82471186.114    19849858.180  
  19849854.324  
  23918981.195   125695101.497    23918985.777    97944249.6124                 
                
 21  8 14 21 35 40.0000000  0 15G17G15R21R 3G14G 7G 5G13R13R 4G30R 2
                                R22R12G19
  21957915.289   115389627.980    21957921.762    89914025.3824   21957921.711  
                
  22046376.016   115854500.884    22046382.195    90276267.6484   22046382.020  
                
  22269696.773   119169658.174                    92687513.642    22269699.859  
  22269695.102  
  20490939.938   109689632.797                    85314157.816    20490943.965  
  20490938.699  
  20232443.148   106322228.530    20232449.172    82848536.5204   20232449.270  
                
  23407402.703   123006769.651    23407409.086    95849477.4334   23407408.945  
                
  24207659.609   127212109.043    24207665.996    99126358.6014   24207666.133  
                
  20497343.281   107714280.536    20497348.887    83933241.1674                 
                
  20567705.047   109830439.759                    85423678.732    20567707.758  
  20567703.246  
  23573837.164   126236823.479                    98184189.565    23573838.930  
  23573836.176  
  21169386.875   111245926.895    21169395.223    86685192.3754   21169395.426  
                
  20647759.180   110180418.610                    85695878.406    20647762.242  
  20647757.020  
  22081267.258   117871315.492                    91677701.765    22081270.160  
  22081265.570  
  19852216.531   106047005.461                    82480998.311    19852219.848  
  19852215.984  
  23911725.336   125656971.634    23911729.918    97914538.0224                 
                
 21  8 14 21 35 50.0000000  0 15G17G15R21R 3G14G 7G 5G13R13R 4G30R 2
                                R22R12G19
  21953170.312   115364693.015    21953176.789    89894595.5444   21953176.746  
                
  22042623.133   115834779.411    22042629.309    90260900.2784   22042629.148  
                
  22270383.859   119173334.825                    92690373.238    22270386.922  
  22270382.199  
  20489519.203   109682027.476                    85308242.565    20489523.215  
  20489517.977  
  20233272.859   106326588.695    20233278.895    82851934.0514   20233278.977  
                
  23412394.297   123033000.430    23412400.641    95869916.9994   23412400.496  
                
  24212742.133   127238817.546    24212748.441    99147170.4284   24212748.594  
                
  20495915.828   107706779.214    20495921.410    83927395.9764                 
                
  20564390.047   109812737.873                    85409910.590    20564392.742  
  20564388.254  
  23566828.242   126199291.669                    98154998.148    23566830.125  
  23566827.367  
  21172285.688   111261160.220    21172294.000    86697062.4824   21172294.215  
                
  20653831.094   110212819.481                    85721079.081    20653834.168  
  20653828.938  
  22075826.672   117842273.428                    91655113.510    22075829.625  
  22075824.969  
  19854584.070   106059652.398                    82490834.803    19854587.383  
  19854583.539  
  23904471.062   125618850.168    23904475.633    97884832.9794                 
                
 21  8 14 21 36  0.0000000  0 15G17G15R21R 3G14G 7G 5G13R13R 4G30R 2
                                R22R12G19
  21948433.656   115339801.782    21948440.156    89875199.7894   21948440.117  
                
  22038880.930   115815114.025    22038887.086    90245576.6104   22038886.945  
                
  22271087.711   119177101.162                    92693302.645    22271090.770  
  22271086.051  
  20488115.508   109674513.392                    85302398.278    20488119.477  
  20488114.297  
  20234111.805   106330997.398    20234117.855    82855369.4014   20234117.938  
                
  23417389.625   123059250.727    23417395.891    95890371.7904   23417395.754  
                
  24217829.281   127265550.709    24217835.582    99168001.4534   24217835.773  
                
  20494500.219   107699340.137    20494505.777    83921599.2844                 
                
  20561081.125   109795068.379                    85396167.682    20561083.816  
  20561079.320  
  23559827.125   126161801.495                    98125839.163    23559829.066  
  23559826.297  
  21175190.836   111276426.843    21175199.109    86708958.5564   21175199.340  
                
  20659914.508   110245281.758                    85746327.508    20659917.598  
  20659912.352  
  22070397.375   117813291.679                    91632572.143    22070400.363  
  22070395.703  
  19856957.492   106072330.746                    82500695.743    19856960.789  
  19856956.953  
  23897218.406   125580737.350    23897223.031    97855134.6714                 
                
 21  8 14 21 36 10.0000000  0 15G17G15R21R 3G14G 7G 5G13R13R 4G30R 2
                                R22R12G19
  21943705.289   115314954.119    21943711.801    89855837.9784   21943711.754  
                
  22035149.406   115795504.760    22035155.551    90230296.6644   22035155.410  
                
  22271808.273   119180957.088                    92696301.701    22271811.332  
  22271806.566  
  20486728.805   109667090.245                    85296624.715    20486732.758  
  20486727.586  
  20234959.945   106335454.427    20234966.012    82858842.4184   20234966.086  
                
  23422388.617   123085520.451    23422394.844    95910841.7104   23422394.695  
                
  24222921.031   127292308.171    24222927.324    99188851.4374   24222927.555  
                
  20493096.406   107691963.083    20493101.949    83915850.9314                 
                
  20557778.258   109777431.249                    85382449.919    20557780.965  
  20557776.410  
  23552833.789   126124353.053                    98096712.608    23552835.852  
  23552833.012  
  21178102.305   111291726.660    21178110.535    86720880.4914   21178110.789  
                
  20666009.359   110277805.108                    85771623.441    20666012.469  
  20666007.203  
  22064979.391   117784370.294                    91610077.764    22064982.398  
  22064977.738  
  19859336.758   106085040.356                    82510581.004    19859340.051  
  19859336.234  
  23889967.352   125542633.163    23889972.059    97825443.0994                 
                
 21  8 14 21 36 20.0000000  0 15G17G15R21R 3G14G 7G 5G13R13R 4G30R 2
                                R22R12G19
  21938985.227   115290150.073    21938991.742    89836510.1594   21938991.695  
                
  22031428.586   115775951.745    22031434.715    90215060.5564   22031434.566  
                
  22272545.641   119184902.908                    92699370.661    22272548.719  
  22272543.887  
  20485359.180   109659758.516                    85290922.266    20485363.090  
  20485357.973  
  20235817.312   106339959.958    20235823.383    82862353.2224   20235823.453  
                
  23427391.305   123111809.749    23427397.480    95931326.8704   23427397.355  
                
  24228017.453   127319090.019    24228023.719    99209720.4164   24228023.961  
                
  20491704.453   107684648.333    20491709.984    83910151.1304                 
                
  20554481.383   109759826.168                    85368757.076    20554484.078  
  20554479.523  
  23545848.250   126086946.689                    98067618.782    23545850.488  
  23545847.488  
  21181020.125   111307059.858    21181028.316    86732828.4394   21181028.602  
                
  20672115.719   110310389.866                    85796967.134    20672118.859  
  20672113.531  
  22059572.766   117755509.417                    91587630.421    22059575.746  
  22059571.113  
  19861721.914   106097781.397                    82520490.709    19861725.207  
  19861721.406  
  23882718.078   125504537.948    23882722.809    97795758.5054                 
                
 21  8 14 21 36 30.0000000  0 15G17G15R21R 3G14G 7G 5G13R13R 4G30R 2
