     2.11           OBSERVATION DATA    M (MIXED)           RINEX VERSION / TYPE
EFT-CORS.RU                             20210817 145424 UTC PGM / RUN BY / DATE 
MDNG                                                        MARKER NAME         
                                                            MARKER NUMBER       
MDNG                EFT-CORS.RU                             OBSERVER / AGENCY   
0                   TRIMBLE BD970       2.0                 REC # / TYPE / VERS 
0                   UNKNOWN EXT NONE                        ANT # / TYPE        
  3463911.2830  3030468.2400  4402179.3760                  APPROX POSITION XYZ 
        0.0000        0.0000        0.0000                  ANTENNA: DELTA H/E/N
     1     1                                                WAVELENGTH FACT L1/2
     6    C1    L1    P2    L2    C2    P1                  # / TYPES OF OBSERV 
    10.000                                                  INTERVAL            
  2021     8    15    21    30    0.0000000     GPS         TIME OF FIRST OBS   
  2021     8    15    22    30    0.0000000     GPS         TIME OF LAST OBS    
     0                                                      RCV CLOCK OFFS APPL 
                                                            END OF HEADER       
 21  8 15 21 30  0.0000000  0 16G17G15R14R 4G13G14R12G 7G 5R22R 3G30
                                G19R23R13R 5
  22002577.086   115624341.062    22002583.766    90096918.7164   22002583.629  
                
  22081308.617   116038065.586    22081315.230    90419305.1694   22081314.941  
                
  20674890.273   110208825.339                    85717969.202    20674894.262  
  20674889.840  
  20411792.703   109304247.528                    85014415.379    20411795.156  
  20411792.199  
  20511087.602   107786540.336    20511093.441    83989524.6394                 
                
  20225543.758   106285985.772    20225549.957    82820289.3764   20225549.961  
                
  23111070.477   123455229.107                    96020740.089    23111074.035  
  23111069.996  
  23357268.039   122743303.895    23357274.848    95644188.6634   23357274.684  
                
  24160865.797   126966215.834    24160872.488    98934746.6464   24160872.609  
                
  22308847.539   119086187.121                    92622583.440    22308849.633  
  22308845.844  
  20770393.492   111185551.558                    86477666.497    20770397.492  
  20770392.297  
  21142729.648   111105843.895    21142738.355    86576043.1124   21142738.391  
                
  23979542.359   126013334.504    23979548.180    98192243.9054                 
                
  22486035.180   120285125.346                                                  
  22486033.055  
  19928417.195   106416618.637                    82768557.832    19928419.297  
  19928415.516  
  23512984.562   125690368.013                    97759158.928    23512987.512  
  23512984.172  
 21  8 15 21 30 10.0000000  0 16G17G15R14R 4G13G14R12G 7G 5R22R 3G30
                                G19R23R13R 5
  21997756.016   115599006.240    21997762.723    90077177.3014   21997762.570  
                
  22077456.812   116017824.247    22077463.461    90403532.7124   22077463.156  
                
  20671366.430   110190041.294                    85703359.402    20671370.406  
  20671365.992  
  20410482.594   109297231.935                    85008958.797    20410485.035  
  20410482.090  
  20509548.773   107778453.733    20509554.613    83983223.3854                 
                
  20226287.477   106289894.049    20226293.668    82823334.7844   20226293.680  
                
  23116919.906   123486475.903                    96045043.146    23116923.512  
  23116919.496  
  23362222.461   122769339.682    23362229.238    95664476.2784   23362229.098  
                
  24165905.977   126992702.508    24165912.727    98955385.5904   24165912.863  
                
  22309911.625   119091867.129                    92627001.223    22309913.688  
  22309909.941  
  20776407.305   111217744.067                    86502705.103    20776411.309  
  20776406.090  
  21145569.047   111120765.068    21145577.730    86587669.9984   21145577.777  
                
  23972274.500   125975141.833    23972280.242    98162483.3704                 
                
  22479501.086   120250172.342                                                  
  22479498.996  
  19930849.461   106429606.821                    82778659.743    19930851.562  
  19930847.797  
  23505958.102   125652807.412                    97729945.128    23505961.031  
  23505957.758  
 21  8 15 21 30 20.0000000  0 16G17G15R14R 4G13G14R12G 7G 5R22R 3G30
                                G19R23R13R 5
  21992943.055   115573714.072    21992949.812    90057469.1234   21992949.660  
                
  22073615.555   115997638.222    22073622.207    90387803.3434   22073621.898  
                
  20667848.438   110171288.455                    85688773.874    20667852.414  
  20667847.965  
  20409189.648   109290308.179                    85003573.662    20409192.082  
  20409189.121  
  20508021.688   107770428.849    20508027.523    83976970.2304                 
                
  20227040.484   106293851.140    20227046.664    82826418.2314   20227046.684  
                
  23122769.672   123517724.346                    96069347.490    23122773.312  
  23122769.262  
  23367180.609   122795395.062    23367187.332    95684779.1564   23367187.227  
                
  24170951.133   127019214.671    24170957.840    98976044.4224   24170957.973  
                
  22310992.578   119097637.192                    92631489.049    22310994.617  
  22310990.930  
  20782432.641   111249998.159                    86527791.625    20782436.633  
  20782431.426  
  21148414.781   111135719.508    21148423.441    86599322.8074   21148423.508  
                
  23965008.117   125936956.624    23965013.730    98132728.6734                 
                
  22472974.961   120215261.860                                                  
  22472972.887  
  19933287.680   106442626.815                    82788786.396    19933289.785  
  19933286.016  
  23498939.523   125615288.973                    97700764.115    23498942.398  
  23498939.211  
 21  8 15 21 30 30.0000000  0 16G17G15R14R 4G13G14R12G 7G 5R22R 3G30
                                G19R23R13R 5
  21988138.219   115548464.566    21988145.004    90037794.2124   21988144.848  
                
  22069784.812   115977507.525    22069791.449    90372117.0844   22069791.129  
                
  20664336.320   110152566.928                    85674212.711    20664340.293  
  20664335.836  
  20407913.836   109283476.300                    84998259.989    20407916.289  
  20407913.297  
  20506506.344   107762465.650    20506512.164    83970765.1374                 
                
  20227802.773   106297857.003    20227808.938    82829539.6824   20227808.953  
                
  23128619.750   123548974.431                    96093653.113    23128623.438  
  23128619.336  
  23372142.531   122821469.992    23372149.156    95705097.2864   23372149.082  
                
  24176001.148   127045752.416    24176007.816    98996723.1744   24176007.926  
                
  22312090.328   119103497.149                    92636046.783    22312092.344  
  22312088.684  
  20788469.508   111282314.076                    86552926.234    20788473.508  
  20788468.273  
  21151266.844   111150707.232    21151275.461    86611001.5494   21151275.559  
                
  23957743.211   125898779.051    23957748.684    98102979.9194                 
                
  22466456.867   120180394.270                                                  
  22466454.797  
  19935731.898   106455678.819                    82798937.960    19935734.020  
  19935730.230  
  23491928.797   125577812.508                    97671615.759    23491931.609  
  23491928.523  
 21  8 15 21 30 40.0000000  0 16G17G15R14R 4G13G14R12G 7G 5R22R 3G30
                                G19R23R13R 5
  21983341.562   115523257.979    21983348.344    90018152.7194   21983348.199  
                
  22065964.633   115957432.367    22065971.258    90356474.1054   22065970.926  
                
  20660830.086   110133876.726                    85659675.876    20660834.055  
  20660829.609  
  20406655.219   109276736.457                    84993017.879    20406657.680  
  20406654.672  
  20505002.766   107754564.281    20505008.578    83964608.2274                 
                
  20228574.359   106301911.723    20228580.496    82832699.2064   20228580.523  
                
  23134470.125   123580226.191                    96117960.016    23134473.836  
  23134469.684  
  23377108.188   122847564.614    23377114.742    95725430.7724   23377114.707  
                
  24181055.961   127072315.551    24181062.613    99017421.7214   24181062.707  
                
  22313204.984   119109447.431                    92640674.788    22313207.082  
  22313203.348  
  20794517.875   111314691.457                    86578108.633    20794521.898  
  20794516.641  
  21154125.266   111165728.349    21154133.848    86622706.3104   21154133.973  
                
  23950479.852   125860609.310    23950485.152    98073237.2704                 
                
  22459946.906   120145569.894                                                  
  22459944.805  
  19938182.109   106468762.802                    82809114.383    19938184.250  
  19938180.430  
  23484926.016   125540378.557                    97642500.481    23484928.801  
  23484925.738  
 21  8 15 21 30 50.0000000  0 16G17G15R14R 4G13G14R12G 7G 5R22R 3G30
                                G19R23R13R 5
  21978553.047   115498094.224    21978559.793    89998544.5874   21978559.664  
                
  22062154.984   115937412.517    22062161.590    90340874.2234   22062161.281  
                
  20657329.703   110115217.777                    85645163.358    20657333.664  
  20657329.238  
  20405413.734   109270088.349                    84987847.129    20405416.203  
  20405413.176  
  20503510.906   107746724.534    20503516.715    83958499.3314                 
                
  20229355.188   106306015.012    20229361.297    82835896.5754   20229361.336  
                
  23140320.797   123611479.323                    96142268.015    23140324.480  
  23140320.340  
  23382077.539   122873678.689    23382084.113    95745779.3924   23382084.055  
                
  24186115.539   127098903.760    24186122.172    99038139.8034   24186122.270  
                
  22314336.500   119115487.526                    92645372.626    22314338.637  
  22314334.840  
  20800577.703   111347130.178                    86603338.743    20800581.730  
  20800576.473  
  21156989.984   111180782.602    21156998.539    86634436.8944   21156998.676  
                
  23943217.898   125822447.304    23943223.125    98043500.6534                 
                
  22453444.938   120110788.478                                                  
  22453442.836  
  19940638.188   106481878.197                    82819315.244    19940640.316  
  19940636.492  
  23477931.164   125502986.887                    97613418.081    23477933.898  
  23477930.848  
 21  8 15 21 31  0.0000000  0 16G17G15R14R 4G13G14R12G 7G 5R22R 3G30
                                G19R23R13R 5
  21973772.742   115472973.630    21973779.473    89978970.1114   21973779.348  
                
  22058355.914   115917448.276    22058362.492    90325317.6714   22058362.211  
                
  20653835.211   110096590.162                    85630675.242    20653839.156  
  20653834.734  
  20404189.430   109263532.263                    84982747.954    20404191.914  
  20404188.879  
  20502030.820   107738946.649    20502036.617    83952438.6424                 
                
  20230145.281   106310166.994    20230151.355    82839131.8964   20230151.426  
                
  23146171.727   123642733.945                    96166577.157    23146175.410  
  23146171.242  
  23387050.602   122899812.370    23387057.230    95766143.2844   23387057.152  
                
  24191179.859   127125517.141    24191186.520    99058877.4914   24191186.617  
                
  22315484.906   119121617.552                    92650140.457    22315487.020  
  22315483.188  
  20806648.945   111379630.010                    86628616.389    20806652.984  
  20806647.703  
  21159861.055   111195870.164    21159869.586    86646193.4364   21159869.727  
                
  23935957.438   125784293.295    23935962.656    98013770.2584                 
                
  22446951.008   120076050.490                                                  
  22446948.977  
  19943100.195   106495025.122                    82829540.629    19943102.328  
  19943098.496  
  23470944.266   125465637.871                    97584368.848    23470946.977  
  23470943.922  
 21  8 15 21 31 10.0000000  0 16G17G15R14R 4G13G14R12G 7G 5R22R 3G30
                                G19R23R13R 5
  21969000.680   115447896.311    21969007.391    89959429.3494   21969007.273  
                
  22054567.461   115897539.810    22054574.000    90309804.5814   22054573.750  
                
  20650346.578   110077993.846                    85616211.448    20650350.496  
  20650346.098  
  20402982.328   109257068.285                    84977720.408    20402984.809  
  20402981.770  
  20500562.516   107731230.622    20500568.297    83946426.1514                 
                
  20230944.641   106314367.642    20230950.688    82842405.1324   20230950.777  
                
  23152022.961   123673990.174                    96190887.534    23152026.641  
  23152022.484  
  23392027.422   122925965.611    23392034.105    95786522.4034   23392033.992  
                
  24196248.961   127152155.528    24196255.633    99079634.6734   24196255.715  
                
  22316650.125   119127837.630                    92654978.281    22316652.258  
  22316648.430  
  20812731.617   111412191.076                    86653941.657    20812735.711  
  20812730.363  
  21162738.461   111210991.022    21162746.973    86657975.9184   21162747.137  
                
  23928698.523   125746147.401    23928703.723    97984046.1894                 
                
  22440465.219   120041355.985                                                  
  22440463.234  
  19945568.164   106508203.957                    82839790.840    19945570.305  
  19945566.449  
  23463965.375   125428331.695                    97555352.932    23463968.102  
  23463964.941  
 21  8 15 21 31 20.0000000  0 16G17G15R14R 4G13G14R12G 7G 5R22R 3G30
                                G19R23R13R 5
  21964236.844   115422862.250    21964243.559    89939922.3034   21964243.418  
                
  22050789.594   115877687.026    22050796.102    90294334.8834   22050795.871  
                
  20646863.820   110059428.803                    85601771.964    20646867.730  
  20646863.344  
  20401792.406   109250696.324                    84972764.446    20401794.895  
  20401791.852  
  20499105.977   107723576.497    20499111.746    83940461.8984                 
                
  20231753.227   106318616.807    20231759.250    82845716.1774   20231759.352  
                
  23157874.430   123705247.699                    96215198.932    23157878.133  
  23157873.984  
  23397008.016   122952138.381    23397014.688    95806916.7684   23397014.531  
                
  24201322.773   127178818.681    24201329.465    99100411.1484   24201329.531  
                
  22317832.227   119134147.585                    92659886.034    22317834.297  
  22317830.508  
  20818825.641   111444812.956                    86679314.219    20818829.770  
  20818824.402  
  21165622.180   111226145.101    21165630.676    86669784.2914   21165630.840  
                
  23921441.203   125708009.620    23921446.328    97954328.4404                 
                
  22433987.648   120006705.346                                                  
  22433985.699  
  19948042.023   106521414.283                    82850065.534    19948044.176  
  19948040.285  
  23456994.469   125391068.295                    97526370.308    23456997.258  
  23456993.938  
 21  8 15 21 31 30.0000000  0 16G17G15R14R 4G13G14R12G 7G 5R22R 3G30
                                G19R23R13R 5
  21959481.266   115397871.607    21959487.969    89920449.0654   21959487.820  
                
  22047022.344   115857890.050    22047028.840    90278908.6754   22047028.617  
                
  20643386.922   110040894.984                    85587356.784    20643390.828  
  20643386.426  
  20400619.680   109244416.433                    84967880.070    20400622.168  
  20400619.129  
  20497661.242   107715984.367    20497666.988    83934545.9494                 
                
  20232571.039   106322914.479    20232577.055    82849065.0114   20232577.164  
                
  23163726.219   123736506.778                    96239511.548    23163729.930  
  23163725.750  
  23401992.297   122978330.608    23401998.965    95827326.2914   23401998.773  
                
  24206401.320   127205506.507    24206407.949    99121206.8694   24206408.047  
                
  22319031.148   119140547.459                    92664863.697    22319033.223  
  22319029.418  
  20824931.008   111477495.555                    86704734.010    20824935.145  
  20824929.766  
  21168512.219   111241332.370    21168520.695    86681618.5214   21168520.867  
                
  23914185.391   125669880.071    23914190.516    97924617.1164                 
                
  22427518.219   119972098.520                                                  
  22427516.332  
  19950521.820   106534656.287                    82860364.870    19950523.977  
  19950520.078  
  23450031.578   125353847.959                    97497421.186    23450034.449  
  23450031.027  
 21  8 15 21 31 40.0000000  0 16G17G15R14R 4G13G14R12G 7G 5R22R 3G30
                                G19R23R13R 5
  21954733.992   115372924.549    21954740.699    89901009.8114   21954740.555  
                
  22043265.773   115838149.149    22043272.266    90263526.1544   22043272.055  
                
  20639915.930   110022392.696                    85572966.114    20639919.828  
  20639915.438  
  20399464.195   109238228.867                    84963067.515    20399466.699  
  20399463.645  
  20496228.344   107708454.452    20496234.066    83928678.4814                 
                
  20233398.117   106327260.826    20233404.133    82852451.7744   20233404.238  
                
  23169578.211   123767767.344                    96263825.310    23169581.988  
  23169577.777  
  23406980.281   123004542.467    23406986.988    95847751.1064   23406986.766  
                
  24211484.586   127232219.109    24211491.176    99142021.8934   24211491.262  
                
  22320246.828   119147037.253                    92669911.341    22320248.949  
  22320245.172  
  20831047.773   111510239.016                    86730201.154    20831051.914  
  20831046.531  
  21171408.625   111256553.061    21171417.066    86693478.7984   21171417.242  
                
  23906931.156   125631759.071    23906936.348    97894912.4474                 
                
  22421056.992   119937535.846                                                  
  22421055.195  
  19953007.539   106547929.957                    82870688.836    19953009.711  
  19953005.805  
  23443076.812   125316671.009                    97468505.772    23443079.762  
  23443076.250  
 21  8 15 21 31 50.0000000  0 16G17G15R14R 4G13G14R12G 7G 5R22R 3G30
                                G19R23R13R 5
  21949995.008   115348021.068    21950001.734    89881604.5094   21950001.598  
                
  22039519.859   115818464.252    22039526.340    90248187.2864   22039526.152  
                
  20636450.812   110003921.646                    85558599.746    20636454.688  
  20636450.340  
  20398325.914   109232133.408                    84958326.616    20398328.418  
  20398325.367  
  20494807.266   107700986.638    20494812.961    83922859.4024                 
                
  20234234.422   106331655.628    20234240.449    82855876.2934   20234240.551  
                
  23175430.492   123799029.365                    96288140.216    23175434.301  
  23175430.062  
  23411972.031   123030773.858    23411978.691    95868191.1444   23411978.449  
                
  24216572.523   127258956.277    24216579.082    99162856.0454   24216579.152  
                
  22321479.375   119153616.995                    92675028.925    22321481.480  
  22321477.730  
  20837175.828   111543042.957                    86755715.319    20837179.969  
  20837174.590  
  21174311.367   111271807.006    21174319.777    86705364.9894   21174319.965  
                
  23899678.562   125593646.601    23899683.805    97865214.4314                 
                
  22414604.062   119903017.460                                                  
  22414602.340  
  19955499.164   106561235.005                    82881037.209    19955501.324  
  19955497.441  
  23436130.117   125279537.411                    97439624.113    23436133.199  
  23436129.555  
 21  8 15 21 32  0.0000000  0 16G17G15R14R 4G13G14R12G 7G 5R22R 3G30
                                G19R23R13R 5
  21945264.289   115323161.037    21945271.020    89862233.0614   21945270.887  
                
  22035784.617   115798835.436    22035791.074    90232892.1044   22035790.887  
                
  20632991.562   109985481.934                    85544257.750    20632995.430  
  20632991.086  
  20397204.867   109226130.247                    84953657.482    20397207.352  
  20397204.316  
  20493398.008   107693580.903    20493403.691    83917088.6994                 
                
  20235079.930   106336098.816    20235085.969    82859338.5174   20235086.059  
                
  23181283.039   123830292.710                    96312456.164    23181286.828  
  23181282.617  
  23416967.469   123057024.697    23416974.035    95888646.3504   23416973.789  
                
  24221665.047   127285717.911    24221671.633    99183709.2724   24221671.711  
                
  22322728.805   119160286.553                    92680216.343    22322730.926  
  22322727.086  
  20843315.133   111575907.132                    86781276.345    20843319.277  
  20843313.906  
  21177220.422   111287094.163    21177228.785    86717277.0554   21177228.996  
                
  23892427.570   125555542.760    23892432.898    97835523.1294                 
                
  22408159.492   119868543.479                                                  
  22408157.789  
  19957996.703   106574571.713                    82891410.192    19957998.867  
  19957995.004  
  23429191.609   125242447.332                    97410776.270    23429194.773  
  23429190.984  
 21  8 15 21 32 10.0000000  0 16G17G15R14R 4G13G14R12G 7G 5R22R 3G30
                                G19R23R13R 5
  21940541.883   115298344.683    21940548.602    89842895.6504   21940548.488  
                
  22032060.031   115779262.623    22032066.469    90217640.5624   22032066.266  
                
  20629538.148   109967073.371                    85529939.997    20629542.031  
  20629537.676  
  20396101.031   109220219.238                    84949060.030    20396103.531  
  20396100.477  
  20492000.570   107686237.334    20492006.242    83911366.4344                 
                
  20235934.633   106340590.330    20235940.680    82862838.4024   20235940.762  
                
  23187135.859   123861557.385                    96336773.166    23187139.594  
  23187135.457  
  23421966.555   123083294.910    23421973.082    95909116.6574   23421972.812  
                
  24226762.195   127312503.909    24226768.801    99204581.4634   24226768.914  
                
  22323994.922   119167045.811                    92685473.546    22323997.141  
  22323993.211  
  20849465.680   111608831.470                    86806884.153    20849469.832  
  20849464.469  
  21180135.789   111302414.498    21180144.109    86729214.9874   21180144.336  
                
  23885178.289   125517447.586    23885183.605    97805838.5904                 
                
  22401723.266   119834114.060                                                  
  22401721.594  
  19960500.117   106587939.790                    82901807.591    19960502.277  
  19960498.426  
  23422261.219   125205400.842                    97381962.355    23422264.484  
  23422260.645  
 21  8 15 21 32 20.0000000  0 16G17G15R14R 4G13G14R12G 7G 5R22R 3G30
                                G19R23R13R 5
  21935827.867   115273572.446    21935834.594    89823592.6124   21935834.492  
                
  22028346.164   115759746.135    22028352.578    90202432.9114   22028352.383  
                
  20626090.680   109948696.394                    85515646.791    20626094.555  
  20626090.223  
  20395014.461   109214400.685                    84944534.473    20395016.961  
  20395013.906  
  20490615.016   107678956.211    20490620.672    83905692.8274                 
                
  20236798.570   106345130.361    20236804.617    82866376.0904   20236804.695  
                
  23192988.977   123892823.701                    96361091.373    23192992.707  
  23192988.598  
  23426969.359   123109584.837    23426975.855    95929602.2864   23426975.598  
                
  24231864.047   127339314.280    24231870.590    99225472.6514   24231870.738  
                
  22325277.992   119173895.143                    92690800.801    22325280.188  
  22325276.293  
  20855627.461   111641815.941                    86832538.733    20855631.602  
  20855626.246  
  21183057.523   111317768.254    21183065.801    86741178.9484   21183066.055  
                
  23877930.797   125479361.475    23877936.027    97776161.1154                 
                
  22395295.469   119799729.633                                                  
  22395293.797  
  19963009.438   106601339.400                    82912229.503    19963011.582  
  19963007.738  
  23415339.062   125168398.263                    97353182.609    23415342.418  
  23415338.434  
 21  8 15 21 32 30.0000000  0 16G17G15R14R 4G13G14R12G 7G 5R22R 3G30
                                G19R23R13R 5
  21931122.203   115248844.123    21931128.930    89804323.8014   21931128.844  
                
  22024643.008   115740285.936    22024649.402    90187269.1254   22024649.199  
                
  20622649.070   109930350.723                    85501377.921    20622652.949  
  20622648.645  
  20393945.102   109208674.346                    84940080.656    20393947.598  
  20393944.555  
  20489241.297   107671737.272    20489246.945    83900067.6764                 
                
  20237671.688   106349718.657    20237677.719    82869951.3924   20237677.812  
                
  23198842.383   123924091.241                    96385410.537    23198846.062  
  23198841.992  
  23431975.867   123135894.179    23431982.293    95950103.0694   23431982.059  
                
  24236970.422   127366148.525    24236976.926    99246382.4734   24236977.125  
                
  22326577.906   119180834.158                    92696197.828    22326580.012  
  22326576.180  
  20861800.430   111674860.297                    86858239.905    20861804.551  
  20861799.211  
  21185985.570   111333155.217    21185993.812    86753168.7894   21185994.066  
                
  23870684.992   125441284.288    23870690.121    97746490.5744                 
                
  22388876.086   119765390.081                                                  
  22388874.383  
  19965524.586   106614770.210                    82922675.700    19965526.738  
  19965522.898  
  23408425.102   125131439.718                    97324437.084    23408428.555  
  23408424.422  
 21  8 15 21 32 40.0000000  0 16G17G15R14R 4G13G14R12G 7G 5R22R 3G30
                                G19R23R13R 5
  21926424.906   115224159.653    21926431.578    89785089.1544   21926431.496  
                
  22020950.547   115720881.934    22020956.902    90172149.1244   22020956.723  
                
  20619213.305   109912036.171                    85487133.282    20619217.203  
  20619212.848  
  20392892.984   109203040.290                    84935698.623    20392895.492  
  20392892.453  
  20487879.391   107664580.442    20487885.035    83894490.9254                 
                
  20238553.961   106354355.049    20238559.973    82873564.1744   20238560.078  
                
  23204695.969   123955359.870                    96409730.596    23204699.641  
  23204695.555  
  23436986.039   123162222.821    23436992.426    95970618.9054   23436992.207  
                
  24242081.398   127393006.594    24242087.840    99267310.8204   24242088.031  
                
  22327894.648   119187862.817                    92701664.532    22327896.648  
  22327892.883  
  20867984.484   111707964.016                    86883987.247    20867988.594  
  20867983.246  
  21188919.914   111348575.248    21188928.141    86765184.4034   21188928.402  
                
  23863440.891   125403216.005    23863445.902    97716826.9784                 
                
  22382465.086   119731095.518                                                  
  22382463.375  
  19968045.617   106628232.360                    82933146.246    19968047.781  
  19968043.934  
  23401519.383   125094525.106                    97295725.733    23401522.934  
  23401518.633  
 21  8 15 21 32 50.0000000  0 16G17G15R14R 4G13G14R12G 7G 5R22R 3G30
                                G19R23R13R 5
  21921735.992   115199519.290    21921742.566    89765888.8674   21921742.527  
                
  22017268.828   115701534.384    22017275.152    90157073.1064   22017274.973  
                
  20615783.406   109893752.938                    85472912.993    20615787.332  
  20615782.938  
  20391858.125   109197498.673                    84931388.487    20391860.656  
  20391857.590  
  20486529.359   107657485.980    20486535.008    83888962.7684                 
                
  20239445.414   106359039.664    20239451.406    82877214.5204   20239451.523  
                
  23210549.766   123986629.802                    96434051.623    23210553.461  
  23210549.352  
  23441999.875   123188570.906    23442006.266    95991149.8544   23442006.055  
                
  24247196.836   127419888.499    24247203.277    99288257.7664   24247203.500  
                
  22329228.195   119194981.253                    92707201.125    22329230.203  
  22329226.441  
  20874179.688   111741127.529                    86909781.066    20874183.801  
  20874178.445  
  21191860.586   111364028.517    21191868.797    86777225.9064   21191869.047  
                
  23856198.484   125365156.860    23856203.449    97687170.5154                 
                
  22376062.555   119696846.275                                                  
  22376060.828  
  19970572.508   106641725.748                    82943641.102    19970574.668  
  19970570.832  
  23394621.953   125057654.815                    97267048.823    23394625.547  
  23394621.160  
 21  8 15 21 33  0.0000000  0 16G17G15R14R 4G13G14R12G 7G 5R22R 3G30
                                G19R23R13R 5
  21917055.453   115174922.931    21917061.957    89746722.8794   21917061.953  
                
  22013597.883   115682243.387    22013604.176    90142041.1534   22013603.980  
                
  20612359.383   109875500.957                    85458717.002    20612363.324  
  20612358.898  
  20390840.531   109192049.509                    84927150.239    20390843.059  
  20390839.977  
  20485191.211   107650453.970    20485196.875    83883483.2874                 
                
  20240346.039   106363772.481    20240352.020    82880902.4324   20240352.152  
                
  23216403.820   124017901.065                    96458373.715    23216407.539  
  23216403.410  
  23447017.461   123214938.384    23447023.809    96011695.9444   23447023.613  
                
  24252316.797   127446794.192    24252323.230    99309223.2444   24252323.469  
                
  22330578.516   119202189.335                    92712807.409    22330580.508  
  22330576.789  
  20880386.031   111774350.421                    86935621.097    20880390.113  
  20880384.816  
  21194807.586   111379515.027    21194815.789    86789293.3164   21194816.051  
                
  23848957.852   125327107.037    23848962.781    97657521.3204                 
                
  22369668.516   119662642.540                                                  
  22369666.773  
  19973105.242   106655250.398                    82954160.274    19973107.418  
  19973103.551  
  23387732.844   125020829.013                    97238406.539    23387736.508  
  23387732.008  
 21  8 15 21 33 10.0000000  0 16G17G15R14R 4G13G14R12G 7G 5R22R 3G30
                                G19R23R13R 5
  21912383.383   115150371.043    21912389.887    89727591.5454   21912389.887  
                
  22009937.719   115663009.069    22009944.000    90127053.3704   22009943.785  
                
  20608941.250   109857280.450                    85444545.524    20608945.223  
  20608940.750  
  20389840.227   109186692.910                    84922983.975    20389842.754  
  20389839.660  
  20483864.961   107643484.478    20483870.633    83878052.5094                 
                
  20241255.828   106368553.494    20241261.805    82884627.8984   20241261.945  
                
  23222258.109   124049173.648                    96482696.831    23222261.852  
  23222257.688  
  23452038.766   123241325.325    23452045.090    96032257.1854   23452044.871  
                
  24257441.242   127473723.598    24257447.711    99330207.1944   24257447.969  
                
  22331945.727   119209487.216                    92718483.524    22331947.652  
  22331943.949  
  20886603.422   111807632.574                    86961507.221    20886607.496  
  20886602.230  
  21197760.914   111395034.839    21197769.113    86801386.6684   21197769.375  
                
  23841718.984   125289066.575    23841723.895    97627879.4234                 
                
  22363283.180   119628484.556                                                  
  22363281.309  
  19975643.820   106668806.273                    82964703.739    19975646.004  
  19975642.117  
  23380852.078   124984047.783                    97209798.912    23380855.824  
  23380851.203  
 21  8 15 21 33 20.0000000  0 16G17G15R14R 4G13G14R12G 7G 5R22R 3G30
                                G19R23R13R 5
  21907719.727   115125863.363    21907726.262    89708494.6624   21907726.219  
                
  22006288.281   115643831.172    22006294.547    90112109.5594   22006294.316  
                
  20605528.953   109839091.036                    85430398.206    20605532.938  
  20605528.477  
  20388857.148   109181428.539                    84918889.473    20388859.672  
  20388856.602  
  20482550.570   107636577.283    20482556.258    83872670.2764                 
                
  20242174.734   106373382.387    20242180.711    82888390.6744   20242180.859  
                
  23228112.562   124080447.163                    96507020.668    23228116.324  
  23228112.117  
  23457063.711   123267731.446    23457070.000    96052833.3694   23457069.785  
                
  24262570.188   127500676.321    24262576.668    99351209.3074   24262576.938  
                
  22333329.555   119216874.665                    92724229.327    22333331.566  
  22333327.871  
  20892831.844   111840973.772                    86987439.248    20892835.922  
  20892830.645  
  21200720.523   111410587.642    21200728.719    86813505.7434   21200728.961  
                
  23834481.898   125251035.388    23834486.766    97598244.7424                 
                
  22356906.219   119594372.125                                                  
  22356904.336  
  19978188.172   106682393.000                    82975271.190    19978190.371  
  19978186.477  
  23373979.680   124947311.139                    97181225.978    23373983.500  
  23373978.711  
 21  8 15 21 33 30.0000000  0 16G17G15R14R 4G13G14R12G 7G 5R22R 3G30
                                G19R23R13R 5
  21903064.570   115101400.296    21903071.113    89689432.5404   21903071.043  
                
  22002649.695   115624710.259    22002655.922    90097210.1424   22002655.707  
                
  20602122.609   109820933.278                    85416275.512    20602126.590  
  20602122.148  
  20387891.414   109176257.040                    84914867.187    20387893.930  
  20387890.887  
  20481248.141   107629732.944    20481253.844    83867337.0254                 
                
  20243102.836   106378259.570    20243108.828    82892191.0814   20243108.969  
                
  23233967.273   124111722.213                    96531345.711    23233971.086  
  23233966.820  
  23462092.367   123294156.965    23462098.582    96073424.6884   23462098.375  
                
  24267703.680   127527652.671    24267710.156    99372229.8384   24267710.410  
                
  22334730.336   119224351.981                    92730045.015    22334732.359  
  22334728.629  
  20899071.336   111874374.204                    87013417.360    20899075.438  
  20899070.145  
  21203686.500   111426173.895    21203694.688    86825650.8664   21203694.934  
                
  23827246.711   125213014.106    23827251.531    97568617.7734                 
                
  22350537.859   119560305.966                                                  
  22350536.004  
  19980738.391   106696011.059                    82985863.008    19980740.582  
  19980736.695  
  23367115.703   124910619.683                    97152688.170    23367119.602  
  23367114.711  
 21  8 15 21 33 40.0000000  0 16G17G15R14R 4G13G14R12G 7G 5R22R 3G30
                                G19R23R13R 5
  21898417.883   115076981.730    21898424.410    89670405.0854   21898424.324  
                
  21999021.922   115605646.151    21999028.141    90082354.9874   21999027.934  
                
  20598722.117   109802806.736                    85402177.090    20598726.117  
  20598721.664  
  20386942.945   109171177.976                    84910916.795    20386945.457  
  20386942.438  
  20479957.641   107622951.301    20479963.359    83862052.6294                 
                
  20244040.062   106383184.738    20244046.078    82896028.8764   20244046.211  
                
  23239822.266   124142998.359                    96555671.596    23239826.043  
  23239821.777  
  23467124.719   123320601.878    23467130.828    96094031.1194   23467130.633  
                
  24272841.484   127554652.190    24272848.031    99393268.4194   24272848.246  
                
  22336147.891   119231918.755                    92735930.286    22336149.945  
  22336146.176  
  20905321.797   111907833.363                    87039441.142    20905325.895  
  20905320.613  
  21206658.781   111441793.316    21206666.980    86837821.8524   21206667.227  
                
  23820013.422   125175002.494    23820018.148    97538998.3374                 
                
  22344178.016   119526285.923                                                  
  22344176.277  
  19983294.492   106709660.409                    82996479.173    19983296.664  
  19983292.785  
  23360260.164   124873973.177                    97124185.325    23360264.148  
  23360259.199  
 21  8 15 21 33 50.0000000  0 16G17G15R14R 4G13G14R12G 7G 5R22R 3G30
                                G19R23R13R 5
  21893779.688   115052607.847    21893786.191    89651412.4564   21893786.117  
                
  21995404.977   115586638.979    21995411.211    90067544.2164   21995410.965  
                
  20595327.500   109784711.560                    85388103.082    20595331.512  
  20595327.055  
  20386011.766   109166191.510                    84907038.446    20386014.281  
  20386011.262  
  20478679.055   107616232.312    20478684.805    83856817.0524                 
                
  20244986.414   106388157.869    20244992.453    82899904.0434   20244992.574  
                
  23245677.453   124174275.616                    96579998.342    23245681.227  
  23245676.930  
  23472160.758   123347066.192    23472166.816    96114652.6744   23472166.598  
                
  24277983.695   127581674.882    24277990.281    99414325.0644   24277990.492  
                
  22337582.203   119239575.075                    92741885.213    22337584.180  
  22337580.504  
  20911583.211   111941351.244                    87065510.595    20911587.344  
  20911582.031  
  21209637.383   111457445.949    21209645.590    86850018.7044   21209645.852  
                
  23812781.922   125137000.670    23812786.637    97509386.5414                 
                
  22337826.891   119492312.226                                                  
  22337825.223  
  19985856.344   106723340.564                    83007119.289    19985858.543  
  19985854.641  
  23353413.102   124837371.941                    97095717.706    23353417.168  
  23353412.230  
 21  8 15 21 34  0.0000000  0 16G17G15R14R 4G13G14R12G 7G 5R22R 3G30
                                G19R23R13R 5
  21889149.961   115028278.451    21889156.430    89632454.4914   21889156.367  
                
  21991798.852   115567688.672    21991805.078    90052777.7424   21991804.820  
                
  20591938.766   109766647.693                    85374053.401    20591942.766  
  20591938.344  
  20385097.883   109161297.687                    84903232.138    20385100.406  
  20385097.371  
  20477412.375   107609575.838    20477418.152    83851630.1864                 
                
  20245941.859   106393178.807    20245947.922    82903816.4644   20245948.035  
                
  23251532.859   124205553.931                    96604325.905    23251536.637  
  23251532.336  
  23477200.438   123373549.784    23477206.457    96135289.2354   23477206.223  
                
  24283130.273   127608720.585    24283136.906    99435399.6024   24283137.113  
                
  22339033.234   119247320.920                    92747909.765    22339035.285  
  22339031.535  
  20917855.547   111974927.586                    87091625.514    20917859.699  
  20917854.352  
  21212622.281   111473131.650    21212630.508    86862241.3324   21212630.758  
                
  23805552.266   125099008.667    23805557.016    97479782.3974                 
                
  22331484.414   119458384.929                                                  
  22331482.805  
  19988423.953   106737051.463                    83017783.332    19988426.145  
  19988422.262  
  23346574.508   124800815.848                    97067285.178    23346578.570  
  23346573.727  
 21  8 15 21 34 10.0000000  0 16G17G15R14R 4G13G14R12G 7G 5R22R 3G30
                                G19R23R13R 5
  21884528.805   115003994.076    21884535.246    89613531.6014   21884535.191  
                
  21988203.609   115548795.499    21988209.840    90038055.7924   21988209.582  
                
  20588555.922   109748615.270                    85360028.198    20588559.918  
  20588555.508  
  20384201.281   109156496.401                    84899497.807    20384203.820  
  20384200.766  
  20476157.641   107602982.157    20476163.449    83846492.2544                 
                
  20246906.445   106398247.725    20246912.527    82907766.2684   20246912.625  
                
  23257388.531   124236833.499                    96628654.462    23257392.281  
  23257388.008  
  23482243.773   123400052.767    23482249.754    96155940.9164   23482249.547  
                
  24288281.328   127635789.248    24288287.941    99456492.0834   24288288.133  
                
  22340501.078   119255156.252                    92754003.931    22340503.082  
  22340499.352  
  20924138.797   112008562.249                    87117785.812    20924142.949  
  20924137.586  
  21215613.508   111488850.665    21215621.758    86874489.9114   21215622.004  
                
  23798324.484   125061026.870    23798329.336    97450186.2104                 
                
  22325150.648   119424504.359                                                  
  22325149.152  
  19990997.461   106750793.820                    83028471.816    19990999.648  
  19990995.793  
  23339744.531   124764305.384                    97038888.124    23339748.523  
  23339743.812  
 21  8 15 21 34 20.0000000  0 16G17G15R14R 4G13G14R12G 7G 5R22R 3G30
                                G19R23R13R 5
  21879916.148   114979754.441    21879922.613    89594643.5844   21879922.551  
                
  21984619.227   115529959.408    21984625.457    90023378.3134   21984625.203  
                
  20585178.961   109730614.209                    85346027.385    20585182.973  
  20585178.543  
  20383322.016   109151787.958                    84895835.677    20383324.547  
  20383321.523  
  20474914.836   107596451.201    20474920.664    83841403.2024                 
                
  20247880.117   106403364.425    20247886.207    82911753.3134   20247886.305  
                
  23263244.336   124268114.074                    96652983.771    23263248.062  
  23263243.828  
  23487290.773   123426575.002    23487296.719    96176607.5924   23487296.523  
                
  24293436.617   127662880.612    24293443.285    99477602.2174   24293443.457  
                
  22341985.664   119263081.018                    92760167.631    22341987.602  
  22341984.004  
  20930432.922   112042255.192                    87143991.438    20930437.082  
  20930431.723  
  21218611.047   111504602.810    21218619.324    86886764.3024   21218619.562  
                
  23791098.688   125023055.202    23791103.562    97420597.9064                 
                
  22318825.594   119390670.669                                                  
  22318824.207  
  19993576.742   106764567.034                    83039184.319    19993578.934  
  19993575.094  
  23332923.062   124727840.548                    97010526.588    23332927.043  
  23332922.355  
 21  8 15 21 34 30.0000000  0 16G17G15R14R 4G13G14R12G 7G 5R22R 3G30
                                G19R23R13R 5
  21875312.094   114955559.915    21875318.613    89575790.7214   21875318.535  
                
  21981045.750   115511180.580    21981051.980    90008745.4634   21981051.727  
                
  20581807.883   109712644.459                    85332050.917    20581811.902  
  20581807.477  
  20382460.078   109147172.261                    84892245.693    20382462.629  
  20382459.594  
  20473684.016   107589983.160    20473689.859    83836363.1694                 
                
  20248862.914   106408529.012    20248869.000    82915777.6734   20248869.098  
                
  23269100.297   124299395.729                    96677313.918    23269104.020  
  23269099.844  
  23492341.492   123453116.618    23492347.434    96197289.3674   23492347.223  
                
  24298596.227   127689994.841    24298603.023    99498730.1834   24298603.176  
                
  22343486.977   119271095.310                    92766400.985    22343488.953  
  22343485.355  
  20936737.891   112076006.192                    87170242.210    20936742.074  
  20936736.699  
  21221614.914   111520388.233    21221623.227    86899064.6294   21221623.461  
                
  23783874.906   124985093.889    23783879.758    97391017.6684                 
                
  22312509.414   119356884.082                                                  
  22312508.062  
  19996161.805   106778371.051                    83049920.780    19996163.996  
  19996160.156  
  23326110.133   124691421.441                    96982200.624    23326114.090  
  23326109.484  
 21  8 15 21 34 40.0000000  0 16G17G15R14R 4G13G14R12G 7G 5R22R 3G30
                                G19R23R13R 5
  21870716.641   114931410.641    21870723.184    89556973.1044   21870723.098  
                
  21977483.141   115492458.922    21977489.355    89994157.1614   21977489.109  
                
  20578442.672   109694706.039                    85318098.824    20578446.699  
  20578442.262  
  20381615.438   109142649.216                    84888727.750    20381617.980  
  20381614.961  
  20472465.148   107583577.993    20472471.000    83831372.1194                 
                
  20249854.773   106413741.296    20249860.848    82919839.1944   20249860.957  
                
  23274956.500   124330678.415                    96701644.904    23274960.203  
  23274956.008  
  23497395.844   123479677.517    23497401.801    96217986.1554   23497401.613  
                
  24303760.109   127717131.564    24303767.043    99519875.6614   24303767.164  
                
  22345005.102   119279199.048                    92772703.900    22345007.051  
  22345003.465  
  20943053.641   112109814.917                    87196537.868    20943057.840  
  20943052.441  
  21224625.070   111536206.765    21224633.410    86911390.7494   21224633.652  
                
  23776653.133   124947142.899    23776657.910    97361445.4774                 
                
  22306202.234   119323144.622                                                  
  22306200.785  
  19998752.617   106792205.865                    83060681.198    19998754.785  
  19998750.992  
  23319305.828   124655048.428                    96953910.485    23319309.762  
  23319305.227  
 21  8 15 21 34 50.0000000  0 16G17G15R14R 4G13G14R12G 7G 5R22R 3G30
                                G19R23R13R 5
  21866129.789   114907306.586    21866136.340    89538190.7364   21866136.254  
                
  21973931.461   115473794.689    21973937.660    89979613.6024   21973937.426  
                
  20575083.344   109676798.924                    85304171.082    20575087.355  
  20575082.922  
  20380788.125   109138218.995                    84885282.017    20380790.664  
  20380787.629  
  20471258.242   107577235.665    20471264.102    83826430.0444                 
                
  20250855.711   106419001.254    20250861.777    82923937.8694   20250861.906  
                
  23280812.914   124361962.213                    96725976.685    23280816.605  
  23280812.395  
  23502453.852   123506257.581    23502459.785    96238697.8754   23502459.617  
                
  24308928.375   127744290.689    24308935.309    99541038.5934   24308935.414  
                
  22346539.945   119287392.222                    92779076.385    22346541.836  
  22346538.344  
  20949380.219   112143681.523                    87222878.549    20949384.398  
  20949379.023  
  21227641.539   111552058.428    21227649.914    86923742.6934   21227650.156  
                
  23769433.305   124909202.379    23769438.027    97331881.4414                 
                
  22299904.047   119289452.643                                                  
  22299902.453  
  20001349.188   106806071.372                    83071465.466    20001351.340  
  20001347.559  
  23312510.125   124618721.288                    96925656.049    23312514.016  
  23312509.531  
 21  8 15 21 35  0.0000000  0 16G17G15R14R 4G13G14R12G 7G 5R22R 3G30
                                G19R23R13R 5
  21861551.562   114883247.746    21861558.137    89519443.5954   21861558.043  
                
  21970390.695   115455187.798    21970396.898    89965114.7334   21970396.676  
                
  20571729.891   109658923.131                    85290267.697    20571733.891  
  20571729.473  
  20379978.133   109133881.461                    84881908.365    20379980.656  
  20379977.633  
  20470063.305   107570956.191    20470069.180    83821536.9514                 
                
  20251865.703   106424308.798    20251871.762    82928073.6244   20251871.895  
                
  23286669.586   124393246.934                    96750309.236    23286673.176  
  23286669.059  
  23507515.523   123532856.677    23507521.371    96259424.4544   23507521.250  
                
  24314100.781   127771472.081    24314107.797    99562218.9034   24314107.906  
                
  22348091.523   119295674.559                    92785518.199    22348093.391  
  22348089.867  
  20955717.570   112177605.747                    87249264.067    20955721.715  
  20955716.395  
  21230664.305   111567943.192    21230672.707    86936120.4244   21230672.945  
                
  23762215.430   124871272.327    23762220.145    97302325.5634                 
                
  22293614.461   119255808.096                                                  
  22293612.922  
  20003951.570   106819967.907                    83082273.883    20003953.730  
  20003949.953  
  23305723.094   124582440.429                    96897437.601    23305726.895  
  23305722.570  
 21  8 15 21 35 10.0000000  0 16G17G15R14R 4G13G14R12G 7G 5R22R 3G30
                                G19R23R13R 5
  21856981.961   114859234.315    21856988.539    89500731.8414   21856988.422  
                
  21966860.867   115436638.409    21966867.098    89950660.6674   21966866.863  
                
  20568382.320   109641078.751                    85276388.731    20568386.293  
  20568381.902  
  20379185.477   109129636.820                    84878606.981    20379187.984  
  20379184.973  
  20468880.352   107564739.751    20468886.246    83816692.9694                 
                
  20252884.766   106429664.036    20252890.828    82932246.5364   20252890.961  
                
  23292526.406   124424532.595                    96774642.549    23292529.918  
  23292525.898  
  23512580.875   123559475.096    23512586.645    96280166.0914   23512586.562  
                
  24319277.445   127798675.889    24319284.535    99583416.6784   24319284.656  
                
  22349659.812   119304046.328                    92792029.575    22349661.680  
  22349658.148  
  20962065.625   112211587.353                    87275694.207    20962069.758  
  20962064.453  
  21233693.391   111583861.174    21233701.824    86948524.0404   21233702.043  
                
  23754999.617   124833353.049    23755004.324    97272778.0844                 
                
  22287333.602   119222211.308                                                  
  22287332.246  
  20006559.695   106833895.164                    83093106.188    20006561.855  
  20006558.090  
  23298944.719   124546206.031                    96869255.295    23298948.484  
  23298944.277  
 21  8 15 21 35 20.0000000  0 16G17G15R14R 4G13G14R12G 7G 5R22R 3G30
                                G19R23R13R 5
  21852421.000   114835266.226    21852427.555    89482055.4214   21852427.441  
                
  21963341.977   115418146.526    21963348.238    89936251.4124   21963347.984  
                
  20565040.625   109623265.684                    85262534.152    20565044.598  
  20565040.211  
  20378410.156   109125485.056                    84875377.831    20378412.668  
  20378409.652  
  20467709.383   107558586.283    20467715.297    83811898.0604                 
                
  20253912.883   106435066.826    20253918.957    82936456.5044   20253919.086  
                
  23298383.375   124455819.233                    96798976.586    23298386.871  
  23298382.902  
  23517649.898   123586112.802    23517655.660    96300922.7314   23517655.539  
                
  24324458.336   127825901.847    24324465.504    99604631.7044   24324465.613  
                
  22351244.820   119312507.231                    92798610.267    22351246.617  
  22351243.191  
  20968424.375   112245626.291                    87302168.936    20968428.516  
  20968423.230  
  21236728.758   111599812.184    21236737.230    86960953.3934   21236737.445  
                
  23747785.906   124795444.558    23747790.562    97243239.0064                 
                
  22281061.695   119188662.480                                                  
  22281060.539  
  20009173.539   106847852.914                    83103962.223    20009175.703  
  20009171.934  
  23292175.094   124510018.200                    96841109.179    23292178.754  
  23292174.688  
 21  8 15 21 35 30.0000000  0 16G17G15R14R 4G13G14R12G 7G 5R22R 3G30
                                G19R23R13R 5
  21847868.688   114811343.651    21847875.203    89463414.4594   21847875.090  
                
  21959834.055   115399712.286    21959840.352    89921887.0714   21959840.102  
                
  20561704.852   109605484.055                    85248703.999    20561708.801  
  20561704.445  
  20377652.180   109121426.119                    84872220.873    20377654.707  
  20377651.668  
  20466550.430   107552495.933    20466556.371    83807152.3314                 
                
  20254950.047   106440517.164    20254956.133    82940703.5204   20254956.258  
                
  23304240.516   124487106.870                    96823311.398    23304243.984  
  23304240.074  
  23522722.609   123612769.748    23522728.355    96321694.4004   23522728.199  
                
  24329643.484   127853149.818    24329650.672    99625863.8874   24329650.801  
                
  22352846.633   119321057.600                    92805260.553    22352848.371  
  22352844.969  
  20974793.797   112279722.318                    87328688.056    20974797.945  
  20974792.660  
  21239770.461   111615796.463    21239778.965    86973408.6674   21239779.168  
                
  23740574.227   124757547.000    23740578.871    97213708.4324                 
                
  22274798.992   119155161.809                                                  
  22274797.879  
  20011793.156   106861841.505                    83114842.233    20011795.324  
  20011791.535  
  23285414.227   124473877.154                    96812999.478    23285417.816  
  23285413.859  
 21  8 15 21 35 40.0000000  0 16G17G15R14R 4G13G14R12G 7G 5R22R 3G30
                                G19R23R13R 5
  21843325.031   114787466.546    21843331.523    89444808.9274   21843331.395  
                
  21956337.117   115381335.748    21956343.457    89907567.7014   21956343.203  
                
  20558374.930   109587733.719                    85234898.181    20558378.883  
  20558374.516  
  20376911.539   109117459.998                    84869136.111    20376914.059  
  20376911.035  
  20465403.461   107546468.589    20465409.422    83802455.6964                 
                
  20255996.227   106446014.885    20256002.328    82944987.4614   20256002.438  
                
  23310097.805   124518395.290                    96847646.845    23310101.270  
  23310097.406  
  23527798.883   123639445.787    23527804.703    96342480.9064   23527804.516  
                
  24334832.734   127880419.468    24334839.973    99647112.9744   24334840.098  
                
  22354465.008   119329696.880                    92811979.983    22354466.770  
  22354463.414  
  20981173.875   112313875.319                    87355251.508    20981178.012  
  20981172.723  
  21242818.453   111631813.769    21242826.988    86985889.6854   21242827.180  
                
  23733364.633   124719660.364    23733369.246    97184186.3814                 
                
  22268545.398   119121709.181                                                  
  22268544.211  
