     2.11           OBSERVATION DATA    M (MIXED)           RINEX VERSION / TYPE
EFT-CORS.RU                             20210817 145403 UTC PGM / RUN BY / DATE 
MDNG                                                        MARKER NAME         
                                                            MARKER NUMBER       
MDNG                EFT-CORS.RU                             OBSERVER / AGENCY   
0                   TRIMBLE BD970       2.0                 REC # / TYPE / VERS 
0                   UNKNOWN EXT NONE                        ANT # / TYPE        
  3463911.2830  3030468.2400  4402179.3760                  APPROX POSITION XYZ 
        0.0000        0.0000        0.0000                  ANTENNA: DELTA H/E/N
     1     1                                                WAVELENGTH FACT L1/2
     6    C1    L1    P2    L2    C2    P1                  # / TYPES OF OBSERV 
    10.000                                                  INTERVAL            
  2021     8    15    19    30    0.0000000     GPS         TIME OF FIRST OBS   
  2021     8    15    20    30    0.0000000     GPS         TIME OF LAST OBS    
     0                                                      RCV CLOCK OFFS APPL 
                                                            END OF HEADER       
 21  8 15 19 30  0.0000000  0 13G13G14R12G20G 7G 5G 8G27R 3G30G 9R13
                                R 2
  23804269.398   125092310.822    23804275.965    97474536.8194                 
                
  22240417.391   116874201.424    22240424.250    91070843.2014   22240424.363  
                
  19520515.852   104275137.283                    81102892.727    19520519.031  
  19520515.293  
  21983364.766   115523371.122    21983370.895    90018246.3654                 
                
  20866796.156   109655797.830    20866801.945    85446135.1674   20866801.727  
                
  22909007.992   120387666.369    22909013.980    93808606.1364   22909014.020  
                
  23149847.766   121653282.208    23149856.902    94794817.8144   23149857.332  
                
  24046634.375   126365918.421    24046642.695    98466997.7134   24046642.680  
                
  20381395.938   109103225.866                    84858081.662    20381399.977  
  20381394.832  
  20751299.281   109048861.097    20751307.895    84973199.0324   20751308.031  
                
  22190580.609   116612321.377    22190588.648    90866796.6124   22190588.438  
                
  20233246.602   108044379.994                    84034591.604    20233249.477  
  20233244.793  
  19285827.734   102912900.044                    80043365.025    19285830.727  
  19285825.707  
 21  8 15 19 30 10.0000000  0 13G13G14R12G20G 7G 5G 8G27R 3G30G 9R13
                                R 2
  23797970.352   125059209.339    23797976.949    97448743.5344                 
                
  22234430.359   116842739.462    22234437.242    91046327.3844   22234437.367  
                
  19523524.906   104291211.140                    81115394.619    19523528.094  
  19523524.336  
  21985047.898   115532216.125    21985054.023    90025138.5684                 
                
  20868622.078   109665393.119    20868627.910    85453612.0144   20868627.664  
                
  22906535.891   120374675.465    22906541.910    93798483.3514   22906541.910  
                
  23148655.766   121647018.219    23148664.895    94789936.7864   23148665.305  
                
  24048593.172   126376212.081    24048601.520    98475018.7654   24048601.496  
                
  20376505.211   109077045.435                    84837719.116    20376509.250  
  20376504.113  
  20749569.102   109039768.959    20749577.711    84966114.2614   20749577.844  
                
  22195877.641   116640157.501    22195885.672    90888487.0924   22195885.473  
                
  20229415.969   108023924.719                    84018681.951    20229418.840  
  20229414.184  
  19288777.438   102928640.283                    80055607.439    19288780.414  
  19288775.375  
 21  8 15 19 30 20.0000000  0 13G13G14R12G20G 7G 5G 8G27R 3G30G 9R13
                                R 2
  23791672.805   125026115.707    23791679.359    97422956.2644                 
                
  22228449.883   116811311.899    22228456.789    91021838.3784   22228456.898  
                
  19526543.422   104307335.514                    81127935.804    19526546.609  
  19526542.871  
  21986743.125   115541124.625    21986749.242    90032080.2474                 
                
  20870453.102   109675015.185    20870458.965    85461109.7254   20870458.699  
                
  22904075.852   120361747.879    22904081.867    93788409.9144   22904081.871  
                
  23147475.859   121640817.748    23147485.000    94785105.2494   23147485.402  
                
  24050564.516   126386571.625    24050572.875    98483091.1684   24050572.863  
                
  20371626.055   109050926.843                    84817404.646    20371630.082  
  20371624.980  
  20747845.227   109030709.949    20747853.824    84959055.3084   20747853.969  
                
  22201181.234   116668028.103    22201189.301    90910204.4344   22201189.105  
                
  20225595.484   108003523.603                    84002814.429    20225598.348  
  20225593.691  
  19291742.320   102944461.464                    80067912.799    19291745.289  
  19291740.238  
 21  8 15 19 30 30.0000000  0 13G13G14R12G20G 7G 5G 8G27R 3G30G 9R13
                                R 2
  23785376.664   124993029.446    23785383.238    97397174.8104                 
                
  22222475.844   116779918.225    22222482.758    90997375.7994   22222482.859  
                
  19529571.281   104323509.810                    81140515.811    19529574.465  
  19529570.734  
  21988450.273   115550095.834    21988456.367    90039070.7914                 
                
  20872289.109   109684663.473    20872295.004    85468627.8784   20872294.727  
                
  22901627.742   120348883.073    22901633.742    93778385.3794   22901633.770  
                
  23146307.945   121634680.300    23146317.082    94780322.8314   23146317.512  
                
  24052548.273   126396996.439    24052556.672    98491214.4084   24052556.641  
                
  20366758.391   109024869.818                    84797138.064    20366762.391  
  20366757.332  
  20746127.539   109021683.462    20746136.109    84952021.6884   20746136.266  
                
  22206491.258   116695932.518    22206499.402    90931948.1354   22206499.184  
                
  20221785.047   107983176.172                    83986988.650    20221787.867  
  20221783.246  
  19294722.211   102960362.770                    80080280.470    19294725.164  
  19294720.105  
 21  8 15 19 30 40.0000000  0 13G13G14R12G20G 7G 5G 8G27R 3G30G 9R13
                                R 2
  23779081.953   124959950.571    23779088.445    97371399.0904                 
                
  22216508.297   116748558.561    22216515.160    90972939.6974   22216515.289  
                
  19532608.492   104339733.997                    81153134.626    19532611.664  
  19532607.949  
  21990169.367   115559129.755    21990175.441    90046110.2174                 
                
  20874130.109   109694337.957    20874136.020    85476166.4334   20874135.746  
                
  22899191.609   120336081.197    22899197.617    93768409.8894   22899197.668  
                
  23145152.016   121628605.882    23145161.105    94775589.5204   23145161.535  
                
  24054544.391   126407486.457    24054552.879    98499388.4644   24054552.867  
                
  20361902.234   108998874.411                    84776919.418    20361906.219  
  20361901.191  
  20744416.047   109012689.504    20744424.598    84945013.4244   20744424.770  
                
  22211807.719   116723870.760    22211815.945    90953718.1934   22211815.715  
                
  20217984.688   107962882.467                    83971204.667    20217987.508  
  20217982.902  
  19297717.188   102976344.509                    80092710.711    19297720.125  
  19297715.086  
 21  8 15 19 30 50.0000000  0 13G13G14R12G20G 7G 5G 8G27R 3G30G 9R13
                                R 2
  23772788.797   124926879.902    23772795.293    97345629.7994                 
                
  22210547.352   116717233.697    22210554.180    90948530.7214   22210554.324  
                
  19535655.125   104356008.574                    81165792.636    19535658.281  
  19535654.590  
  21991900.531   115568227.142    21991906.586    90053199.0824                 
                
  20875976.227   109704039.374    20875982.152    85483725.9774   20875981.875  
                
  22896767.602   120323343.016    22896773.637    93758484.0364   22896773.695  
                
  23144008.219   121622595.208    23144017.207    94770905.8654   23144017.691  
                
  24056553.031   126418042.433    24056561.570    98507613.8874   24056561.559  
                
  20357057.781   108972941.624                    84756749.472    20357061.738  
  20357056.758  
  20742710.883   109003728.828    20742719.418    84938031.0834   20742719.605  
                
  22217130.742   116751843.496    22217139.023    90975515.1154   22217138.785  
                
  20214194.461   107942642.903                    83955462.781    20214197.297  
  20214192.699  
  19300727.328   102992407.231                    80105203.938    19300730.270  
  19300725.230  
 21  8 15 19 31  0.0000000  0 13G13G14R12G20G 7G 5G 8G27R 3G30G 9R13
                                R 2
  23766497.148   124893817.067    23766503.605    97319866.5714                 
                
  22204592.961   116685943.294    22204599.754    90924148.6004   22204599.910  
                
  19538711.125   104372333.232                    81178489.599    19538714.281  
  19538710.590  
  21993643.703   115577387.564    21993649.742    90060337.0834                 
                
  20877827.391   109713767.259    20877833.324    85491306.1484   20877833.059  
                
  22894355.648   120310668.205    22894361.730    93748607.5544   22894361.789  
                
  23142876.492   121616647.958    23142885.391    94766271.6314   23142885.922  
                
  24058574.156   126428663.881    24058582.715    98515890.3464   24058582.711  
                
  20352224.922   108947070.950                    84736627.842    20352228.852  
  20352223.906  
  20741011.969   108994801.003    20741020.500    84931074.3414   20741020.684  
                
  22222460.242   116779850.300    22222468.555    90997338.5854   22222468.305  
                
  20210414.344   107922457.288                    83939762.864    20210417.152  
  20210412.609  
  19303752.508   103008550.193                    80117759.568    19303755.453  
  19303750.418  
 21  8 15 19 31 10.0000000  0 13G13G14R12G20G 7G 5G 8G27R 3G30G 9R13
                                R 2
  23760207.008   124860762.192    23760213.414    97294109.5324                 
                
  22198645.164   116654687.467    22198651.934    90899793.4204   22198652.078  
                
  19541776.500   104388707.901                    81191225.456    19541779.648  
  19541775.961  
  21995398.859   115586610.944    21995404.875    90067524.1264                 
                
  20879683.602   109723521.698    20879689.539    85498907.0034   20879689.270  
                
  22891955.750   120298056.737    22891961.887    93738780.4454   22891961.926  
                
  23141756.883   121610764.357    23141765.777    94761687.0144   23141766.312  
                
  24060607.750   126439350.836    24060616.309    98524217.8604   24060616.309  
                
  20347403.711   108921262.649                    84716554.736    20347407.625  
  20347402.676  
  20739319.320   108985906.102    20739327.867    84924143.2564   20739328.039  
                
  22227796.219   116807891.127    22227804.555    91019188.5854   22227804.312  
                
  20206644.352   107902325.767                    83924105.026    20206647.191  
  20206642.637  
  19306792.789   103024773.703                    80130377.842    19306795.734  
  19306790.703  
 21  8 15 19 31 20.0000000  0 13G13G14R12G20G 7G 5G 8G27R 3G30G 9R13
                                R 2
  23753918.414   124827715.430    23753924.734    97268358.8364                 
                
  22192704.000   116623466.410    22192710.746    90875465.3284   22192710.875  
                
  19544851.188   104405132.314                    81204000.009    19544854.344  
  19544850.652  
  21997166.008   115595897.345    21997172.008    90074760.2794                 
                
  20881544.867   109733302.702    20881550.805    85506528.5694   20881550.535  
                
  22889567.961   120285508.802    22889574.129    93729002.8264   22889574.164  
                
  23140649.367   121604944.302    23140658.305    94757151.9104   23140658.805  
                
  24062653.844   126450103.328    24062662.414    98532596.4554   24062662.395  
                
  20342594.227   108895517.061                    84696530.380    20342598.117  
  20342593.176  
  20737632.961   108977044.223    20737641.523    84917237.9194   20737641.688  
                
  22233138.688   116835966.049    22233147.062    91041065.1414   22233146.836  
                
  20202884.523   107882248.437                    83908489.335    20202887.375  
  20202882.820  
  19309848.203   103041077.947                    80143058.923    19309851.148  
  19309846.133  
 21  8 15 19 31 30.0000000  0 13G13G14R12G20G 7G 5G 8G27R 3G30G 9R13
                                R 2
  23747631.320   124794676.657    23747637.523    97242614.3384                 
                
  22186769.414   116592280.003    22186776.105    90851164.2304   22186776.238  
                
  19547935.156   104421606.344                    81216813.130    19547938.305  
  19547934.625  
  21998945.109   115605246.547    21998951.098    90082045.3674                 
                
  20883411.164   109743110.127    20883417.102    85514170.7174   20883416.828  
                
  22887192.203   120273024.208    22887198.410    93719274.5724   22887198.484  
                
  23139553.945   121599187.914    23139562.930    94752666.4094   23139563.402  
                
  24064712.430   126460921.200    24064720.961    98541025.9734   24064720.941  
                
  20337796.422   108869834.053                    84676554.705    20337800.289  
  20337795.363  
  20735952.844   108968215.169    20735961.410    84910358.1484   20735961.566  
                
  22238487.594   116864074.868    22238496.008    91062968.1104   22238495.781  
                
  20199134.805   107862225.199                    83892915.710    20199137.645  
  20199133.121  
  19312918.664   103057462.469                    80155802.439    19312921.602  
  19312916.609  
 21  8 15 19 31 40.0000000  0 13G13G14R12G20G 7G 5G 8G27R 3G30G 9R13
                                R 2
  23741345.766   124761645.943    23741351.898    97216876.1554                 
                
  22180841.445   116561128.335    22180848.059    90826890.1944   22180848.211  
                
  19551028.422   104438130.021                    81229664.887    19551031.566  
  19551027.902  
  22000736.148   115614658.504    22000742.145    90089379.3584                 
                
  20885282.477   109752943.952    20885288.410    85521833.4344   20885288.137  
                
  22884828.516   120260603.000    22884834.758    93709595.7024   22884834.824  
                
  23138470.641   121593495.150    23138479.672    94748230.4924   23138480.121  
                
  24066783.344   126471804.426    24066791.898    98549506.3904   24066791.926  
                
  20333010.320   108844213.717                    84656627.770    20333014.164  
  20333009.273  
  20734278.977   108959418.963    20734287.539    84903503.9754   20734287.695  
                
  22243842.930   116892217.458    22243851.410    91084897.4004   22243851.184  
                
  20195395.242   107842256.135                    83877384.231    20195398.031  
  20195393.547  
  19316004.102   103073926.910                    80168608.107    19316007.031  
  19316002.066  
 21  8 15 19 31 50.0000000  0 13G13G14R12G20G 7G 5G 8G27R 3G30G 9R13
                                R 2
  23735061.781   124728623.422    23735067.906    97191144.3414                 
                
  22174920.133   116530011.553    22174926.684    90802643.3484   22174926.840  
                
  19554130.984   104454703.320                    81242555.227    19554134.129  
  19554130.473  
  22002539.125   115624133.179    22002545.148    90096762.2174                 
                
  20887158.828   109762804.196    20887164.762    85529516.7384   20887164.492  
                
  22882476.977   120248245.588    22882483.250    93699966.5604   22882483.309  
                
  23137399.469   121587866.045    23137408.535    94743844.1834   23137408.969  
                
  24068866.742   126482752.983    24068875.297    98558037.7454   24068875.328  
                
  20328236.031   108818656.495                    84636749.929    20328239.871  
  20328234.992  
  20732611.367   108950655.642    20732619.914    84896675.4254   20732620.086  
                
  22249204.719   116920393.916    22249213.270    91106853.0884   22249213.020  
                
  20191665.812   107822341.085                    83861894.761    20191668.574  
  20191664.133  
  19319104.617   103090471.765                    80181476.322    19319107.547  
  19319102.617  
 21  8 15 19 32  0.0000000  0 13G13G14R12G20G 7G 5G 8G27R 3G30G 9R13
                                R 2
  23728779.352   124695609.063    23728785.504    97165418.8874                 
                
  22169005.453   116498929.700    22169011.949    90778423.7144   22169012.117  
                
  19557242.758   104471325.923                    81255483.916    19557245.914  
  19557242.250  
  22004354.008   115633670.472    22004360.070    90104193.8694                 
                
  20889040.188   109772690.846    20889046.113    85537220.6154   20889045.844  
                
  22880137.523   120235951.746    22880143.809    93690386.9424   22880143.859  
                
  23136340.414   121582300.697    23136349.523    94739507.5514   23136349.941  
                
  24070962.570   126493766.832    24070971.109    98566619.9794   24070971.133  
                
  20323473.484   108793162.251                    84616921.082    20323477.320  
  20323472.445  
  20730950.016   108941925.209    20730958.543    84889872.4984   20730958.730  
                
  22254572.938   116948604.185    22254581.508    91128835.0984   22254581.273  
                
  20187946.492   107802480.112                    83846447.339    20187949.207  
  20187944.816  
  19322220.188   103107097.005                    80194407.059    19322223.121  
  19322218.219  
 21  8 15 19 32 10.0000000  0 13G13G14R12G20G 7G 5G 8G27R 3G30G 9R13
                                R 2
  23722498.508   124662602.909    23722504.641    97139699.8164                 
                
  22163097.422   116467882.826    22163103.910    90754231.3434   22163104.090  
                
  19560363.773   104487997.830                    81268450.958    19560366.938  
  19560363.270  
  22006180.805   115643270.354    22006186.891    90111674.2934                 
                
  20890926.570   109782603.817    20890932.484    85544945.0004   20890932.219  
                
  22877810.164   120223721.359    22877816.473    93680856.7704   22877816.547  
                
  23135293.492   121576799.047    23135302.641    94735220.5604   23135303.066  
                
  24073070.906   126504845.897    24073079.320    98575253.0404   24073079.336  
                
  20318722.742   108767731.211                    84597141.384    20318726.570  
  20318721.719  
  20729294.922   108933227.650    20729303.438    84883095.1974   20729303.633  
                
  22259947.586   116976848.164    22259956.160    91150843.4004   22259955.957  
                
  20184237.312   107782673.335                    83831042.085    20184240.016  
  20184235.617  
  19325350.758   103123802.217                    80207399.995    19325353.699  
  19325348.805  
 21  8 15 19 32 20.0000000  0 13G13G14R12G20G 7G 5G 8G27R 3G30G 9R13
                                R 2
  23716219.328   124629605.711    23716225.484    97113987.7644                 
                
  22157196.188   116436871.677    22157202.688    90730066.8114   22157202.875  
                
  19563494.086   104504719.410                    81281456.633    19563497.254  
  19563493.582  
  22008019.641   115652933.477    22008025.742    90119203.9864                 
                
  20892818.086   109792543.820    20892823.984    85552690.4524   20892823.738  
                
  22875495.023   120211555.232    22875501.363    93671376.6584   22875501.422  
                
  23134258.852   121571361.983    23134267.988    94730983.8844   23134268.430  
                
  24075191.734   126515990.902    24075200.105    98583937.4434   24075200.125  
                
  20313983.953   108742364.105                    84577411.409    20313987.777  
  20313982.922  
  20727646.211   108924563.639    20727654.727    84876344.0294   20727654.918  
                
  22265328.750   117005126.489    22265337.367    91172878.4644   22265337.164  
                
  20180538.406   107762921.439                    83815679.500    20180541.125  
  20180536.715  
  19328496.438   103140588.153                    80220455.717    19328499.391  
  19328494.516  
 21  8 15 19 32 30.0000000  0 13G13G14R12G20G 7G 5G 8G27R 3G30G 9R13
                                R 2
  23709941.516   124596615.786    23709947.656    97088281.3524                 
                
  22151301.414   116405894.516    22151307.930    90705928.7674   22151308.113  
                
  19566633.383   104521488.974                    81294499.628    19566636.551  
  19566632.867  
  22009870.133   115662657.856    22009876.262    90126781.4294                 
                
  20894714.391   109802508.997    20894720.281    85560455.5124   20894720.039  
                
  22873191.773   120199451.581    22873198.141    93661945.2444   22873198.195  
                
  23133236.133   121565987.546    23133245.234    94726796.0094   23133245.719  
                
  24077324.727   126527199.893    24077333.117    98592671.7444   24077333.141  
                
  20309256.797   108717059.231                    84557729.831    20309260.613  
  20309255.777  
  20726003.539   108915931.357    20726012.066    84869617.5914   20726012.254  
                
  22270716.117   117033437.309    22270724.797    91194938.8404   22270724.574  
                
  20176849.422   107743222.472                    83800358.109    20176852.121  
  20176847.723  
  19331656.930   103157453.109                    80233572.904    19331659.891  
  19331655.020  
 21  8 15 19 32 40.0000000  0 13G13G14R12G20G 7G 5G 8G27R 3G30G 9R13
                                R 2
  23703665.414   124563634.951    23703671.594    97062582.0314                 
                
  22145413.492   116374953.275    22145420.008    90681818.6984   22145420.195  
                
  19569782.016   104538308.381                    81307581.383    19569785.184  
  19569781.488  
  22011732.641   115672445.383    22011738.789    90134408.0754                 
                
  20896615.844   109812501.176    20896621.742    85568241.6274   20896621.492  
                
  22870900.789   120187412.368    22870907.164    93652564.0454   22870907.215  
                
  23132225.672   121560677.518    23132234.773    94722658.3294   23132235.250  
                
  24079470.234   126538474.725    24079478.664    98601457.3374   24079478.660  
                
  20304541.648   108691818.654                    84538098.281    20304545.457  
  20304540.621  
  20724367.250   108907332.619    20724375.793    84862917.2834   20724375.965  
                
  22276110.008   117061782.417    22276118.715    91217025.9344   22276118.492  
                
  20173170.641   107723578.073                    83785079.143    20173173.340  
  20173168.930  
  19334832.578   103174398.921                    80246752.973    19334835.543  
  19334830.672  
 21  8 15 19 32 50.0000000  0 13G13G14R12G20G 7G 5G 8G27R 3G30G 9R13
                                R 2
  23697390.992   124530662.801    23697397.176    97036889.4714                 
                
  22139532.297   116344047.435    22139538.832    90657736.2234   22139539.023  
                
  19572939.820   104555176.822                    81320701.276    19572942.996  
  19572939.281  
  22013607.039   115682295.404    22013613.207    90142083.4124                 
                
  20898522.312   109822519.730    20898528.215    85576048.2864   20898527.961  
                
  22868621.953   120175437.007    22868628.344    93643232.5924   22868628.402  
                
  23131227.398   121555431.538    23131236.535    94718570.5584   23131237.000  
                
  24081628.180   126549814.774    24081636.664    98610293.7594   24081636.621  
                
  20299838.430   108666641.951                    84518516.402    20299842.223  
  20299837.387  
  20722737.242   108898766.887    20722745.805    84856242.6944   20722745.953  
                
  22281510.305   117090161.173    22281519.004    91239139.2464   22281518.812  
                
  20169502.039   107703987.943                    83769842.370    20169504.738  
  20169500.336  
  19338023.266   103191425.035                    80259995.494    19338026.234  
  19338021.355  
 21  8 15 19 33  0.0000000  0 13G13G14R12G20G 7G 5G 8G27R 3G30G 9R13
                                R 2
  23691118.211   124497699.158    23691124.363    97011203.5234                 
                
  22133657.812   116313176.853    22133664.363    90633681.2084   22133664.562  
                
  19576106.719   104572093.786                    81333858.916    19576109.910  
  19576106.188  
  22015493.258   115692207.549    22015499.445    90149807.1624                 
                
  20900433.750   109832564.389    20900439.656    85583875.3024   20900439.391  
                
  22866355.242   120163525.350    22866361.656    93633950.7994   22866361.723  
                
  23130241.273   121550249.428    23130250.434    94714532.5564   23130250.875  
                
  24083798.477   126561219.775    24083807.016    98619180.7514   24083806.957  
                
  20295147.102   108641528.900                    84498984.034    20295150.895  
  20295146.055  
  20721113.469   108890233.927    20721122.047    84849593.6414   20721122.188  
                
  22286916.969   117118573.315    22286925.684    91261278.5794   22286925.496  
                
  20165843.594   107684452.084                    83754647.835    20165846.301  
  20165841.887  
  19341228.859   103208530.639                    80273299.855    19341231.840  
  19341226.965  
 21  8 15 19 33 10.0000000  0 13G13G14R12G20G 7G 5G 8G27R 3G30G 9R13
                                R 2
  23684847.062   124464744.161    23684853.191    96985524.2934                 
                
  22127790.078   116282341.743    22127796.668    90609653.8424   22127796.848  
                
  19579282.734   104589059.509                    81347054.478    19579285.930  
  19579282.227  
  22017391.320   115702181.954    22017397.520    90157579.4274                 
                
  20902350.180   109842635.324    20902356.074    85591722.7794   20902355.805  
                
  22864100.672   120151677.513    22864107.105    93624718.7324   22864107.168  
                
  23129267.336   121545131.361    23129276.504    94710544.4714   23129276.934  
                
  24085981.156   126572689.820    24085989.727    98628118.4564   24085989.680  
                
  20290467.727   108616479.818                    84479501.418    20290471.512  
  20290466.676  
  20719495.953   108881733.855    20719504.543    84842970.2184   20719504.672  
                
  22292329.992   117147018.939    22292338.742    91283443.9954   22292338.535  
                
  20162195.281   107664970.325                    83739495.356    20162197.992  
  20162193.555  
  19344449.422   103225716.163                    80286666.368    19344452.406  
  19344447.512  
 21  8 15 19 33 20.0000000  0 13G13G14R12G20G 7G 5G 8G27R 3G30G 9R13
                                R 2
  23678577.586   124431797.863    23678583.695    96959851.8854                 
                
  22121929.102   116251542.182    22121935.758    90585654.1874   22121935.922  
                
  19582467.844   104606073.789                    81360287.801    19582471.039  
  19582467.344  
  22019301.250   115712218.709    22019307.441    90165400.2764                 
                
  20904271.617   109852732.583    20904277.488    85599590.7764   20904277.234  
                
  22861858.273   120139893.596    22861864.723    93615536.4614   22861864.777  
                
  23128305.594   121540077.319    23128314.711    94706606.2574   23128315.145  
                
  24088176.211   126584224.893    24088184.797    98637106.8344   24088184.719  
                
  20285800.336   108591494.965                    84460068.743    20285804.117  
  20285799.289  
  20717884.703   108873266.718    20717893.293    84836372.4664   20717893.414  
                
  22297749.375   117175498.019    22297758.145    91305635.4834   22297757.949  
                
  20158557.133   107645542.819                    83724385.082    20158559.832  
  20158555.414  
  19347684.969   103242981.680                    80300095.098    19347687.957  
  19347683.035  
 21  8 15 19 33 30.0000000  0 13G13G14R12G20G 7G 5G 8G27R 3G30G 9R13
                                R 2
  23672309.758   124398860.279    23672315.840    96934186.2644                 
                
  22116074.898   116220778.243    22116081.617    90561682.2834   22116081.754  
                
  19585662.070   104623136.782                    81373559.008    19585665.266  
  19585661.582  
  22021223.023   115722317.682    22021229.207    90173269.6264                 
                
  20906198.047   109862856.103    20906203.891    85607479.2274   20906203.656  
                
  22859628.070   120128173.733    22859634.539    93606404.0924   22859634.566  
                
  23127356.055   121535087.449    23127365.125    94702718.0344   23127365.570  
                
  24090383.633   126595824.932    24090392.230    98646145.8324   24090392.152  
                
  20281144.945   108566574.328                    84440686.029    20281148.727  
  20281143.910  
  20716279.719   108864832.495    20716288.293    84829800.3514   20716288.418  
                
  22303175.117   117204010.488    22303183.891    91327852.9774   22303183.707  
                
  20154929.102   107626169.400                    83709316.874    20154931.789  
  20154927.375  
  19350935.500   103260327.148                    80313586.011    19350938.480  
  19350933.570  
 21  8 15 19 33 40.0000000  0 13G13G14R12G20G 7G 5G 8G27R 3G30G 9R13
                                R 2
  23666043.625   124365931.557    23666049.730    96908527.5524                 
                
  22110227.508   116190050.034    22110234.273    90537738.2234   22110234.383  
                
  19588865.383   104640248.263                    81386867.940    19588868.586  
  19588864.891  
  22023156.617   115732478.853    22023162.816    90181187.3994                 
                
  20908129.500   109873005.958    20908135.316    85615388.2084   20908135.098  
                
  22857410.039   120116517.904    22857416.559    93597321.6244   22857416.562  
                
  23126418.758   121530161.899    23126427.812    94698879.9474   23126428.266  
                
  24092603.430   126607489.945    24092612.031    98655235.4494   24092611.953  
                
  20276501.617   108541718.200                    84421353.472    20276505.395  
  20276500.586  
  20714681.008   108856431.236    20714689.566    84823253.9254   20714689.691  
                
  22308607.227   117232556.339    22308615.992    91350096.5014   22308615.812  
                
  20151311.258   107606850.352                    83694290.962    20151313.949  
  20151309.516  
  19354200.938   103277752.103                    80327138.751    19354203.926  
  19354198.992  
 21  8 15 19 33 50.0000000  0 13G13G14R12G20G 7G 5G 8G27R 3G30G 9R13
                                R 2
  23659779.180   124333011.684    23659785.270    96882875.6884                 
                
  22104386.914   116159357.529    22104393.723    90513821.9764   22104393.812  
                
  19592077.711   104657407.925                    81400214.343    19592080.902  
  19592077.227  
  22025102.023   115742702.048    22025108.207    90189153.5074                 
                
  20910065.938   109883182.033    20910071.723    85623317.6164   20910071.523  
                
  22855204.219   120104926.136    22855210.766    93588289.0854   22855210.730  
                
  23125493.648   121525300.384    23125502.688    94695091.7584   23125503.141  
                
  24094835.555   126619219.791    24094844.160    98664375.5834   24094844.094  
                
  20271870.320   108516926.489                    84402071.032    20271874.094  
  20271869.285  
  20713088.539   108848062.782    20713097.082    84816733.0564   20713097.219  
                
  22314045.648   117261135.400    22314054.375    91372365.8994   22314054.211  
                
  20147703.539   107587585.374                    83679307.095    20147706.246  
  20147701.793  
  19357481.281   103295256.698                    80340753.424    19357484.262  
  19357479.320  
 21  8 15 19 34  0.0000000  0 13G13G14R12G20G 7G 5G 8G27R 3G30G 9R13
                                R 2
  23653516.438   124300100.816    23653522.512    96857230.8774                 
                
  22098553.148   116128700.901    22098559.992    90489933.6834   22098560.059  
                
  19595299.070   104674615.843                    81413598.275    19595302.250  
  19595298.578  
  22027059.219   115752987.187    22027065.383    90197167.9114                 
                
  20912007.367   109893384.337    20912013.121    85631267.4644   20912012.949  
                
  22853010.594   120093398.457    22853017.148    93579306.4814   22853017.098  
                
  23124580.773   121520503.207    23124589.793    94691353.6984   23124590.266  
                
  24097080.023   126631014.528    24097088.648    98673566.2774   24097088.578  
                
  20267251.086   108492199.380                    84382838.834    20267254.867  
  20267250.078  
  20711502.336   108839727.295    20711510.867    84810237.8804   20711510.988  
                
  22319490.391   117289747.770    22319499.078    91394661.2414   22319498.945  
                
  20144106.023   107568374.880                    83664365.611    20144108.758  
  20144104.289  
  19360776.586   103312841.097                    80354430.187    19360779.559  
  19360774.605  
 21  8 15 19 34 10.0000000  0 13G13G14R12G20G 7G 5G 8G27R 3G30G 9R13
                                R 2
  23647255.422   124267199.128    23647261.469    96831593.2154                 
                
  22092726.234   116098080.332    22092733.090    90466073.4944   22092733.156  
                
  19598529.484   104691872.137                    81427019.842    19598532.660  
  19598529.004  
  22029028.219   115763334.352    22029034.359    90205230.6294                 
                
  20913953.805   109903612.958    20913959.527    85639237.8204   20913959.383  
                
  22850829.195   120081935.068    22850835.762    93570373.9674   22850835.695  
                
  23123680.109   121515770.110    23123689.113    94687665.6004   23123689.578  
                
  24099336.836   126642874.236    24099345.469    98682807.6074   24099345.398  
                
  20262643.984   108467537.201                    84363657.147    20262647.777  
  20262642.965  
  20709922.438   108831424.878    20709930.957    84803768.4724   20709931.090  
                
  22324941.508   117318393.473    22324950.184    91416982.5624   22324950.047  
                
  20140518.703   107549218.780                    83649466.426    20140521.441  
  20140516.984  
  19364086.852   103330505.305                    80368169.003    19364089.832  
  19364084.867  
 21  8 15 19 34 20.0000000  0 13G13G14R12G20G 7G 5G 8G27R 3G30G 9R13
                                R 2
  23640996.148   124234306.556    23641002.141    96805962.6334                 
                
  22086906.180   116067495.745    22086913.023    90442241.3404   22086913.078  
                
  19601768.891   104709176.450                    81440478.746    19601772.062  
  19601768.438  
  22031008.984   115773743.319    22031015.121    90213341.5084                 
                
  20915905.227   109913867.748    20915910.918    85647228.5614   20915910.789  
                
  22848659.977   120070535.721    22848666.551    93561491.3574   22848666.496  
                
  23122791.742   121511101.629    23122800.711    94684027.8254   23122801.180  
                
  24101605.984   126654798.689    24101614.629    98692099.3904   24101614.562  
                
  20258049.023   108442939.948                    84344525.956    20258052.824  
  20258048.008  
  20708348.797   108823155.350    20708357.305    84797324.6824   20708357.438  
                
  22330398.930   117347072.349    22330407.602    91439329.7364   22330407.469  
                
  20136941.516   107530116.801                    83634609.334    20136944.238  
  20136939.785  
  19367411.977   103348248.802                    80381969.496    19367414.965  
  19367409.977  
 21  8 15 19 34 30.0000000  0 13G13G14R12G20G 7G 5G 8G27R 3G30G 9R13
                                R 2
  23634738.570   124201422.960    23634744.562    96780339.0854                 
                
  22081092.969   116036947.170    22081099.766    90418437.2464   22081099.828  
                
  19605017.289   104726528.768                    81453975.002    19605020.445  
  19605016.848  
  22033001.500   115784214.088    22033007.625    90221500.5434                 
                
  20917861.617   109924148.652    20917867.285    85655239.6614   20917867.172  
                
  22846502.961   120059200.521    22846509.535    93552658.7344   22846509.484  
                
  23121915.562   121506497.235    23121924.453    94680439.9754   23121924.934  
                
  24103887.430   126666787.835    24103896.121    98701441.5744   24103896.023  
                
  20253466.203   108418407.833                    84325445.420    20253470.008  
  20253465.199  
  20706781.398   108814918.689    20706789.895    84790906.5114   20706790.023  
                
  22335862.641   117375784.279    22335871.281    91461702.6554   22335871.148  
                
  20133374.539   107511069.323                    83619794.640    20133377.258  
  20133372.777  
  19370751.969   103366071.671                    80395831.730    19370754.973  
  19370749.961  
 21  8 15 19 34 40.0000000  0 13G13G14R12G20G 7G 5G 8G27R 3G30G 9R13
                                R 2
  23628482.766   124168548.630    23628488.793    96754722.7564                 
                
  22075286.688   116006434.850    22075293.441    90394661.3974   22075293.504  
                
  19608274.641   104743928.877                    81467508.412    19608277.789  
  19608274.215  
  22035005.797   115794746.682    22035011.891    90229707.7624                 
                
  20919823.008   109934455.774    20919828.648    85663271.1874   20919828.543  
                
  22844358.211   120047929.734    22844364.785    93543876.3084   22844364.730  
                
  23121051.688   121501957.458    23121060.562    94676902.4984   23121061.047  
                
  24106181.242   126678841.761    24106189.930    98710834.2554   24106189.824  
                
  20248895.594   108393940.927                    84306415.605    20248899.406  
  20248894.602  
  20705220.297   108806715.031    20705228.777    84784514.0604   20705228.918  
                
  22341332.672   117404529.342    22341341.289    91484101.4114   22341341.168  
                
  20129817.734   107492076.175                    83605022.190    20129820.414  
  20129815.980  
  19374106.969   103383974.527                    80409756.162    19374109.953  
  19374104.957  
 21  8 15 19 34 50.0000000  0 13G13G14R12G20G 7G 5G 8G27R 3G30G 9R13
                                R 2
  23622228.727   124135683.523    23622234.828    96729113.6224                 
                
  22069487.258   115975958.632    22069494.008    90370913.6834   22069494.074  
                
  19611540.883   104761376.569                    81481078.836    19611544.027  
  19611540.469  
  22037021.812   115805340.930    22037027.887    90237963.0154                 
                
  20921789.352   109944788.948    20921794.969    85671323.0094   20921794.875  
                
  22842225.711   120036723.325    22842232.273    93535144.0434   22842232.211  
                
  23120200.016   121497481.908    23120208.914    94673415.0554   23120209.379  
                
  24108487.336   126690960.256    24108495.969    98720277.2304   24108495.867  
                
  20244337.164   108369539.299                    84287436.561    20244340.988  
  20244336.160  
  20703665.430   108798544.199    20703673.891    84778147.1784   20703674.035  
                
  22346808.953   117433307.359    22346817.559    91506525.8384   22346817.445  
                
  20126271.047   107473137.095                    83590291.800    20126273.730  
  20126269.293  
  19377476.781   103401956.529                    80423742.150    19377479.758  
  19377474.766  
 21  8 15 19 35  0.0000000  0 13G13G14R12G20G 7G 5G 8G27R 3G30G 9R13
                                R 2
  23615976.477   124102827.726    23615982.574    96703511.7084                 
                
  22063694.711   115945518.646    22063701.457    90347194.2134   22063701.516  
                
  19614816.055   104778871.974                    81494686.372    19614819.207  
  19614815.645  
  22039049.539   115815996.752    22039055.605    90246266.2594                 
                
  20923760.648   109955148.204    20923766.246    85679395.1704   20923766.156  
                
  22840105.453   120025581.273    22840112.000    93526461.9284   22840111.941  
                
  23119360.633   121493070.954    23119369.508    94669977.9634   23119369.980  
                
  24110805.711   126703143.322    24110814.301    98729770.5434   24110814.223  
                
  20239790.945   108345203.019                    84268508.348    20239794.785  
  20239789.949  
  20702116.820   108790406.251    20702125.266    84771805.9264   20702125.414  
                
  22352291.508   117462118.306    22352300.109    91528975.9214   22352299.992  
                
  20122734.555   107454252.372                    83575603.698    20122737.250  
  20122732.797  
  19380861.445   103420017.727                    80437789.756    19380864.418  
  19380859.422  
 21  8 15 19 35 10.0000000  0 13G13G14R12G20G 7G 5G 8G27R 3G30G 9R13
                                R 2
  23609726.023   124069981.415    23609732.121    96677917.2064                 
                
  22057909.133   115915115.173    22057915.852    90323503.1794   22057915.902  
                
  19618100.180   104796415.156                    81508331.076    19618103.336  
  19618099.758  
  22041089.016   115826714.288    22041095.070    90254617.5724                 
                
  20925736.961   109965533.723    20925742.547    85687487.7864   20925742.449  
                
  22837997.461   120014503.652    22838003.973    93517830.0174   22838003.945  
                
  23118533.531   121488724.495    23118542.371    94666591.1084   23118542.871  
                
  24113136.398   126715391.084    24113144.977    98739314.2624   24113144.891  
                
  20235257.008   108320932.532                    84249631.309    20235260.863  
  20235256.027  
  20700574.508   108782301.367    20700582.949    84765490.4374   20700583.094  
                
  22357780.359   117490962.310    22357788.965    91551451.7584   22357788.844  
                
  20119208.289   107435422.340                    83560958.105    20119210.980  
  20119206.531  
  19384261.055   103438158.676                    80451899.370    19384264.020  
  19384259.016  
 21  8 15 19 35 20.0000000  0 13G13G14R12G20G 7G 5G 8G27R 3G30G 9R13
                                R 2
  23603477.367   124037144.499    23603483.465    96652330.0224                 
                
  22052130.469   115884748.117    22052137.211    90299840.5294   22052137.230  
                
  19621393.180   104814005.786                    81522012.672    19621396.320  
  19621392.766  
  22043140.203   115837493.326    22043146.246    90263016.8164                 
                
  20927718.227   109975945.283    20927723.805    85695600.6894   20927723.703  
                
  22835901.703   120003490.330    22835908.176    93509248.2054   22835908.176  
                
  23117718.719   121484442.580    23117727.570    94663254.5664   23117728.066  
                
  24115479.367   126727703.377    24115487.988    98748908.2514   24115487.887  
                
  20230735.344   108296727.680                    84230805.309    20230739.219  
  20230734.359  
  20699038.461   108774229.402    20699046.898    84759200.5934   20699047.043  
                
  22363275.461   117519839.175    22363284.062    91573953.2034   22363283.930  
                
  20115692.195   107416646.599                    83546354.760    20115694.879  
  20115690.430  
  19387675.445   103456378.504                    80466070.353    19387678.410  
  19387673.410  
 21  8 15 19 35 30.0000000  0 13G13G14R12G20G 7G 5G 8G27R 3G30G 9R13
                                R 2
  23597230.547   124004317.154    23597236.609    96626750.2744                 
                
  22046358.758   115854417.611    22046365.551    90276206.3804   22046365.547  
                
  19624695.070   104831643.863                    81535731.185    19624698.203  
  19624694.648  
  22045203.078   115848333.860    22045209.117    90271463.9844                 
                
  20929704.461   109986382.961    20929710.031    85703733.9484   20929709.922  
                
  22833818.219   119992541.548    22833824.672    93500716.6944   22833824.680  
                
  23116916.211   121480225.340    23116925.102    94659968.4124   23116925.582  
                
  24117834.617   126740080.222    24117843.227    98758552.5474   24117843.141  
                
  20226225.977   108272588.696                    84212030.544    20226229.867  
  20226224.992  
  20697508.688   108766190.401    20697517.121    84752936.4434   20697517.258  
                
  22368776.812   117548748.920    22368785.391    91596480.2764   22368785.234  
                
  20112186.258   107397925.170                    83531793.668    20112188.961  
  20112184.469  
  19391104.750   103474677.915                    80480303.227    19391107.715  
  19391102.723  
 21  8 15 19 35 40.0000000  0 13G13G14R12G20G 7G 5G 8G27R 3G30G 9R13
                                R 2
  23590985.523   123971499.358    23590991.629    96601177.9854                 
                
  22040594.023   115824123.729    22040600.852    90252600.7564   22040600.840  
                
  19628005.797   104849329.160                    81549486.423    19628008.926  
  19628005.383  
  22047277.656   115859235.780    22047283.680    90279958.9904                 
                
  20931695.648   109996846.692    20931701.199    85711887.5084   20931701.105  
                
  22831747.000   119981657.225    22831753.469    93492235.4134   22831753.488  
                
  23116125.984   121476072.660    23116134.898    94656732.5644   23116135.379  
                
  24120202.133   126752521.538    24120210.746    98768247.0824   24120210.676  
                
  20221728.961   108248515.795                    84193307.174    20221732.848  
  20221727.957  
  20695985.188   108758184.364    20695993.617    84746697.9774   20695993.746  
                
  22374284.414   117577691.495    22374292.953    91619032.9284   22374292.797  
                
  20108690.508   107379258.086                    83517274.831    20108693.227  
  20108688.703  
  19394548.828   103493056.127                    80494597.383    19394551.793  
  19394546.820  
 21  8 15 19 35 50.0000000  0 13G13G14R12G20G 7G 5G 8G27R 3G30G 9R13
                                R 2
  23584742.320   123938691.188    23584748.457    96575613.1834                 
                
  22034836.273   115793866.508    22034843.152    90229023.6884   22034843.121  
                
  19631325.359   104867061.664                    81563278.364    19631328.480  
  19631324.945  
  22049363.898   115870199.081    22049369.918    90288501.8214                 
                
  20933691.797   110007336.502    20933697.320    85720061.3864   20933697.227  
                
  22829688.062   119970837.396    22829694.555    93483804.3794   22829694.562  
                
  23115348.078   121471984.728    23115356.961    94653547.1644   23115357.434  
                
  24122581.898   126765027.254    24122590.516    98777991.7974   24122590.441  
                
  20217244.289   108224508.980                    84174635.213    20217248.188  
  20217243.285  
  20694467.945   108750211.240    20694476.367    84740485.1614   20694476.492  
                
  22379798.258   117606666.788    22379806.730    91641611.0784   22379806.586  
                
  20105204.930   107360645.341                    83502798.233    20105207.656  
  20105203.121  
  19398007.820   103511513.933                    80508953.452    19398010.797  
  19398005.809  
 21  8 15 19 36  0.0000000  0 13G13G14R12G20G 7G 5G 8G27R 3G30G 9R13
                                R 2
  23578500.992   123905892.839    23578507.121    96550056.0434                 
                
  22029085.523   115763646.112    22029092.473    90205475.3284   22029092.426  
                
  19634653.734   104884841.279                    81577106.975    19634656.852  
  19634653.320  
  22051461.828   115881223.726    22051467.848    90297092.4494                 
                
  20935692.930   110017852.482    20935698.426    85728255.6634   20935698.352  
                
  22827641.406   119960082.148    22827647.918    93475423.6824   22827647.914  
                
  23114582.500   121467961.595    23114591.379    94650412.2694   23114591.867  
                
  24124973.938   126777597.448    24124982.566    98787786.7594   24124982.453  
                
  20212772.000   108200568.477                    84156014.816    20212775.906  
  20212771.004  
  20692957.000   108742271.158    20692965.410    84734298.0884   20692965.543  
                
  22385318.336   117635674.888    22385326.754    91664214.7944   22385326.625  
                
  20101729.547   107342087.031                    83488364.000    20101732.273  
  20101727.762  
  19401481.570   103530050.478                    80523370.757    19401484.555  
  19401479.578  
 21  8 15 19 36 10.0000000  0 13G13G14R12G20G 7G 5G 8G27R 3G30G 9R13
                                R 2
  23572261.523   123873104.232    23572267.637    96524506.4914                 
                
  22023341.750   115733462.440    22023348.766    90181955.5934   22023348.711  
                
  19637990.906   104902667.838                    81590972.066    19637994.027  
  19637990.480  
  22053571.383   115892309.543    22053577.426    90305730.7494                 
                
  20937699.000   110028394.426    20937704.473    85736470.1644   20937704.410  
                
  22825607.039   119949391.488    22825613.574    93467093.2904   22825613.547  
                
  23113829.172   121464002.916    23113838.012    94647327.5844   23113838.539  
                
  24127378.203   126790231.888    24127386.820    98797631.7844   24127386.703  
                
  20208312.102   108176694.311                    84137446.011    20208316.004  
  20208311.109  
  20691452.297   108734363.938    20691460.695    84728136.6174   20691460.836  
                
  22390844.602   117664715.568    22390853.012    91686843.8904   22390852.906  
                
  20098264.367   107323583.185                    83473972.116    20098267.109  
  20098262.578  
  19404970.094   103548665.876                    80537849.393    19404973.070  
  19404968.121  
 21  8 15 19 36 20.0000000  0 13G13G14R12G20G 7G 5G 8G27R 3G30G 9R13
                                R 2
  23566023.930   123840325.509    23566030.008    96498964.6304                 
                
  22017605.031   115703315.767    22017612.105    90158464.6834   22017612.020  
                
  19641336.891   104920541.474                    81604873.786    19641340.004  
  19641336.473  
  22055692.609   115903456.635    22055698.695    90314416.7794                 
                
  20939710.031   110038962.418    20939715.492    85744704.9634   20939715.445  
                
  22823584.992   119938765.529    22823591.547    93458813.3194   22823591.508  
                
  23113088.203   121460109.134    23113096.969    94644293.4724   23113097.539  
                
  24129794.727   126802930.725    24129803.340    98807526.9904   24129803.223  
                
  20203864.641   108152886.678                    84118928.961    20203868.539  
  20203863.641  
  20689953.891   108726489.767    20689962.285    84722000.9024   20689962.422  
                
  22396377.094   117693788.962    22396385.551    91709498.4654   22396385.434  
                
  20094809.414   107305133.944                    83459622.715    20094812.160  
  20094807.609  
  19408473.445   103567360.360                    80552389.538    19408476.426  
  19408471.480  
 21  8 15 19 36 30.0000000  0 13G13G14R12G20G 7G 5G 8G27R 3G30G 9R13
                                R 2
  23559788.180   123807556.573    23559794.266    96473430.4144                 
                
  22011875.336   115673205.982    22011882.430    90135002.5064   22011882.336  
                
  19644691.594   104938461.713                    81618811.748    19644694.699  
  19644691.172  
  22057825.430   115914664.682    22057831.543    90323150.3234                 
                
  20941725.977   110049556.266    20941731.438    85752959.9084   20941731.398  
                
  22821575.242   119928204.201    22821581.812    93450583.7184   22821581.750  
                
  23112359.586   121456280.268    23112368.293    94641309.9484   23112368.918  
                
  24132223.445   126815693.719    24132232.035    98817472.1834   24132231.910  
                
  20199429.617   108129145.693                    84100463.744    20199433.516  
  20199428.625  
  20688461.734   108718648.453    20688470.125    84715890.7824   20688470.254  
                
  22401915.773   117722894.812    22401924.246    91732178.3434   22401924.117  
                
  20091364.617   107286739.047                    83445315.559    20091367.379  
  20091362.781  
  19411991.586   103586133.767                    80566991.076    19411994.555  
  19411989.645  
 21  8 15 19 36 40.0000000  0 13G13G14R12G20G 7G 5G 8G27R 3G30G 9R13
                                R 2
  23553554.328   123774797.628    23553560.434    96447903.9954                 
                
  22006152.680   115643133.249    22006159.762    90111569.2074   22006159.680  
                
  19648055.047   104956428.682                    81632786.064    19648058.152  
  19648054.605  
  22059969.867   115925933.807    22059975.977    90331931.4584                 
                
  20943746.859   110060176.073    20943752.324    85761235.0854   20943752.281  
                
  22819577.781   119917707.505    22819584.367    93442404.4874   22819584.289  
                
  23111643.305   121452516.239    23111652.000    94638376.9544   23111652.641  
                
  24134664.375   126828520.946    24134672.887    98827467.4204   24134672.793  
                
  20195007.078   108105471.468                    84082050.472    20195010.961  
  20195006.070  
  20686975.844   108710840.120    20686984.250    84709806.3634   20686984.359  
                
  22407460.633   117752033.212    22407469.113    91754883.5834   22407468.980  
                
  20087930.016   107268398.575                    83431050.748    20087932.781  
  20087928.176  
  19415524.461   103604985.858                    80581653.815    19415527.445  
  19415522.535  
 21  8 15 19 36 50.0000000  0 13G13G14R12G20G 7G 5G 8G27R 3G30G 9R13
                                R 2
  23547322.391   123742048.767    23547328.512    96422385.4134                 
                
  22000437.117   115613097.741    22000444.199    90088164.9084   22000444.117  
                
  19651427.250   104974442.380                    81646796.710    19651430.355  
  19651426.797  
  22062125.945   115937264.027    22062132.047    90340760.2024                 
                
  20945772.719   110070822.008    20945778.188    85769530.6124   20945778.148  
                
  22817592.664   119907275.646    22817599.293    93434275.7714   22817599.191  
                
  23110939.414   121448817.238    23110948.109    94635494.6234   23110948.742  
                
  24137117.547   126841412.436    24137126.023    98837512.7514   24137125.980  
                
  20190597.078   108081864.371                    84063689.388    20190600.953  
  20190596.074  
  20685496.258   108703064.839    20685504.684    84703747.7084   20685504.781  
                
  22413011.703   117781204.214    22413020.203    91777614.2204   22413020.062  
                
  20084505.641   107250112.640                    83416828.361    20084508.410  
  20084503.816  
  19419072.133   103623916.861                    80596377.916    19419075.121  
  19419070.219  
 21  8 15 19 37  0.0000000  0 13G13G14R12G20G 7G 5G 8G27R 3G30G 9R13
                                R 2
  23541092.406   123709310.025    23541098.594    96396874.7474                 
                
  21994728.633   115583099.425    21994735.723    90064789.5954   21994735.625  
                
  19654808.180   104992502.728                    81660843.646    19654811.270  
  19654807.738  
  22064293.609   115948655.144    22064299.711    90349636.3934                 
                
  20947803.500   110081493.858    20947808.977    85777846.3444   20947808.938  
                
  22815619.867   119896908.551    22815626.578    93426197.5174   22815626.434  
                
  23110247.867   121445183.160    23110256.570    94632662.8764   23110257.188  
