     2.11           OBSERVATION DATA    M (MIXED)           RINEX VERSION / TYPE
EFT-CORS.RU                             20210817 150649 UTC PGM / RUN BY / DATE 
MDNG                                                        MARKER NAME         
                                                            MARKER NUMBER       
MDNG                EFT-CORS.RU                             OBSERVER / AGENCY   
0                   TRIMBLE BD970       2.0                 REC # / TYPE / VERS 
0                   UNKNOWN EXT NONE                        ANT # / TYPE        
  3463911.2830  3030468.2400  4402179.3760                  APPROX POSITION XYZ 
        0.0000        0.0000        0.0000                  ANTENNA: DELTA H/E/N
     1     1                                                WAVELENGTH FACT L1/2
     6    C1    L1    P2    L2    C2    P1                  # / TYPES OF OBSERV 
    10.000                                                  INTERVAL            
  2021     8    14    16    30    0.0000000     GPS         TIME OF FIRST OBS   
  2021     8    14    17    30    0.0000000     GPS         TIME OF LAST OBS    
     0                                                      RCV CLOCK OFFS APPL 
                                                            END OF HEADER       
 21  8 14 16 30  0.0000000  0 16G 4R24R 7G26G 9R23G 7G 2G16G22R 8G 3
                                G 6R10R 9R 1
  20547315.375   107976902.930    20547323.105    84137900.8864   20547322.828  
                
  22815456.117   122004519.359                    94892391.249    22815461.152  
  22815455.043  
  20379598.211   109093610.797                    84850595.104    20379602.871  
  20379597.012  
  23070799.406   121237887.996    23070809.172    94471139.2814   23070809.023  
                
  20947388.172   110079305.348    20947396.484    85776132.5104   20947396.371  
                
  23172599.234   123957771.342                                                  
  23172597.438  
  22627951.164   118910718.020    22627958.508    92657746.6844   22627958.430  
                
  25030221.805   131534716.544    25030227.398   102494598.8524                 
                
  22391840.734   117669943.141    22391846.953    91690899.9734                 
                
  23794197.336   125039351.834    23794202.512    97433290.2194                 
                
  19775871.734   105898920.770                    82365855.241    19775873.898  
  19775871.074  
  22033829.398   115788573.972    22033838.887    90224909.4484   22033839.082  
                
  22693457.930   119254943.319    22693467.879    92925967.7184   22693468.250  
                
  19829292.836   105701313.771                                                  
  19829291.844  
  20333878.117   108581807.136                    84452522.490    20333880.527  
  20333877.359  
  22486548.375   120203493.438                    93491604.886    22486554.004  
  22486547.594  
 21  8 14 16 30 10.0000000  0 16G 4R24R 7G26G 9R23G 7G 2G16G22R 8G 3
                                G 6R10R 9R 1
  20548616.070   107983738.138    20548623.781    84143227.0114   20548623.516  
                
  22817106.891   122013346.811                    94899257.028    22817111.957  
  22817105.859  
  20382870.633   109111128.315                    84864219.832    20382875.316  
  20382869.430  
  23073115.492   121250059.067    23073125.270    94480623.2344   23073125.137  
                
  20944653.734   110064935.769    20944662.047    85764935.4354   20944661.938  
                
  23178620.266   123989979.265                                                  
  23178618.387  
  22622736.531   118883314.920    22622743.812    92636393.6194   22622743.754  
                
  25027503.641   131520432.596    25027509.102   102483468.4914                 
                
  22389261.953   117656391.589    22389268.203    91680340.3264                 
                
  23800619.953   125073103.278    23800625.125    97459590.0374                 
                
  19773243.789   105884848.237                    82354909.936    19773245.949  
  19773243.141  
  22039362.867   115817652.459    22039372.383    90247567.9914   22039372.547  
                
  22694098.945   119258311.861    22694108.918    92928592.5424   22694109.281  
                
  19825143.797   105679197.119                                                  
  19825142.812  
  20337212.562   108599612.966                    84466371.463    20337214.973  
  20337211.793  
  22480259.516   120169875.874                    93465457.903    22480265.113  
  22480258.730  
 21  8 14 16 30 20.0000000  0 16G 4R24R 7G26G 9R23G 7G 2G16G22R 8G 3
                                G 6R10R 9R 1
  20549922.969   107990605.920    20549930.660    84148578.5294   20549930.406  
                
  22818772.875   122022255.595                    94906186.060    22818777.930  
  22818771.852  
  20386151.227   109128689.590                    84877878.592    20386155.934  
  20386150.023  
  23075443.531   121262293.007    23075453.348    94490156.1814   23075453.203  
                
  20941924.922   110050595.768    20941933.246    85753761.4114   20941933.117  
                
  23184649.336   124022229.890                                                  
  23184647.316  
  22617527.375   118855940.676    22617534.602    92615063.0444   22617534.555  
                
  25024794.734   131506197.330    25024800.051   102472376.0254                 
                
  22386695.578   117642905.216    22386701.848    91669831.4774                 
                
  23807046.367   125106874.114    23807051.480    97485904.9604                 
                
  19770623.109   105870814.675                    82343994.949    19770625.270  
  19770622.477  
  22044903.445   115846768.319    22044913.008    90270255.6644   22044913.133  
                
  22694752.414   119261745.867    22694762.387    92931268.3914   22694762.738  
                
  19821009.727   105657160.278                                                  
  19821008.734  
  20340561.750   108617497.472                    84480281.631    20340564.176  
  20340560.988  
  22473971.648   120136263.721                    93439315.116    22473977.242  
  22473970.867  
 21  8 14 16 30 30.0000000  0 16G 4R24R 7G26G 9R23G 7G 2G16G22R 8G 3
                                G 6R10R 9R 1
  20551236.023   107997506.023    20551243.691    84153955.2314   20551243.449  
                
  22820453.992   122031245.228                    94913178.010    22820458.977  
  22820453.008  
  20389439.938   109146294.319                    84891571.177    20389444.648  
  20389438.711  
  23077783.484   121274589.524    23077793.324    94499737.8884   23077793.184  
                
  20939201.695   110036285.135    20939210.027    85742610.2764   20939209.891  
                
  23190686.109   124054523.062                                                  
  23190684.176  
  22612323.695   118828595.077    22612330.879    92593754.7874   22612330.848  
                
  25022095.070   131492010.478    25022100.289   102461321.3524                 
                
  22384141.609   117629484.002    22384147.930    91659373.3844                 
                
  23813476.406   125140664.072    23813481.473    97512234.7884                 
                
  19768009.680   105856819.886                    82333110.115    19768011.840  
  19768009.062  
  22050451.078   115875921.240    22050460.633    90292972.2214   22050460.750  
                
  22695418.289   119265245.051    22695428.211    92933995.0294   22695428.578  
                
  19816890.586   105635202.925                                                  
  19816889.594  
  20343925.570   108635460.110                    84494252.575    20343928.012  
  20343924.797  
  22467684.727   120102656.549                    93413176.230    22467690.355  
  22467683.926  
 21  8 14 16 30 40.0000000  0 16G 4R24R 7G26G 9R23G 7G 2G16G22R 8G 3
                                G 6R10R 9R 1
  20552555.203   108004438.327    20552562.840    84159357.0264   20552562.609  
                
  22822150.234   122040315.653                    94920232.783    22822155.148  
  22822149.293  
  20392736.781   109163942.618                    84905297.628    20392741.523  
  20392735.520  
  23080135.328   121286948.488    23080145.180    94509368.2544   23080145.027  
                
  20936484.055   110022003.794    20936492.383    85731481.9534   20936492.223  
                
  23196731.016   124086858.304                                                  
  23196729.043  
  22607125.422   118801278.011    22607132.594    92572468.7644   22607132.531  
                
  25019404.625   131477872.085    25019409.742   102450304.4254                 
                
  22381600.031   117616127.940    22381606.395    91648966.0684                 
                
  23819910.078   125174472.965    23819915.047    97538579.3754                 
                
  19765403.438   105842863.581                    82322255.209    19765405.605  
  19765402.809  
  22056005.750   115905111.083    22056015.254    90315717.5464   22056015.398  
                
  22696096.562   119268809.302    22696106.430    92936772.3644   22696106.824  
                
  19812786.344   105613325.098                                                  
  19812785.344  
  20347304.016   108653500.863                    84508284.257    20347306.469  
  20347303.230  
  22461398.734   120069054.412                    93387041.266    22461404.395  
  22461397.926  
 21  8 14 16 30 50.0000000  0 16G 4R24R 7G26G 9R23G 7G 2G16G22R 8G 3
                                G 6R10R 9R 1
  20553880.562   108011403.165    20553888.176    84164784.1774   20553887.957  
                
  22823861.617   122049467.116                    94927350.595    22823866.504  
  22823860.676  
  20396041.797   109181634.640                    84919058.094    20396046.551  
  20396040.520  
  23082499.086   121299370.187    23082508.961    94519047.4864   23082508.809  
                
  20933772.039   110007752.088    20933780.363    85720376.7334   20933780.199  
                
  23202783.883   124119235.769                                                  
  23202781.734  
  22601932.656   118773989.876    22601939.805    92551205.2884   22601939.738  
                
  25016723.438   131463782.402    25016728.512   102439325.4444                 
                
  22379070.914   117602837.381    22379077.277    91638609.7894                 
                
  23826347.406   125208301.008    23826352.270    97564938.8914                 
                
  19762804.516   105828946.479                    82311430.793    19762806.688  
  19762803.887  
  22061567.477   115934338.087    22061576.949    90338491.8294   22061577.098  
                
  22696787.258   119272438.901    22696797.102    92939600.6304   22696797.496  
                
  19808697.109   105591527.246                                                  
  19808696.078  
  20350697.102   108671619.798                    84522376.768    20350699.586  
  20350696.316  
  22455113.742   120035457.727                    93360910.508    22455119.398  
  22455112.922  
 21  8 14 16 31  0.0000000  0 16G 4R24R 7G26G 9R23G 7G 2G16G22R 8G 3
                                G 6R10R 9R 1
  20555212.117   108018400.479    20555219.703    84170236.6244   20555219.500  
                
  22825588.156   122058699.615                    94934531.395    22825593.031  
  22825587.207  
  20399354.992   109199370.413                    84932852.568    20399359.754  
  20399353.707  
  23084874.781   121311854.486    23084884.668    94528775.5194   23084884.508  
                
  20931065.656   109993529.967    20931073.980    85709294.5654   20931073.809  
                
  23208844.297   124151655.243                                                  
  23208842.188  
  22596745.414   118746730.735    22596752.527    92529964.3964   22596752.484  
                
  25014051.570   131449741.547    25014056.582   102428384.5064                 
                
  22376554.273   117589612.302    22376560.660    91628304.5364                 
                
  23832788.367   125242148.111    23832793.109    97591313.2604                 
                
  19760212.969   105815068.818                    82300637.055    19760215.148  
  19760212.355  
  22067136.273   115963602.175    22067145.758    90361295.0034   22067145.902  
                
  22697490.383   119276133.803    22697500.195    92942479.7634   22697500.594  
                
  19804622.945   105569809.705                                                  
  19804621.891  
  20354104.844   108689816.959                    84536530.125    20354107.336  
  20354104.035  
  22448829.789   120001866.546                    93334784.050    22448835.441  
  22448828.941  
 21  8 14 16 31 10.0000000  0 16G 4R24R 7G26G 9R23G 7G 2G16G22R 8G 3
                                G 6R10R 9R 1
  20556549.812   108025430.111    20556557.375    84175714.2584   20556557.180  
                
  22827329.750   122068012.653                    94941774.886    22827334.629  
  22827328.812  
  20402676.336   109217149.865                    84946681.035    20402681.105  
  20402675.043  
  23087262.367   121324401.247    23087272.254    94538552.2254   23087272.078  
                
  20928364.883   109979337.348    20928373.211    85698235.3844   20928373.035  
                
  23214912.539   124184116.541                                                  
  23214910.453  
  22591563.664   118719500.458    22591570.781    92508746.0004   22591570.746  
                
  25011388.953   131435749.409    25011393.973   102417481.5604                 
                
  22374050.055   117576452.608    22374056.473    91618050.2424                 
                
  23839232.906   125276014.171    23839237.629    97617702.3964                 
                
  19757628.648   105801229.942                    82289873.490    19757630.828  
  19757628.051  
  22072712.062   115992903.112    22072721.551    90384126.8924   22072721.688  
                
  22698205.898   119279893.802    22698215.691    92945409.6454   22698216.082  
                
  19800563.727   105548171.842                                                  
  19800562.656  
  20357527.125   108708091.830                    84550743.892    20357529.625  
  20357526.305  
  22442546.836   119968280.693                    93308661.715    22442552.477  
  22442546.004  
 21  8 14 16 31 20.0000000  0 16G 4R24R 7G26G 9R23G 7G 2G16G22R 8G 3
                                G 6R10R 9R 1
  20557893.711   108032492.293    20557901.250    84181217.2554   20557901.070  
                
  22829086.453   122077406.511                    94949081.224    22829091.359  
  22829085.480  
  20406005.867   109234973.089                    84960543.534    20406010.637  
  20406004.566  
  23089661.875   121337010.639    23089671.781    94548377.7254   23089671.574  
                
  20925669.789   109965174.468    20925678.133    85687199.3814   20925677.941  
                
  23220988.484   124216619.682                                                  
  23220986.527  
  22586387.477   118692299.368    22586394.613    92487550.3504   22586394.551  
                
  25008735.680   131421806.300    25008740.688   102406616.8204                 
                
  22371558.352   117563358.642    22371564.793    91607847.1524                 
                
  23845681.062   125309899.235    23845685.840    97644106.3264                 
                
  19755051.742   105787430.667                    82279140.725    19755053.918  
  19755051.145  
  22078294.914   116022241.103    22078304.371    90406987.6584   22078304.527  
                
  22698933.852   119283719.131    22698943.641    92948390.4184   22698944.012  
                
  19796519.617   105526614.529                                                  
  19796518.543  
  20360964.039   108726444.780                    84565018.412    20360966.570  
  20360963.227  
  22436264.984   119934700.511                    93282543.820    22436270.609  
  22436264.176  
 21  8 14 16 31 30.0000000  0 16G 4R24R 7G26G 9R23G 7G 2G16G22R 8G 3
                                G 6R10R 9R 1
  20559243.727   108039586.680    20559251.258    84186745.3474   20559251.082  
                
  22830858.227   122086880.963                    94956450.216    22830863.129  
  22830857.273  
  20409343.523   109252839.811                    84974439.875    20409348.258  
  20409342.238  
  23092073.211   121349682.304    23092083.141    94558251.7504   23092082.887  
                
  20922980.281   109951041.031    20922988.633    85676186.3194   20922988.410  
                
  23227072.406   124249164.048                                                  
  23227070.406  
  22581216.766   118665127.131    22581223.918    92466377.1744   22581223.852  
                
  25006091.680   131407911.928    25006096.680   102395790.0394                 
                
  22369079.086   117550330.099    22369085.531    91597695.0444                 
                
  23852132.711   125343802.917    23852137.613    97670524.7554                 
                
  19752482.109   105773670.429                    82268438.318    19752484.301  
  19752481.504  
  22083884.727   116051615.742    22083894.117    90429876.9744   22083894.309  
                
  22699674.148   119287609.405    22699683.965    92951421.7994   22699684.309  
                
  19792490.516   105505137.193                                                  
  19792489.422  
  20364415.500   108744875.397                    84579353.340    20364418.047  
  20364414.703  
  22429984.086   119901125.632                    93256430.040    22429989.762  
  22429983.305  
 21  8 14 16 31 40.0000000  0 16G 4R24R 7G26G 9R23G 7G 2G16G22R 8G 3
                                G 6R10R 9R 1
  20560599.922   108046713.507    20560607.461    84192298.7154   20560607.277  
                
  22832645.086   122096435.983                    94963881.881    22832649.965  
  22832644.156  
  20412689.367   109270750.343                    84988370.294    20412694.086  
  20412688.074  
  23094496.453   121362416.423    23094506.402    94568174.4364   23094506.105  
                
  20920296.422   109936937.276    20920304.773    85665196.3854   20920304.559  
                
  23233163.898   124281749.806                                                  
  23233161.934  
  22576051.602   118637984.015    22576058.789    92445226.7024   22576058.703  
                
  25003456.992   131394066.568    25003462.023   102385001.4344                 
                
  22366612.328   117537367.305    22366618.762    91587594.1794                 
                
  23858587.945   125377725.440    23858592.977    97696957.8614                 
                
  19749919.844   105759949.584                    82257766.548    19749922.039  
  19749919.242  
  22089481.555   116081027.216    22089490.891    90452795.0024   22089491.102  
                
  22700426.859   119291564.854    22700436.711    92954503.9644   22700437.066  
                
  19788476.539   105483740.476                                                  
  19788475.434  
  20367881.508   108763383.678                    84593748.674    20367884.070  
  20367880.707  
  22423704.242   119867556.486                    93230320.712    22423709.957  
  22423703.461  
 21  8 14 16 31 50.0000000  0 16G 4R24R 7G26G 9R23G 7G 2G16G22R 8G 3
                                G 6R10R 9R 1
  20561962.234   108053872.506    20561969.781    84197877.1534   20561969.590  
                
  22834446.961   122106071.357                    94971376.073    22834451.848  
  22834446.004  
  20416043.320   109288704.331                    85002334.506    20416048.020  
  20416042.031  
  23096931.508   121375212.705    23096941.469    94578145.5684   23096941.148  
                
  20917618.172   109922862.995    20917626.512    85654229.4224   20917626.305  
                
  23239263.125   124314376.538                                                  
  23239261.156  
  22570891.930   118610869.770    22570899.188    92424098.7244   22570899.078  
                
  25000831.586   131380269.991    25000836.625   102374250.8594                 
                
  22364158.023   117524469.996    22364164.449    91577544.3414                 
                
  23865046.672   125411666.416    23865051.816    97723405.3574                 
                
  19747364.898   105746267.980                    82247125.313    19747367.105  
  19747364.297  
  22095085.328   116110475.200    22095094.633    90475741.4794   22095094.859  
                
  22701191.906   119295585.175    22701201.770    92957636.6754   22701202.137  
                
  19784477.578   105462423.852                                                  
  19784476.461  
  20371361.977   108781969.224                    84608204.089    20371364.566  
  20371361.160  
  22417425.469   119833992.876                    93204215.680    22417431.258  
  22417424.691  
 21  8 14 16 32  0.0000000  0 16G 4R24R 7G26G 9R23G 7G 2G16G22R 8G 3
                                G 6R10R 9R 1
  20563330.719   108061063.929    20563338.266    84203480.8584   20563338.078  
                
  22836263.898   122115787.349                    94978932.924    22836268.828  
  22836262.922  
  20419405.477   109306702.221                    85016332.854    20419410.141  
  20419404.168  
  23099378.430   121388071.361    23099388.340    94588165.3034   23099388.043  
                
  20914945.594   109908818.469    20914953.918    85643285.6414   20914953.703  
                
  23245369.914   124347044.247                                                  
  23245368.027  
  22565737.828   118583784.790    22565745.160    92402993.5544   22565745.016  
                
  24998215.516   131366522.405    24998220.574   102363538.4644                 
                
  22361716.281   117511638.625    22361722.676    91567545.8914                 
                
  23871508.945   125445626.096    23871514.184    97749867.4074                 
                
  19744817.352   105732625.974                    82236514.855    19744819.570  
  19744816.750  
  22100696.094   116139959.908    22100705.375    90498716.5624   22100705.609  
                
  22701969.344   119299670.603    22701979.203    92960820.1244   22701979.582  
                
  19780493.750   105441187.836                                                  
  19780492.645  
  20374856.953   108800632.200                    84622719.731    20374859.555  
  20374856.141  
  22411147.773   119800434.939                    93178115.079    22411153.578  
  22411147.031  
 21  8 14 16 32 10.0000000  0 16G 4R24R 7G26G 9R23G 7G 2G16G22R 8G 3
                                G 6R10R 9R 1
  20564705.352   108068287.655    20564712.891    84209109.7304   20564712.715  
                
  22838095.820   122125583.493                    94986552.104    22838100.809  
  22838094.852  
  20422775.758   109324743.589                    85030365.025    20422780.402  
  20422774.426  
  23101837.180   121400992.223    23101847.020    94598233.5034   23101846.770  
                
  20912278.648   109894803.562    20912286.953    85632364.9314   20912286.746  
                
  23251484.352   124379752.736                                                  
  23251482.535  
  22560589.273   118556728.896    22560596.664    92381911.0054   22560596.508  
                
  24995608.766   131352823.768    24995613.812   102352864.1854                 
                
  22359287.086   117498873.174    22359293.449    91557598.7834                 
                
  23877974.750   125479604.245    23877980.031    97776343.8754                 
                
  19742277.219   105719023.660                    82225935.280    19742279.434  
  19742276.645  
  22106313.805   116169481.144    22106323.086    90521720.1134   22106323.312  
                
  22702759.148   119303820.995    22702768.984    92964054.1894   22702769.383  
                
  19776525.016   105420032.336                                                  
  19776523.926  
  20378366.414   108819372.509                    84637295.522    20378369.031  
  20378365.602  
  22404871.125   119766882.843                    93152019.010    22404876.914  
  22404870.383  
 21  8 14 16 32 20.0000000  0 16G 4R24R 7G26G 9R23G 7G 2G16G22R 8G 3
                                G 6R10R 9R 1
  20566086.148   108075543.764    20566093.684    84214763.8444   20566093.508  
                
  22839942.797   122135460.093                    94994233.903    22839947.820  
  22839941.871  
  20426154.203   109342828.724                    85044431.227    20426158.824  
  20426152.859  
  23104307.781   121413975.362    23104317.605    94608350.2444   23104317.355  
                
  20909617.367   109880818.435    20909625.656    85621467.4334   20909625.438  
                
  23257606.469   124412501.795                                                  
  23257604.645  
  22555446.289   118529702.389    22555453.742    92360851.4654   22555453.586  
                
  24993011.367   131339174.233    24993016.434   102342228.1774                 
                
  22356870.453   117486173.765    22356876.812    91547703.1414                 
                
  23884444.117   125513600.938    23884449.348    97802834.7944                 
                
  19739744.461   105705460.852                    82215386.434    19739746.684  
  19739743.902  
  22111938.469   116199038.928    22111947.758    90544752.1564   22111947.996  
                
  22703561.336   119308036.394    22703571.121    92967338.9174   22703571.539  
                
  19772571.461   105398957.660                                                  
  19772570.383  
  20381890.336   108838190.073                    84651931.415    20381892.969  
  20381889.543  
  22398595.602   119733336.670                    93125927.577    22398601.430  
  22398594.863  
 21  8 14 16 32 30.0000000  0 16G 4R24R 7G26G 9R23G 7G 2G16G22R 8G 3
                                G 6R10R 9R 1
  20567473.094   108082832.151    20567480.629    84220443.0984   20567480.449  
                
  22841804.742   122145416.708                    95001977.958    22841809.797  
  22841803.812  
  20429540.836   109360957.630                    85058531.480    20429545.441  
  20429539.488  
  23106790.195   121427020.597    23106800.035    94618515.3654   23106799.750  
                
  20906961.734   109866862.979    20906970.008    85610593.0504   20906969.789  
                
  23263736.133   124445291.317                                                  
  23263734.305  
  22550308.844   118502704.946    22550316.328    92339814.5024   22550316.172  
                
  24990423.297   131325573.804    24990428.391   102331630.4244                 
                
  22354466.398   117473540.415    22354472.770    91537858.9864                 
                
  23890917.070   125547615.993    23890922.195    97829340.0124                 
                
  19737219.125   105691937.741                    82204868.467    19737221.352  
  19737218.566  
  22117570.070   116228633.123    22117579.336    90567812.5684   22117579.586  
                
  22704375.859   119312316.684    22704385.621    92970674.1994   22704386.043  
                
  19768633.078   105377963.949                                                  
  19768631.992  
  20385428.688   108857084.650                    84666627.212    20385431.324  
  20385427.910  
  22392321.188   119699796.370                    93099840.694    22392327.043  
  22392320.418  
 21  8 14 16 32 40.0000000  0 16G 4R24R 7G26G 9R23G 7G 2G16G22R 8G 3
                                G 6R10R 9R 1
  20568866.156   108090152.721    20568873.688    84226147.4424   20568873.504  
                
  22843681.625   122155453.299                    95009784.158    22843686.684  
  22843680.699  
  20432935.586   109379130.056                    85072665.595    20432940.176  
  20432934.223  
  23109284.422   121440127.854    23109294.270    94628728.8054   23109293.949  
                
  20904311.734   109852937.151    20904319.996    85599741.7584   20904319.766  
                
  23269873.406   124478120.925                                                  
  23269871.473  
  22545176.953   118475736.686    22545184.473    92318800.2824   22545184.312  
                
  24987844.547   131312022.365    24987849.680   102321070.8694                 
                
  22352074.906   117460973.163    22352081.289    91528066.3234                 
                
  23897393.531   125581649.261    23897398.547    97855859.4424                 
                
  19734701.180   105678454.292                    82194381.338    19734703.410  
  19734700.625  
  22123208.570   116258263.588    22123217.824    90590901.2394   22123218.066  
                
  22705202.695   119316661.734    22705212.465    92974059.9524   22705212.879  
                
  19764709.797   105357050.723                                                  
  19764708.719  
  20388981.445   108876056.196                    84681382.850    20388984.090  
  20388980.668  
  22386047.875   119666261.905                    93073758.346    22386053.730  
  22386047.078  
 21  8 14 16 32 50.0000000  0 16G 4R24R 7G26G 9R23G 7G 2G16G22R 8G 3
                                G 6R10R 9R 1
  20570265.383   108097505.709    20570272.918    84231877.0374   20570272.734  
                
  22845573.539   122165570.107                    95017652.765    22845578.613  
  22845572.668  
  20436338.492   109397346.130                    85086833.645    20436343.082  
  20436337.105  
  23111790.469   121453297.249    23111800.285    94638990.6794   23111799.965  
                
  20901667.422   109839041.179    20901675.676    85588913.7324   20901675.430  
                
  23276017.969   124510990.718                                                  
  23276016.105  
  22540050.680   118448797.879    22540058.227    92297809.0094   22540058.047  
                
  24985275.180   131298520.208    24985280.320   102310549.7004                 
                
  22349696.008   117448472.043    22349702.387    91518325.1984                 
                
  23903873.430   125615700.858    23903878.406    97882393.1424                 
                
  19732190.711   105665010.878                    82183925.354    19732192.953  
  19732190.156  
  22128853.992   116287930.483    22128863.238    90614018.2854   22128863.484  
                
  22706041.898   119321071.754    22706051.676    92977496.3194   22706052.098  
                
  19760801.727   105336218.548                                                  
  19760800.664  
  20392548.609   108895104.606                    84696198.272    20392551.262  
  20392547.844  
  22379775.719   119632733.558                    93047680.721    22379781.512  
  22379774.906  
 21  8 14 16 33  0.0000000  0 16G 4R24R 7G26G 9R23G 7G 2G16G22R 8G 3
                                G 6R10R 9R 1
  20571670.797   108104891.125    20571678.332    84237631.9044   20571678.141  
                
  22847480.383   122175766.828                    95025583.580    22847485.477  
  22847479.555  
  20439749.602   109415606.092                    85101035.835    20439754.195  
  20439748.195  
  23114308.344   121466528.796    23114318.102    94649300.9884   23114317.805  
                
  20899028.805   109825175.142    20899037.059    85578109.0314   20899036.809  
                
  23282170.219   124543900.560                                                  
  23282168.223  
  22534930.031   118421888.586    22534937.605    92276840.7284   22534937.398  
                
  24982715.227   131285067.486    24982720.324   102300067.0564                 
                
  22347329.742   117436037.267    22347336.121    91508635.7804                 
                
  23910356.742   125649770.810    23910361.777    97908941.1474                 
                
  19729687.695   105651607.319                    82173500.362    19729689.949  
  19729687.137  
  22134506.344   116317633.769    22134515.559    90637163.6984   22134515.824  
                
  22706893.461   119325546.734    22706903.234    92980983.3114   22706903.664  
                
  19756908.891   105315467.524                                                  
  19756907.836  
  20396130.164   108914229.835                    84711073.454    20396132.832  
  20396129.410  
  22373504.711   119599211.397                    93021607.951    22373510.504  
  22373503.891  
 21  8 14 16 33 10.0000000  0 16G 4R24R 7G26G 9R23G 7G 2G16G22R 8G 3
                                G 6R10R 9R 1
  20573082.336   108112308.807    20573089.867    84243411.9114   20573089.672  
                
  22849402.203   122186043.705                    95033576.727    22849407.270  
  22849401.332  
  20443168.859   109433909.730                    85115271.993    20443173.457  
  20443167.434  
  23116838.016   121479822.328    23116847.723    94659659.5824   23116847.438  
                
  20896395.844   109811338.878    20896404.102    85567327.5344   20896403.859  
                
  23288329.633   124576850.183                                                  
  23288327.766  
  22529814.961   118395008.735    22529822.551    92255895.3874   22529822.336  
                
  24980164.609   131271663.923    24980169.641   102289622.7074                 
                
  22344976.109   117423668.979    22344982.496    91498998.1634                 
                
  23916843.508   125683858.875    23916848.562    97935503.2614                 
                
  19727192.164   105638243.874                    82163106.578    19727194.418  
  19727191.609  
  22140165.570   116347373.228    22140174.742    90660337.3024   22140175.047  
                
  22707757.352   119330086.502    22707767.105    92984520.7784   22707767.527  
                
  19753031.266   105294797.691                                                  
  19753030.199  
  20399726.078   108933431.820                    84726008.333    20399728.758  
  20399725.340  
  22367234.828   119565695.423                    92995539.990    22367240.625  
  22367234.016  
 21  8 14 16 33 20.0000000  0 16G 4R24R 7G26G 9R23G 7G 2G16G22R 8G 3
                                G 6R10R 9R 1
  20574500.008   108119758.666    20574507.547    84249217.0014   20574507.355  
                
  22851338.906   122196400.116                    95041631.719    22851343.969  
  22851338.023  
  20446596.266   109452256.939                    85129542.041    20446600.863  
  20446594.820  
  23119379.445   121493177.659    23119389.109    94670066.3354   23119388.820  
                
  20893768.555   109797532.362    20893776.805    85556569.2094   20893776.562  
                
  23294496.742   124609839.146                                                  
  23294494.773  
  22524705.492   118368158.341    22524713.090    92234973.0114   22524712.879  
                
  24977623.383   131258309.627    24977628.363   102279216.7864                 
                
  22342635.148   117411367.129    22342641.531    91489412.3044                 
                
  23923333.664   125717964.993    23923338.730    97962079.4394                 
                
  19724704.109   105624920.483                    82152743.947    19724706.371  
  19724703.539  
  22145831.656   116377148.735    22145840.805    90683538.9914   22145841.141  
                
  22708633.539   119334690.908    22708643.258    92988108.6204   22708643.691  
                
  19749168.883   105274209.033                                                  
  19749167.812  
  20403336.289   108952710.135                    84741002.582    20403338.996  
  20403335.539  
  22360966.109   119532185.606                    92969476.797    22360971.855  
  22360965.312  
 21  8 14 16 33 30.0000000  0 16G 4R24R 7G26G 9R23G 7G 2G16G22R 8G 3
                                G 6R10R 9R 1
  20575923.836   108127240.939    20575931.379    84255047.3434   20575931.184  
                
  22853290.547   122206836.394                    95049748.828    22853295.617  
  22853289.668  
  20450031.852   109470647.976                    85143846.173    20450036.430  
  20450030.395  
  23121932.688   121506595.029    23121942.262    94680521.4454   23121942.023  
                
  20891146.969   109783755.827    20891155.207    85545834.2504   20891154.961  
                
  23300671.078   124642867.769                                                  
  23300669.109  
  22519601.688   118341337.638    22519609.277    92214073.7714   22519609.062  
                
  24975091.547   131245004.830    24975096.508   102268849.4094                 
                
  22340306.859   117399131.953    22340313.238    91479878.4104                 
                
  23929827.195   125752089.227    23929832.320    97988669.7534                 
                
  19722223.570   105611637.347                    82142412.633    19722225.840  
  19722222.988  
  22151504.625   116406960.456    22151513.793    90706768.8914   22151514.145  
                
  22709522.070   119339360.177    22709531.734    92991747.0134   22709532.199  
                
  19745321.750   105253701.732                                                  
  19745320.660  
  20406960.844   108972065.090                    84756056.428    20406963.562  
  20406960.094  
  22354698.570   119498682.168                    92943418.597    22354704.309  
  22354697.781  
 21  8 14 16 33 40.0000000  0 16G 4R24R 7G26G 9R23G 7G 2G16G22R 8G 3
                                G 6R10R 9R 1
  20577353.773   108134755.251    20577361.309    84260902.6534   20577361.113  
                
  22855257.031   122217352.124                    95057927.691    22855262.121  
  22855256.121  
  20453475.562   109489082.476                    85158184.116    20453480.137  
  20453474.105  
  23124497.648   121520074.019    23124507.156    94691024.5344   23124506.941  
                
  20888531.023   109770008.956    20888539.246    85535122.3994   20888539.000  
                
  23306853.180   124675935.354                                                  
  23306850.918  
  22514503.453   118314546.170    22514511.051    92193197.2984   22514510.812  
                
  24972569.070   131231749.182    24972574.035   102258520.3404                 
                
  22337991.195   117386963.144    22337997.566    91470396.2334                 
                
  23936324.102   125786231.161    23936329.250    98015273.8484                 
                
  19719750.484   105598394.081                    82132112.301    19719752.742  
  19719749.887  
  22157184.406   116436807.980    22157193.621    90730026.6854   22157193.977  
                
  22710422.875   119344093.922    22710432.488    92995435.6374   22710432.969  
                
  19741489.844   105233275.558                                                  
  19741488.754  
  20410599.656   108991496.146                    84771169.467    20410602.387  
  20410598.898  
  22348432.172   119465184.751                    92917365.059    22348437.934  
  22348431.367  
 21  8 14 16 33 50.0000000  0 16G 4R24R 7G26G 9R23G 7G 2G16G22R 8G 3
                                G 6R10R 9R 1
  20578789.859   108142301.930    20578797.395    84266783.1844   20578797.211  
                
  22857238.414   122227947.566                    95066168.561    22857243.535  
  22857237.438  
  20456927.453   109507560.776                    85172556.114    20456932.027  
  20456925.984  
  23127074.383   121533614.904    23127083.918    94701575.8554   23127083.672  
                
  20885920.789   109756292.087    20885928.992    85524433.9364   20885928.762  
                
  23313042.203   124709042.087                                                  
  23313039.895  
  22509410.844   118287784.320    22509418.457    92172343.9114   22509418.195  
                
  24970056.047   131218543.097    24970061.020   102248229.8944                 
                
  22335688.250   117374861.114    22335694.648    91460966.0884                 
                
  23942824.438   125820391.077    23942829.652    98041891.9584                 
                
  19717284.969   105585191.375                    82121843.534    19717287.219  
  19717284.352  
  22162871.055   116466691.540    22162880.336    90753312.5664   22162880.676  
                
  22711336.008   119348892.426    22711345.578    92999174.7324   22711346.066  
                
  19737673.273   105212931.123                                                  
  19737672.180  
  20414252.758   109011003.547                    84786341.890    20414255.500  
  20414251.980  
  22342167.031   119431693.871                    92891316.610    22342172.793  
  22342166.238  
 21  8 14 16 34  0.0000000  0 16G 4R24R 7G26G 9R23G 7G 2G16G22R 8G 3
                                G 6R10R 9R 1
  20580232.078   108149880.808    20580239.602    84272688.7974   20580239.418  
                
  22859234.656   122238622.388                    95074471.201    22859239.781  
  22859233.684  
  20460387.484   109526082.574                    85186961.949    20460392.047  
  20460386.027  
  23129662.844   121547217.452    23129672.410    94712175.2454   23129672.145  
                
  20883316.234   109742605.075    20883324.426    85513768.7274   20883324.199  
                
  23319238.453   124742187.604                                                  
  23319236.176  
  22504323.852   118261052.012    22504331.484    92151513.5564   22504331.230  
                
  24967552.414   131205386.432    24967557.406   102237977.9394                 
                
  22333397.969   117362825.713    22333404.398    91451587.8734                 
                
  23949328.195   125854568.801    23949333.480    98068523.9294                 
                
  19714826.945   105572028.832                    82111606.008    19714829.191  
  19714826.320  
  22168564.523   116496610.934    22168573.844    90776626.3804   22168574.176  
                
  22712261.406   119353755.492    22712270.922    93002964.1354   22712271.422  
                
  19733871.977   105192668.146                                                  
  19733870.891  
  20417920.094   109030586.991                    84801573.456    20417922.848  
  20417919.301  
  22335903.047   119398209.362                    92865273.100    22335908.781  
  22335902.277  
 21  8 14 16 34 10.0000000  0 16G 4R24R 7G26G 9R23G 7G 2G16G22R 8G 3
                                G 6R10R 9R 1
  20581680.445   108157492.016    20581687.965    84278619.6094   20581687.789  
                
  22861245.773   122249376.687                    95082835.661    22861250.914  
  22861244.797  
  20463855.695   109544648.228                    85201401.904    20463860.277  
  20463854.246  
  23132263.062   121560881.798    23132272.660    94722822.7814   23132272.363  
                
  20880717.398   109728948.106    20880725.582    85503126.9384   20880725.359  
                
  23325441.938   124775371.869                                                  
  23325439.664  
  22499242.516   118234349.426    22499250.180    92130706.3554   22499249.926  
                
  24965058.227   131192279.380    24965063.219   102227764.6554                 
                
  22331120.430   117350857.178    22331126.852    91442261.7454                 
                
  23955835.445   125888764.357    23955840.750    98095169.7684                 
                
  19712376.516   105558906.891                    82101400.053    19712378.746  
  19712375.887  
  22174264.828   116526566.280    22174274.145    90799968.2074   22174274.488  
                
  22713199.133   119358683.258    22713208.578    93006803.9444   22713209.098  
                
  19730086.016   105172486.913                                                  
  19730084.930  
  20421601.695   109050246.536                    84816864.210    20421604.441  
  20421600.902  
  22329640.320   119364731.555                    92839234.828    22329646.027  
  22329639.547  
 21  8 14 16 34 20.0000000  0 16G 4R24R 7G26G 9R23G 7G 2G16G22R 8G 3
                                G 6R10R 9R 1
  20583134.953   108165135.481    20583142.473    84284575.5564   20583142.305  
                
  22863271.719   122260210.394                    95091261.865    22863276.910  
  22863270.723  
  20467332.078   109563257.581                    85215875.836    20467336.672  
  20467330.621  
  23134875.016   121574607.798    23134884.656    94733518.3654   23134884.344  
                
  20878124.273   109715321.135    20878132.461    85492508.5234   20878132.234  
                
  23331652.484   124808594.895                                                  
  23331650.371  
  22494166.836   118207676.591    22494174.492    92109922.3334   22494174.230  
                
  24962573.461   131179221.882    24962578.453   102217589.9924                 
                
  22328855.617   117338955.573    22328862.059    91432987.7704                 
                
  23962346.125   125922977.563    23962351.383    98121829.3934                 
                
  19709933.633   105545825.352                    82091225.526    19709935.844  
  19709932.992  
  22179971.953   116556557.426    22179981.270    90823337.9194   22179981.633  
                
  22714149.148   119363675.581    22714158.535    93010694.0694   22714159.078  
                
  19726315.414   105152387.476                                                  
  19726314.324  
  20425297.516   109069982.040                    84832214.052    20425300.266  
  20425296.715  
  22323378.820   119331260.258                    92813201.611    22323384.465  
  22323378.020  
 21  8 14 16 34 30.0000000  0 16G 4R24R 7G26G 9R23G 7G 2G16G22R 8G 3
                                G 6R10R 9R 1
  20584595.586   108172811.151    20584603.105    84290556.5994   20584602.934  
                
  22865312.492   122271123.302                    95099749.661    22865317.707  
  22865311.492  
  20470816.617   109581910.597                    85230383.732    20470821.234  
  20470815.164  
  23137498.711   121588395.393    23137508.359    94744261.9504   23137508.059  
                
  20875536.852   109701724.126    20875545.055    85481913.4614   20875544.816  
                
  23337870.438   124841856.207                                                  
  23337868.285  
  22489096.828   118181033.489    22489104.434    92089161.4804   22489104.188  
                
  24960098.156   131166214.127    24960103.137   102207454.0444                 
                
  22326603.531   117327120.836    22326610.020    91423765.9204                 
                
  23968860.125   125957208.263    23968865.359    98148502.6554                 
                
  19707498.328   105532784.385                    82081082.564    19707500.523  
  19707497.684  
  22185685.859   116586584.255    22185695.219    90846735.4424   22185695.574  
                
  22715111.445   119368732.419    22715120.785    93014634.4574   22715121.332  
                
  19722560.125   105132369.740                                                  
  19722559.039  
  20429007.508   109089793.225                    84847622.740    20429010.266  
  20429006.703  
  22317118.516   119297795.600                    92787173.559    22317124.137  
  22317117.680  
 21  8 14 16 34 40.0000000  0 16G 4R24R 7G26G 9R23G 7G 2G16G22R 8G 3
                                G 6R10R 9R 1
  20586062.336   108180519.000    20586069.863    84296562.7154   20586069.691  
                
  22867368.078   122282115.420                    95108299.087    22867373.262  
  22867367.105  
  20474309.320   109600607.326                    85244925.606    20474313.949  
  20474307.875  
  23140134.094   121602244.494    23140143.723    94755053.4624   23140143.473  
                
  20872955.125   109688157.088    20872963.348    85471341.7464   20872963.090  
                
  23344095.344   124875155.746                                                  
  23344093.277  
  22484032.477   118154420.140    22484040.043    92068423.8094   22484039.793  
                
  24957632.297   131153255.958    24957637.309   102197356.7734                 
                
  22324364.156   117315352.936    22324370.695    91414596.1324                 
                
  23975377.422   125991456.516    23975382.621    98175189.5904                 
                
  19705070.625   105519784.158                    82070971.265    19705072.797  
  19705069.988  
  22191406.555   116616646.694    22191415.969    90870160.7104   22191416.312  
                
  22716086.000   119373853.681    22716095.293    93018625.0504   22716095.848  
                
  19718820.188   105112433.788                                                  
  19718819.129  
  20432731.672   109109680.068                    84863090.290    20432734.414  
  20432730.875  
  22310859.430   119264337.432                    92761150.565    22310865.043  
  22310858.590  
 21  8 14 16 34 50.0000000  0 16G 4R24R 7G26G 9R23G 7G 2G16G22R 8G 3
                                G 6R10R 9R 1
  20587535.227   108188259.104    20587542.766    84302593.9584   20587542.578  
                
  22869438.438   122293186.551                    95116909.992    22869443.617  
  22869437.461  
  20477810.188   109619347.744                    85259501.489    20477814.840  
  20477808.762  
  23142781.180   121616155.101    23142790.820    94765892.9184   23142790.586  
                
  20870379.125   109674620.132    20870387.371    85460793.4724   20870387.105  
                
  23350327.484   124908493.206                                                  
  23350325.414  
  22478973.805   118127836.622    22478981.344    92047709.3874   22478981.082  
                
  24955175.883   131140347.460    24955180.930   102187298.2054                 
                
  22322137.562   117303652.168    22322144.133    91405478.6614                 
                
  23981897.945   126025722.288    23981903.191    98201890.1804                 
                
  19702650.508   105506824.565                    82060891.585    19702652.660  
  19702649.879  
  22197134.016   116646744.755    22197143.453    90893613.7304   22197143.805  
                
  22717072.820   119379039.429    22717082.086    93022665.8984   22717082.637  
                
  19715095.625   105092579.833                                                  
  19715094.578  
  20436470.000   109129642.573                    84878616.682    20436472.754  
  20436469.203  
  22304601.641   119230886.165                    92735132.915    22304607.277  
  22304600.840  
 21  8 14 16 35  0.0000000  0 16G 4R24R 7G26G 9R23G 7G 2G16G22R 8G 3
                                G 6R10R 9R 1
  20589014.242   108196031.370    20589021.805    84308650.2694   20589021.605  
                
  22871523.602   122304336.796                    95125582.377    22871528.766  
  22871522.637  
  20481319.203   109638131.766                    85274111.273    20481323.875  
  20481317.801  
  23145439.977   121630127.194    23145449.660    94776780.2414   23145449.422  
                
  20867808.844   109661113.202    20867817.113    85450268.5924   20867816.832  
                
  23356566.609   124941868.428                                                  
  23356564.613  
  22473920.812   118101282.915    22473928.309    92027018.1784   22473928.043  
                
  24952728.914   131127488.629    24952734.012   102177278.3524                 
                
  22319923.758   117292018.571    22319930.371    91396413.5404                 
                
  23988421.734   126060005.452    23988427.109    98228604.2894                 
                
  19700237.992   105493905.624                    82050843.526    19700240.129  
  19700237.383  
  22202868.242   116676878.328    22202877.660    90917094.4254   22202878.043  
                
  22718071.898   119384289.562    22718081.152    93026756.9114   22718081.711  
                
  19711386.477   105072807.977                                                  
  19711385.441  
  20440222.445   109149680.427                    84894201.681    20440225.176  
  20440221.645  
  22298345.188   119197441.790                    92709120.619    22298350.836  
  22298344.414  
 21  8 14 16 35 10.0000000  0 16G 4R24R 7G26G 9R23G 7G 2G16G22R 8G 3
                                G 6R10R 9R 1
  20590499.375   108203835.796    20590506.945    84314731.6364   20590506.746  
                
  22873623.492   122315565.768                    95134316.009    22873628.664  
  22873622.578  
  20484836.414   109656959.605                    85288755.143    20484841.078  
  20484835.043  
  23148110.438   121644160.601    23148120.184    94787715.3834   23148119.934  
                
  20865244.273   109647636.294    20865252.555    85439767.1114   20865252.277  
                
  23362812.797   124975281.473                                                  
  23362810.871  
  22468873.500   118074759.085    22468880.965    92006350.2674   22468880.691  
                
  24950291.422   131114679.551    24950296.523   102167297.2504                 
                
  22317722.719   117280452.123    22317729.375    91387400.7204                 
                
  23994948.812   126094305.913    23994954.293    98255331.8964                 
                
  19697833.133   105481027.687                    82040827.346    19697835.270  
  19697832.551  
  22208609.211   116707047.302    22208618.609    90940602.7204   22208619.000  
                
  22719083.219   119389604.029    22719092.496    93030898.0524   22719093.012  
                
  19707692.727   105053118.243                                                  
  19707691.711  
  20443988.992   109169793.595                    84909845.256    20443991.703  
  20443988.191  
  22292089.977   119164004.243                    92683113.656    22292095.645  
  22292089.215  
 21  8 14 16 35 20.0000000  0 16G 4R24R 7G26G 9R23G 7G 2G16G22R 8G 3
                                G 6R10R 9R 1
  20591990.609   108211672.336    20591998.195    84320838.0344   20591998.000  
                
  22875738.156   122326873.764                    95143111.117    22875743.352  
  22875737.254  
  20488361.750   109675830.973                    85303432.873    20488366.410  
  20488360.410  
  23150792.562   121658255.296    23150802.359    94798698.2754   23150802.113  
                
  20862685.414   109634189.424    20862693.703    85429289.0354   20862693.418  
                
  23369065.969   125008731.889                                                  
  23369064.137  
  22463831.883   118048265.158    22463839.348    91985705.6494   22463839.055  
                
  24947863.398   131101920.134    24947868.457   102157354.8594                 
                
  22315534.484   117268952.957    22315541.145    91378440.3344                 
                
  24001479.250   126128623.628    24001484.715    98282072.9734                 
                
  19695435.883   105468190.540                    82030842.907    19695437.988  
  19695435.324  
  22214356.891   116737251.612    22214366.277    90964138.5364   22214366.676  
                
  22720106.758   119394982.770    22720116.094    93035089.2754   22720116.570  
                
  19704014.406   105033510.756                                                  
  19704013.402  
  20447769.617   109189981.946                    84925547.296    20447772.332  
  20447768.824  
  22285836.086   119130573.708                    92657112.128    22285841.727  
  22285835.336  
 21  8 14 16 35 30.0000000  0 16G 4R24R 7G26G 9R23G 7G 2G16G22R 8G 3
                                G 6R10R 9R 1
  20593487.984   108219541.099    20593495.582    84326969.5404   20593495.387  
                
  22877867.516   122338260.392                    95151967.372    22877872.746  
  22877866.594  
  20491895.242   109694746.030                    85318144.582    20491899.902  
  20491893.926  
  23153486.367   121672411.348    23153496.195    94809728.9674   23153495.938  
                
  20860132.289   109620772.722    20860140.582    85418834.4664   20860140.301  
                
  23375326.141   125042219.658                                                  
  23375324.320  
  22458795.961   118021801.208    22458803.414    91965084.3924   22458803.098  
                
  24945444.852   131089210.539    24945449.887   102147451.2944                 
                
  22313359.078   117257521.201    22313365.734    91369532.4864                 
                
  24008013.031   126162958.577    24008018.391    98308827.4684                 
                
  19693046.281   105455394.329                    82020890.304    19693048.375  
  19693045.723  
  22220111.305   116767491.295    22220120.672    90987701.9244   22220121.102  
                
  22721142.539   119400425.851    22721151.922    93039330.6254   22721152.367  
                
  19700351.500   105013985.474                                                  
  19700350.508  
  20451564.312   109210245.436                    84941307.783    20451567.004  
  20451563.500  
  22279583.516   119097150.165                    92631116.054    22279589.125  
  22279582.746  
 21  8 14 16 35 40.0000000  0 16G 4R24R 7G26G 9R23G 7G 2G16G22R 8G 3
                                G 6R10R 9R 1
  20594991.508   108227442.142    20594999.109    84333126.1944   20594998.914  
                
  22880011.602   122349725.771                    95160884.911    22880016.805  
  22880010.676  
  20495436.922   109713704.892                    85332890.347    20495441.582  
  20495435.609  
  23156191.867   121686628.763    23156201.699    94820807.4674   23156201.426  
                
  20857584.938   109607386.270    20857593.238    85408403.4654   20857592.949  
                
  23381593.391   125075744.797                                                  
  23381591.508  
  22453765.789   117995367.406    22453773.211    91944486.6274   22453772.918  
                
  24943035.805   131076550.936    24943040.816   102137586.6724                 
                
  22311196.500   117246156.824    22311203.172    91360677.1324                 
                
  24014550.078   126197310.734    24014555.309    98335595.3854                 
                
  19690664.359   105442639.269                    82010969.700    19690666.441  
  19690663.785  
  22225872.453   116797766.354    22225881.801    91011292.8834   22225882.266  
                
  22722190.570   119405933.299    22722199.969    93043622.1324   22722200.430  
                
  19696704.086   104994542.738                                                  
  19696703.066  
