     2.11           OBSERVATION DATA    M (MIXED)           RINEX VERSION / TYPE
EFT-CORS.RU                             20210817 145113 UTC PGM / RUN BY / DATE 
MDNG                                                        MARKER NAME         
                                                            MARKER NUMBER       
MDNG                EFT-CORS.RU                             OBSERVER / AGENCY   
0                   TRIMBLE BD970       2.0                 REC # / TYPE / VERS 
0                   UNKNOWN EXT NONE                        ANT # / TYPE        
  3463911.2830  3030468.2400  4402179.3760                  APPROX POSITION XYZ 
        0.0000        0.0000        0.0000                  ANTENNA: DELTA H/E/N
     1     1                                                WAVELENGTH FACT L1/2
     6    C1    L1    P2    L2    C2    P1                  # / TYPES OF OBSERV 
    10.000                                                  INTERVAL            
  2021     8    15     2    30    0.0000000     GPS         TIME OF FIRST OBS   
  2021     8    15     3    30    0.0000000     GPS         TIME OF LAST OBS    
     0                                                      RCV CLOCK OFFS APPL 
                                                            END OF HEADER       
 21  8 15  2 30  0.0000000  0 13G 6G12R24R18G29R14G20G24R16G25R17R15
                                G 2
  22110452.555   116191212.930    22110461.496    90538644.9434   22110461.949  
                
  20125026.406   105757740.553    20125032.191    82408659.3394   20125032.297  
                
  20712478.797   110758935.789                    86145841.953    20712483.289  
  20712477.980  
  21997122.391   117422127.771                    91328314.884    21997125.617  
  21997120.832  
  23233180.148   122091182.305    23233186.668    95136017.9104   23233186.871  
                
  20385304.516   108665153.346                    84517332.109    20385308.848  
  20385304.250  
  24432249.883   128392340.661    24432256.172   100046006.0164                 
                
  22602573.531   118777339.427    22602582.145    92553799.7364   22602582.461  
                
  23019323.953   122965098.390                    95639510.160    23019325.312  
  23019323.340  
  21005555.484   110384944.945    21005564.301    86014284.6654   21005564.727  
                
  19118811.961   102308640.536                    79573373.155    19118815.504  
  19118810.066  
  19318829.641   103233977.265                    80293088.965    19318833.785  
  19318829.871  
  21238582.125   111609509.748    21238586.125    86968466.8464                 
                
 21  8 15  2 30 10.0000000  0 13G 6G12R24R18G29R14G20G24R16G25R17R15
                                G 2
  22114398.008   116211946.408    22114406.977    90554800.8844   22114407.422  
                
  20124841.367   105756768.122    20124847.141    82407901.5984   20124847.254  
                
  20718216.062   110789615.493                    86169703.938    20718220.570  
  20718215.227  
  21990156.461   117384943.527                    91299393.799    21990159.750  
  21990154.961  
  23227744.516   122062617.836    23227751.027    95113759.8744   23227751.242  
                
  20390392.680   108692276.146                    84538427.618    20390397.031  
  20390392.418  
  24426763.172   128363507.658    24426769.402   100023538.7244                 
                
  22608822.211   118810176.409    22608830.871    92579386.9884   22608831.176  
                
  23011853.719   122925193.796                    95608473.221    23011855.059  
  23011853.137  
  21001622.445   110364276.673    21001631.254    85998179.5244   21001631.684  
                
  19117421.391   102301199.283                    79567585.512    19117424.941  
  19117419.520  
  19316581.641   103221964.605                    80283745.786    19316585.785  
  19316581.875  
  21238922.836   111611300.198    21238926.812    86969862.0014                 
                
 21  8 15  2 30 20.0000000  0 13G 6G12R24R18G29R14G20G24R16G25R17R15
                                G 2
  22118353.703   116232733.714    22118362.688    90570998.7744   22118363.137  
                
  20124664.812   105755840.284    20124670.574    82407178.5994   20124670.684  
                
  20723961.266   110820337.569                    86193598.880    20723965.758  
  20723960.434  
  21983197.812   117347798.179                    91270502.984    21983201.176  
  21983196.328  
  23222313.227   122034076.232    23222319.766    95091519.6664   23222319.992  
                
  20395491.711   108719456.867                    84559568.180    20395496.066  
  20395491.434  
  24421278.086   128334683.466    24421284.367   100001078.3034                 
                
  22615075.945   118843039.971    22615084.676    92604994.9454   22615084.930  
                
  23004385.695   122885300.830                    95577445.341    23004386.996  
  23004385.094  
  20997695.672   110343641.325    20997704.477    85982100.0354   20997704.902  
                
  19116044.977   102293833.830                    79561856.822    19116048.527  
  19116043.121  
  19314346.430   103210020.306                    80274455.778    19314350.590  
  19314346.676  
  21239274.703   111613149.307    21239278.660    86971302.8564                 
                
 21  8 15  2 30 30.0000000  0 13G 6G12R24R18G29R14G20G24R16G25R17R15
                                G 2
  22122319.594   116253574.647    22122328.586    90587238.4504   22122329.043  
                
  20124496.719   105754956.964    20124502.473    82406490.2944   20124502.594  
                
  20729714.406   110851102.134                    86217526.884    20729718.906  
  20729713.590  
  21976246.516   117310691.582                    91241642.280    21976249.859  
  21976244.977  
  23216886.273   122005557.445    23216892.844    95069297.2384   23216893.047  
                
  20400601.578   108746695.400                    84580753.682    20400605.945  
  20400601.270  
  24415794.695   128305868.144    24415801.004    99978624.8044                 
                
  22621334.711   118875929.954    22621343.504    92630623.4874   22621343.727  
                
  22996919.789   122845419.472                    95546426.519    22996921.188  
  22996919.188  
  20993775.148   110323038.881    20993783.953    85966046.1844   20993784.391  
                
  19114682.711   102286544.083                    79556187.029    19114686.266  
  19114680.883  
  19312123.984   103198144.251                    80265218.838    19312128.148  
  19312124.230  
  21239637.711   111615056.925    21239641.641    86972789.3044                 
                
 21  8 15  2 30 40.0000000  0 13G 6G12R24R18G29R14G20G24R16G25R17R15
                                G 2
  22126295.734   116274469.408    22126304.742    90603520.0704   22126305.199  
                
  20124337.172   105754118.484    20124342.918    82405836.9304   20124343.043  
                
  20735475.445   110881908.926                    86241487.714    20735479.918  
  20735474.621  
  21969302.430   117273624.093                    91212812.011    21969305.879  
  21969300.949  
  23211463.750   121977061.827    23211470.332    95047092.8604   23211470.508  
                
  20405722.375   108773992.103                    84601984.445    20405726.742  
  20405722.051  
  24410313.070   128277061.987    24410319.398    99956178.4574                 
                
  22627598.555   118908846.491    22627607.371    92656272.7364   22627607.582  
                
  22989456.164   122805550.309                    95515417.192    22989457.668  
  22989455.559  
  20989860.961   110302469.659    20989869.766    85950018.2154   20989870.207  
                
  19113334.648   102279330.302                    79550576.309    19113338.195  
  19113332.832  
  19309914.406   103186336.927                    80256035.354    19309918.574  
  19309914.637  
  21240011.891   111617023.284    21240015.797    86974321.5264                 
                
 21  8 15  2 30 50.0000000  0 13G 6G12R24R18G29R14G20G24R16G25R17R15
                                G 2
  22130282.031   116295417.519    22130291.066    90619843.2724   22130291.516  
                
  20124186.078   105753324.478    20124191.816    82405218.2134   20124191.945  
                
  20741244.305   110912757.517                    86265481.052    20741248.762  
  20741243.457  
  21962365.578   117236595.308                    91184011.878    21962369.156  
  21962364.184  
  23206045.547   121948588.942    23206052.113    95024906.1934   23206052.281  
                
  20410853.984   108801346.490                    84623260.070    20410858.371  
  20410853.656  
  24404833.094   128248264.677    24404839.496    99933738.9884                 
                
  22633867.359   118941789.140    22633876.160    92681942.3284   22633876.371  
                
  22981994.719   122765692.892                    95484416.993    22981996.344  
  22981994.148  
  20985953.031   110281933.340    20985961.828    85934015.8934   20985962.285  
                
  19112000.695   102272192.028                    79545024.327    19112004.246  
  19111998.879  
  19307717.625   103174597.972                    80246905.053    19307721.793  
  19307717.844  
  21240397.172   111619047.949    21240401.062    86975899.1934                 
                
 21  8 15  2 31  0.0000000  0 13G 6G12R24R18G29R14G20G24R16G25R17R15
                                G 2
  22134278.469   116316418.933    22134287.523    90636207.9974   22134287.965  
                
  20124043.477   105752575.066    20124049.203    82404634.2504   20124049.324  
                
  20747020.969   110943647.894                    86289506.898    20747025.410  
  20747020.129  
  21955436.172   117199605.435                    91155241.977    21955439.684  
  21955434.707  
  23200631.695   121920138.837    23200638.223    95002737.2704   23200638.391  
                
  20415996.398   108828758.397                    84644580.443    20416000.816  
  20415996.051  
  24399354.844   128219476.459    24399361.336    99911306.6454                 
                
  22640141.117   118974757.828    22640149.875    92707632.2134   22640150.094  
                
  22974535.594   122725847.454                    95453426.083    22974537.207  
  22974535.012  
  20982051.375   110261430.019    20982060.168    85918039.2784   20982060.629  
                
  19110680.852   102265129.271                    79539531.062    19110684.398  
  19110679.043  
  19305533.664   103162927.534                    80237828.041    19305537.828  
  19305533.863  
  21240793.578   111621131.040    21240797.461    86977522.3794                 
                
 21  8 15  2 31 10.0000000  0 13G 6G12R24R18G29R14G20G24R16G25R17R15
                                G 2
  22138285.070   116337473.739    22138294.141    90652614.3344   22138294.574  
                
  20123909.383   105751870.370    20123915.098    82404085.1294   20123915.227  
                
  20752805.453   110974580.084                    86313565.281    20752809.883  
  20752804.613  
  21948514.109   117162654.806                    91126502.583    21948517.555  
  21948512.602  
  23195222.219   121891711.740    23195228.738    94980586.2854   23195228.898  
                
  20421149.648   108856228.109                    84665945.761    20421154.062  
  20421149.309  
  24393878.297   128190697.530    24393884.949    99888881.5354                 
                
  22646419.812   119007752.612    22646428.570    92733342.4324   22646428.785  
                
  22967078.727   122686014.252                    95422444.717    22967080.332  
  22967078.172  
  20978156.047   110240959.907    20978164.844    85902088.5494   20978165.309  
                
  19109375.164   102258142.235                    79534096.705    19109378.707  
  19109373.391  
  19303362.586   103151325.953                    80228804.584    19303366.742  
  19303362.777  
  21241201.094   111623272.565    21241204.973    86979191.0944                 
                
 21  8 15  2 31 20.0000000  0 13G 6G12R24R18G29R14G20G24R16G25R17R15
                                G 2
  22142301.789   116358581.774    22142310.871    90669062.1494   22142311.305  
                
  20123783.781   105751210.369    20123789.484    82403570.8374   20123789.621  
                
  20758597.742   111005554.019                    86337656.107    20758602.172  
  20758596.902  
  21941599.289   117125743.305                    91097793.628    21941602.770  
  21941597.812  
  23189817.086   121863307.525    23189823.590    94958453.1184   23189823.746  
                
  20426313.672   108883755.250                    84687355.753    20426318.094  
  20426313.344  
  24388403.672   128161927.974    24388410.324    99866463.6864                 
                
  22652703.438   119040773.338    22652712.227    92759072.8554   22652712.426  
                
  22959624.141   122646193.202                    95391472.783    22959625.750  
  22959623.602  
  20974267.039   110220523.044    20974275.836    85886163.7124   20974276.312  
                
  19108083.609   102251230.859                    79528721.191    19108087.141  
  19108081.855  
  19301204.375   103139793.171                    80219834.643    19301208.535  
  19301204.562  
  21241619.727   111625472.546    21241623.602    86980905.3684                 
                
 21  8 15  2 31 30.0000000  0 13G 6G12R24R18G29R14G20G24R16G25R17R15
                                G 2
  22146328.617   116379742.926    22146337.699    90685551.3524   22146338.141  
                
  20123666.695   105750595.072    20123672.383    82403091.3774   20123672.527  
                
  20764397.758   111036569.245                    86361779.032    20764402.176  
  20764396.926  
  21934691.930   117088871.087                    91069115.242    21934695.359  
  21934690.383  
  23184416.320   121834926.239    23184422.812    94936337.8414   23184422.965  
                
  20431488.484   108911339.880                    84708810.453    20431492.910  
  20431488.156  
  24382930.883   128133167.961    24382937.516    99844053.2774                 
                
  22658992.000   119073819.889    22659000.840    92784823.4084   22659001.004  
                
  22952171.914   122606384.666                    95360510.561    22952173.457  
  22952171.391  
  20970384.352   110200119.415    20970393.145    85870264.7804   20970393.633  
                
  19106806.156   102244394.956                    79523404.375    19106809.688  
  19106804.426  
  19299059.062   103128329.239                    80210918.246    19299063.219  
  19299059.250  
  21242049.477   111627730.889    21242053.336    86982665.1104                 
                
 21  8 15  2 31 40.0000000  0 13G 6G12R24R18G29R14G20G24R16G25R17R15
                                G 2
  22150365.516   116400956.945    22150374.617    90702081.7434   22150375.051  
                
  20123558.094   105750024.345    20123563.770    82402646.6504   20123563.930  
                
  20770205.492   111067625.776                    86385934.110    20770209.914  
  20770204.664  
  21927791.836   117052038.093                    91040467.362    21927795.293  
  21927790.289  
  23179019.898   121806567.763    23179026.363    94914240.3134   23179026.492  
                
  20436674.031   108938981.730                    84730309.656    20436678.449  
  20436673.691  
  24377459.906   128104417.360    24377466.469    99821650.1894                 
                
  22665285.430   119106891.969    22665294.320    92810593.8504   22665294.434  
                
  22944721.992   122566588.262                    95329557.801    22944723.477  
  22944721.457  
  20966507.977   110179748.928    20966516.758    85854391.6774   20966517.258  
                
  19105542.797   102237634.420                    79518146.178    19105546.312  
  19105541.098  
  19296926.633   103116934.149                    80202055.394    19296930.785  
  19296926.820  
  21242490.281   111630047.331    21242494.121    86984470.1274                 
                
 21  8 15  2 31 50.0000000  0 13G 6G12R24R18G29R14G20G24R16G25R17R15
                                G 2
  22154412.477   116422223.865    22154421.609    90718653.3564   22154422.035  
                
  20123458.000   105749498.339    20123463.664    82402236.7694   20123463.828  
                
  20776020.906   111098723.331                    86410121.093    20776025.320  
  20776020.062  
  21920899.039   117015244.451                    91011850.068    21920902.609  
  21920897.617  
  23173627.805   121778232.201    23173634.281    94892160.6464   23173634.371  
                
  20441870.320   108966680.875                    84751853.431    20441874.750  
  20441869.992  
  24371990.805   128075676.382    24371997.277    99799254.6394                 
                
  22671583.719   119139989.626    22671592.645    92836384.2164   22671592.734  
                
  22937274.398   122526804.460                    95298614.826    22937275.883  
  22937273.832  
  20962637.945   110159411.779    20962646.723    85838544.5434   20962647.219  
                
  19104293.539   102230949.381                    79512946.706    19104297.039  
  19104291.859  
  19294807.094   103105607.981                    80193246.139    19294811.250  
  19294807.285  
  21242942.188   111632422.114    21242946.004    86986320.5994                 
                
 21  8 15  2 32  0.0000000  0 13G 6G12R24R18G29R14G20G24R16G25R17R15
                                G 2
  22158469.555   116443543.939    22158478.711    90735266.4004   22158479.141  
                
  20123366.477   105749017.369    20123372.133    82401861.9804   20123372.301  
                
  20781844.086   111129862.385                    86434340.350    20781848.484  
  20781843.230  
  21914013.875   116978490.544                    90983263.687    21914017.406  
  21914012.430  
  23168240.172   121749920.034    23168246.656    94870099.2144   23168246.754  
                
  20447077.438   108994437.705                    84773442.061    20447081.875  
  20447077.094  
  24366523.586   128046945.545    24366529.977    99776866.9424                 
                
  22677886.922   119173113.071    22677895.852    92862194.6864   22677895.934  
                
  22929829.156   122487033.645                    95267681.948    22929830.727  
  22929828.648  
  20958774.336   110139108.342    20958783.105    85822723.6784   20958783.613  
                
  19103058.469   102224340.214                    79507806.245    19103061.965  
  19103056.793  
  19292700.570   103094351.320                    80184490.958    19292704.723  
  19292700.773  
  21243405.234   111634855.437    21243409.035    86988216.6954                 
                
 21  8 15  2 32 10.0000000  0 13G 6G12R24R18G29R14G20G24R16G25R17R15
                                G 2
  22162536.664   116464916.725    22162545.828    90751920.5024   22162546.258  
                
  20123283.477   105748581.196    20123289.117    82401522.0964   20123289.297  
                
  20787674.875   111161042.214                    86458591.315    20787679.277  
  20787674.016  
  21907136.164   116941776.169                    90954708.055    21907139.594  
  21907134.629  
  23162856.906   121721630.924    23162863.414    94848055.7534   23162863.516  
                
  20452295.281   109022251.715                    84795075.157    20452299.738  
  20452294.953  
  24361058.250   128018224.525    24361064.543    99754486.9284                 
                
  22684194.961   119206261.879    22684203.855    92888024.9284   22684203.930  
                
  22922386.320   122447275.512                    95236758.953    22922387.930  
  22922385.887  
  20954917.086   110118838.357    20954925.840    85806928.8864   20954926.359  
                
  19101837.484   102217806.499                    79502724.463    19101840.977  
  19101835.801  
  19290606.977   103083163.773                    80175789.533    19290611.145  
  19290607.184  
  21243879.359   111637346.961    21243883.148    86990158.1414                 
                
 21  8 15  2 32 20.0000000  0 13G 6G12R24R18G29R14G20G24R16G25R17R15
                                G 2
  22166613.805   116486342.247    22166622.961    90768615.7044   22166623.398  
                
  20123209.008   105748189.860    20123214.633    82401217.1594   20123214.820  
                
  20793513.305   111192262.903                    86482874.061    20793517.730  
  20793512.457  
  21900265.859   116905101.577                    90926183.384    21900269.254  
  21900264.254  
  23157478.055   121693364.930    23157484.578    94826030.3134   23157484.680  
                
  20457523.844   109050122.859                    84816752.714    20457528.332  
  20457523.535  
  24355594.852   127989513.617    24355601.031    99732114.7734                 
                
  22690507.828   119239436.038    22690516.695    92913874.9234   22690516.766  
                
  22914945.953   122407530.402                    95205846.091    22914947.570  
  22914945.551  
  20951066.227   110098601.964    20951074.969    85791160.2634   20951075.488  
                
  19100630.609   102211348.238                    79497701.371    19100634.086  
  19100628.926  
  19288526.367   103072045.606                    80167142.062    19288530.539  
  19288526.594  
  21244364.555   111639896.737    21244368.332    86992144.9854                 
                
 21  8 15  2 32 30.0000000  0 13G 6G12R24R18G29R14G20G24R16G25R17R15
                                G 2
  22170700.977   116507820.446    22170710.125    90785351.9644   22170710.555  
                
  20123143.086   105747843.448    20123148.684    82400947.2214   20123148.887  
                
  20799359.328   111223524.220                    86507188.412    20799363.746  
  20799358.488  
  21893402.938   116868466.780                    90897689.654    21893406.375  
  21893401.359  
  23152103.625   121665122.109    23152110.145    94804022.9184   23152110.250  
                
  20462763.156   109078051.327                    84838474.857    20462767.668  
  20462762.871  
  24350133.297   127960812.906    24350139.422    99709750.5814                 
                
  22696825.500   119272635.506    22696834.371    92939744.6374   22696834.426  
                
  22907507.992   122367798.285                    95174943.365    22907509.648  
  22907507.602  
  20947221.781   110078399.272    20947230.523    85775417.9074   20947231.043  
                
  19099437.836   102204965.461                    79492736.979    19099441.297  
  19099436.152  
  19286458.773   103060996.996                    80158548.699    19286462.941  
  19286458.984  
  21244860.875   111642504.888    21244864.645    86994177.3084                 
                
 21  8 15  2 32 40.0000000  0 13G 6G12R24R18G29R14G20G24R16G25R17R15
                                G 2
  22174798.164   116529351.256    22174807.293    90802129.2044   22174807.723  
                
  20123085.727   105747541.985    20123091.301    82400712.3144   20123091.531  
                
  20805212.945   111254826.085                    86531534.299    20805217.352  
  20805212.098  
  21886547.484   116831871.897                    90869226.962    21886550.941  
  21886545.914  
  23146733.609   121636902.486    23146740.137    94782033.5924   23146740.242  
                
  20468013.172   109106036.748                    84860241.283    20468017.695  
  20468012.910  
  24344673.734   127932122.478    24344679.777    99687394.3914                 
                
  22703147.953   119305860.168    22703156.879    92965633.9724   22703156.918  
                
  22900072.484   122328079.363                    95144050.867    22900074.152  
  22900072.137  
  20943383.766   110058230.349    20943392.516    85759701.8574   20943393.023  
                
  19098259.180   102198658.175                    79487831.312    19098262.629  
  19098257.492  
  19284404.219   103050018.020                    80150009.485    19284408.402  
  19284404.441  
  21245368.281   111645171.295    21245372.043    86996255.0214                 
                
 21  8 15  2 32 50.0000000  0 13G 6G12R24R18G29R14G20G24R16G25R17R15
                                G 2
  22178905.344   116550934.637    22178914.438    90818947.4154   22178914.879  
                
  20123036.938   105747285.605    20123042.488    82400512.5264   20123042.730  
                
  20811074.156   111286168.647                    86555911.843    20811078.570  
  20811073.281  
  21879699.453   116795317.087                    90840795.458    21879702.980  
  21879697.910  
  23141368.023   121608706.196    23141374.551    94760062.4504   23141374.668  
                
  20473273.906   109134079.404                    84882052.225    20473278.426  
  20473273.652  
  24339216.047   127903442.503    24339222.148    99665046.3514                 
                
  22709475.172   119339110.041    22709484.156    92991542.9464   22709484.168  
                
  22892639.531   122288373.814                    95113168.758    22892641.160  
  22892639.188  
  20939552.195   110038095.307    20939560.973    85744012.2144   20939561.465  
                
  19097094.641   102192426.489                    79482984.438    19097098.070  
  19097092.953  
  19282362.695   103039108.744                    80141524.499    19282366.883  
  19282362.922  
  21245886.766   111647896.010    21245890.523    86998378.1734                 
                
 21  8 15  2 33  0.0000000  0 13G 6G12R24R18G29R14G20G24R16G25R17R15
                                G 2
  22183022.492   116572570.356    22183031.539    90835806.4114   22183031.980  
                
  20122996.688   105747074.105    20123002.227    82400347.7204   20123002.488  
                
  20816942.898   111317551.454                    86580320.682    20816947.309  
  20816942.012  
  21872859.016   116758802.373                    90812395.114    21872862.535  
  21872857.461  
  23136006.852   121580533.099    23136013.422    94738109.3964   23136013.527  
                
  20478545.336   109162178.988                    84903907.452    20478549.844  
  20478545.094  
  24333760.406   127874772.941    24333766.516    99642706.4314                 
                
  22715807.141   119372384.817    22715816.168    93017471.3304   22715816.145  
                
  22885209.078   122248681.566                    95082296.996    22885210.691  
  22885208.730  
  20935727.055   110017994.085    20935735.863    85728348.9264   20935736.328  
                
  19095944.203   102186270.255                    79478196.264    19095947.629  
  19095942.523  
  19280334.211   103028269.133                    80133093.684    19280338.395  
  19280334.445  
  21246416.320   111650678.832    21246420.066    87000546.6074                 
                
 21  8 15  2 33 10.0000000  0 13G 6G12R24R18G29R14G20G24R16G25R17R15
                                G 2
  22187149.602   116594258.369    22187158.578    90852706.1574   22187159.055  
                
  20122965.008   105746907.621    20122970.531    82400217.9814   20122970.809  
                
  20822819.172   111348974.499                    86604760.816    20822823.586  
  20822818.273  
  21866026.055   116722327.727                    90784025.948    21866029.594  
  21866024.539  
  23130650.125   121552383.280    23130656.707    94716174.4814   23130656.816  
                
  20483827.406   109190335.346                    84925806.850    20483831.906  
  20483827.188  
  24328306.820   127846113.973    24328312.879    99620374.7574                 
                
  22722143.836   119405684.470    22722152.891    93043419.1124   22722152.855  
                
  22877781.156   122209002.971                    95051435.848    22877782.793  
  22877780.801  
  20931908.375   109997926.747    20931917.215    85712712.0394   20931917.648  
                
  19094807.836   102180189.302                    79473466.627    19094811.258  
  19094806.160  
  19278318.805   103017499.399                    80124717.216    19278322.984  
  19278319.047  
  21246956.938   111653519.790    21246960.660    87002760.3324                 
                
 21  8 15  2 33 20.0000000  0 13G 6G12R24R18G29R14G20G24R16G25R17R15
                                G 2
  22191286.641   116615998.620    22191295.559    90869646.6074   22191296.062  
                
  20122941.891   105746786.166    20122947.402    82400123.3404   20122947.688  
                
  20828702.930   111380437.604                    86629232.114    20828707.359  
  20828702.035  
  21859200.570   116685893.251                    90755688.026    21859204.164  
  21859199.078  
  23125297.852   121524256.804    23125304.391    94694257.7384   23125304.531  
                
  20489120.133   109218548.518                    84947750.414    20489124.621  
  20489119.902  
  24322855.195   127817465.701    24322861.285    99598051.4254                 
                
  22728485.250   119439008.901    22728494.336    93069386.1844   22728494.305  
                
  22870355.805   122169337.862                    95020585.203    22870357.395  
  22870355.395  
  20928096.156   109977893.409    20928105.039    85697101.6454   20928105.438  
                
  19093685.570   102174183.860                    79468795.734    19093688.984  
  19093683.891  
  19276316.477   103006799.543                    80116395.106    19276320.660  
  19276316.734  
  21247508.594   111656418.820    21247512.289    87005019.3144                 
                
 21  8 15  2 33 30.0000000  0 13G 6G12R24R18G29R14G20G24R16G25R17R15
                                G 2
  22195433.602   116637790.988    22195442.496    90886627.6584   22195443.008  
                
  20122927.383   105746709.857    20122932.875    82400063.8724   20122933.176  
                
  20834594.141   111411940.536                    86653734.384    20834598.570  
  20834593.277  
  21852382.680   116649499.193                    90727381.517    21852386.336  
  21852381.195  
  23119950.008   121496153.559    23119956.484    94672359.0894   23119956.656  
                
  20494423.508   109246818.447                    84969738.114    20494427.984  
  20494423.289  
  24317405.648   127788828.254    24317411.770    99575736.5114                 
                
  22734831.352   119472357.995    22734840.492    93095372.4784   22734840.461  
                
  22862933.000   122129686.516                    94989745.260    22862934.578  
  22862932.605  
  20924290.414   109957894.087    20924299.344    85681517.7574   20924299.695  
                
  19092577.406   102168253.803                    79464183.463    19092580.816  
  19092575.730  
  19274327.250   102996169.692                    80108127.444    19274331.438  
  19274327.512  
  21248071.320   111659375.947    21248074.984    87007323.5684                 
                
 21  8 15  2 33 40.0000000  0 13G 6G12R24R18G29R14G20G24R16G25R17R15
                                G 2
  22199590.445   116659635.311    22199599.328    90903649.2024   22199599.828  
                
  20122921.422   105746678.545    20122926.891    82400039.4664   20122927.195  
                
  20840492.773   111443483.173                    86678267.543    20840497.207  
  20840491.910  
  21845572.438   116613145.363                    90699106.311    21845576.023  
  21845570.891  
  23114606.578   121468073.548    23114613.008    94650478.5504   23114613.199  
                
  20499737.508   109275145.011                    84991769.889    20499741.984  
  20499737.320  
  24311958.148   127760201.626    24311964.277    99553430.0364                 
                
  22741182.125   119505731.600    22741191.312    93121377.8754   22741191.277  
                
  22855512.742   122090049.059                    94958916.110    22855514.344  
  22855512.352  
  20920491.148   109937928.790    20920500.117    85665960.3804   20920500.449  
                
  19091483.266   102162398.868                    79459629.629    19091486.668  
  19091481.570  
  19272351.133   102985609.924                    80099914.282    19272355.312  
  19272351.383  
  21248645.062   111662391.020    21248648.699    87009672.9754                 
                
 21  8 15  2 33 50.0000000  0 13G 6G12R24R18G29R14G20G24R16G25R17R15
                                G 2
  22203757.211   116681531.711    22203766.062    90920711.3224   22203766.570  
                
  20122924.078   105746692.485    20122929.523    82400050.3284   20122929.844  
                
  20846398.852   111475065.587                    86702831.626    20846403.273  
  20846397.969  
  21838769.750   116576832.052                    90670862.634    21838773.289  
  21838768.191  
  23109267.578   121440016.961    23109274.031    94628616.2744   23109274.223  
                
  20505062.156   109303528.305                    85013845.786    20505066.625  
  20505061.965  
  24306512.734   127731586.076    24306518.871    99531132.1854                 
                
  22747537.594   119539129.789    22747546.801    93147402.4344   22747546.762  
                
  22848095.172   122050425.598                    94928097.855    22848096.723  
  22848094.758  
  20916698.398   109917997.767    20916707.395    85650429.7174   20916707.707  
                
  19090403.242   102156619.452                    79455134.526    19090406.648  
  19090401.527  
  19270388.172   102975120.440                    80091755.788    19270392.340  
  19270388.434  
  21249229.891   111665464.282    21249233.500    87012067.7204                 
                
 21  8 15  2 34  0.0000000  0 13G 6G12R24R18G29R14G20G24R16G25R17R15
                                G 2
  22207933.844   116703479.961    22207942.652    90937813.8544   22207943.172  
                
  20122935.312   105746751.558    20122940.734    82400096.3534   20122941.070  
                
  20852312.336   111506687.622                    86727426.528    20852316.727  
  20852311.445  
  21831974.672   116540559.461                    90642650.617    21831978.191  
  21831973.129  
  23103933.031   121411983.779    23103939.523    94606772.2424   23103939.695  
                
  20510397.422   109331968.244                    85035965.725    20510401.895  
  20510397.227  
  24301069.281   127702981.647    24301075.602    99508843.0214                 
                
  22753897.734   119572552.372    22753906.945    93173445.9974   22753906.879  
                
  22840680.289   122010816.407                    94897290.711    22840681.773  
  22840679.844  
  20912912.164   109898100.965    20912921.176    85634925.7154   20912921.488  
                
  19089337.289   102150915.304                    79450697.964    19089340.691  
  19089335.562  
  19268438.359   102964701.173                    80083651.910    19268442.516  
  19268438.625  
  21249825.758   111668595.597    21249829.344    87014507.7004                 
                
 21  8 15  2 34 10.0000000  0 13G 6G12R24R18G29R14G20G24R16G25R17R15
                                G 2
  22212120.352   116725480.138    22212129.129    90954956.8464   22212129.656  
                
  20122955.164   105746855.822    20122960.566    82400177.5954   20122960.922  
                
  20858233.211   111538349.127                    86752052.138    20858237.582  
  20858232.320  
  21825187.289   116504327.624                    90614470.277    21825190.734  
  21825185.719  
  23098602.992   121383974.178    23098609.500    94584946.5734   23098609.648  
                
  20515743.305   109360464.779                    85058129.675    20515747.766  
  20515743.117  
  24295627.938   127674388.673    24295634.512    99486562.7594                 
                
  22760262.523   119605999.351    22760271.742    93199508.5814   22760271.656  
                
  22833268.031   121971221.344                    94866494.539    22833269.551  
  22833267.582  
  20909132.484   109878238.576    20909141.520    85619448.5264   20909141.812  
                
  19088285.422   102145286.554                    79446320.046    19088288.832  
  19088283.699  
  19266501.734   102954352.389                    80075602.842    19266505.879  
  19266502.000  
  21250432.680   111671785.001    21250436.254    87016992.9524                 
                
 21  8 15  2 34 20.0000000  0 13G 6G12R24R18G29R14G20G24R16G25R17R15
                                G 2
  22216316.664   116747531.817    22216325.418    90972139.9644   22216325.949  
                
  20122983.570   105747005.097    20122988.953    82400293.9114   20122989.312  
                
  20864161.367   111570049.657                    86776708.099    20864165.734  
  20864160.465  
  21818407.484   116468136.321                    90586321.491    21818410.895  
  21818405.898  
  23093277.312   121355987.597    23093283.809    94563138.8474   23093283.965  
                
  20521099.719   109389017.430                    85080337.313    20521104.188  
  20521099.535  
  24290188.984   127645806.846    24290195.578    99464291.2504                 
                
  22766631.867   119639470.344    22766641.090    93225589.8584   22766640.984  
                
  22825858.422   121931640.508                    94835709.456    22825860.000  
  22825857.988  
  20905359.289   109858410.322    20905368.336    85603997.9404   20905368.629  
                
  19087247.602   102139733.004                    79442000.613    19087250.996  
  19087245.891  
  19264578.266   102944073.956                    80067608.508    19264582.402  
  19264578.551  
  21251050.586   111675032.138    21251054.156    87019523.1844                 
                
 21  8 15  2 34 30.0000000  0 13G 6G12R24R18G29R14G20G24R16G25R17R15
                                G 2
  22220522.773   116769635.003    22220531.496    90989363.2264   22220532.043  
                
  20123020.578   105747199.547    20123025.941    82400445.4254   20123026.312  
                
  20870096.852   111601789.373                    86801394.542    20870101.215  
  20870095.934  
  21811635.281   116431985.742                    90558204.363    21811638.676  
  21811633.676  
  23087956.094   121328024.433    23087962.566    94541349.3724   23087962.746  
                
  20526466.719   109417626.580                    85102588.847    20526471.180  
  20526466.496  
  24284752.242   127617236.434    24284758.812    99442028.5904                 
                
  22773005.766   119672965.348    22773014.945    93251689.8524   22773014.852  
                
  22818451.531   121892074.009                    94804935.501    22818453.090  
  22818451.070  
  20901592.633   109838616.403    20901601.680    85588574.1054   20901601.977  
                
  19086223.812   102134254.462                    79437739.532    19086227.199  
  19086222.102  
  19262667.977   102933865.933                    80059668.926    19262672.109  
  19262668.270  
  21251679.508   111678337.125    21251683.074    87022098.4954                 
                
 21  8 15  2 34 40.0000000  0 13G 6G12R24R18G29R14G20G24R16G25R17R15
                                G 2
  22224738.680   116791789.640    22224747.367    91006626.5844   22224747.918  
                
  20123066.172   105747439.120    20123071.512    82400632.0994   20123071.898  
                
  20876039.609   111633567.996                    86826111.220    20876043.996  
  20876038.656  
  21804870.633   116395876.016                    90530119.040    21804874.141  
  21804869.082  
  23082639.336   121300084.698    23082645.773    94519578.1464   23082645.965  
                
  20531844.258   109446291.887                    85124884.073    20531848.711  
  20531844.012  
  24279317.641   127588677.563    24279324.250    99419774.9034                 
                
  22779384.219   119706484.267    22779393.344    93277808.4894   22779393.277  
                
  22811047.273   121852522.038                    94774172.853    22811048.848  
  22811046.824  
  20897832.523   109818856.895    20897841.574    85573177.0804   20897841.875  
                
  19085214.062   102128851.065                    79433536.887    19085217.457  
  19085212.348  
  19260770.883   102923728.398                    80051784.169    19260775.012  
  19260771.180  
  21252319.445   111681700.013    21252323.020    87024718.9254                 
                
 21  8 15  2 34 50.0000000  0 13G 6G12R24R18G29R14G20G24R16G25R17R15
                                G 2
  22228964.375   116813995.771    22228973.039    91023930.0534   22228973.602  
                
  20123120.391   105747724.057    20123125.707    82400854.1294   20123126.105  
                
  20881989.617   111665385.399                    86850858.075    20881994.020  
  20881988.672  
  21798113.750   116359807.312                    90502065.592    21798117.293  
  21798112.219  
  23077327.078   121272168.639    23077333.496    94497825.3614   23077333.707  
                
  20537232.367   109475013.557                    85147223.147    20537236.832  
  20537232.090  
  24273885.406   127560130.419    24273891.945    99397530.3904                 
                
  22785767.219   119740027.155    22785776.316    93303945.8004   22785776.262  
                
  22803645.766   121812984.761                    94743421.621    22803647.387  
  22803645.293  
  20894079.000   109799131.988    20894088.051    85557807.0194   20894088.344  
                
  19084218.375   102123522.947                    79429392.793    19084221.770  
  19084216.660  
  19258887.047   102913661.734                    80043954.535    19258891.176  
  19258887.355  
  21252970.391   111685120.777    21252973.977    87027384.4594                 
                
 21  8 15  2 35  0.0000000  0 13G 6G12R24R18G29R14G20G24R16G25R17R15
                                G 2
  22233199.820   116836253.118    22233208.449    91041273.4304   22233209.031  
                
  20123183.219   105748054.191    20123188.508    82401111.3664   20123188.922  
                
  20887946.875   111697241.474                    86875635.016    20887951.273  
  20887945.965  
  21791364.508   116323779.518                    90474043.964    21791368.094  
  21791362.965  
  23072019.289   121244276.053    23072025.688    94476090.8764   23072025.879  
                
  20542630.961   109503791.103                    85169605.663    20542635.438  
  20542630.664  
  24268455.359   127531594.936    24268461.906    99375294.9124                 
                
  22792154.727   119773593.688    22792163.840    93330101.5254   22792163.758  
                
  22796247.023   121773462.209                    94712681.857    22796248.738  
  22796246.500  
  20890332.031   109779441.503    20890341.090    85542463.7844   20890341.379  
                
  19083236.711   102118269.854                    79425307.053    19083240.098  
  19083234.965  
  19257016.438   102903665.745                    80036179.869    19257020.562  
  19257016.754  
  21253632.312   111688599.206    21253635.902    87030094.9194                 
                
 21  8 15  2 35 10.0000000  0 13G 6G12R24R18G29R14G20G24R16G25R17R15
                                G 2
  22237445.023   116858561.724    22237453.602    91058656.7604   22237454.219  
                
  20123254.664   105748429.627    20123259.922    82401403.9184   20123260.355  
                
  20893911.344   111729136.176                    86900442.001    20893915.762  
  20893910.434  
  21784622.992   116287793.067                    90446054.511    21784626.648  
  21784621.480  
  23066715.984   121216406.989    23066722.359    94454374.7144   23066722.559  
                
  20548040.094   109532624.828                    85192031.900    20548044.590  
  20548039.793  
  24263027.578   127503071.302    24263034.133    99353068.7134                 
                
  22798546.719   119807183.948    22798555.863    93356275.7424   22798555.770  
                
  22788851.141   121733954.569                    94681953.706    22788852.906  
  22788850.562  
  20886591.648   109759785.701    20886600.719    85527147.5784   20886601.000  
                
  19082269.070   102113091.832                    79421279.707    19082272.457  
  19082267.305  
  19255159.086   102893740.603                    80028460.316    19255163.215  
  19255159.402  
  21254305.250   111692135.502    21254308.855    87032850.4724                 
                
 21  8 15  2 35 20.0000000  0 13G 6G12R24R18G29R14G20G24R16G25R17R15
                                G 2
  22241699.977   116880921.579    22241708.516    91076080.0204   22241709.160  
                
  20123334.758   105748850.507    20123339.988    82401731.8634   20123340.441  
                
  20899883.039   111761069.529                    86925279.049    20899887.461  
  20899882.152  
  21777889.164   116251847.675                    90418096.991    21777892.887  
  21777887.668  
  23061417.172   121188561.519    23061423.508    94432676.9524   23061423.719  
                
  20553459.773   109561514.680                    85214501.779    20553464.285  
  20553459.477  
  24257602.164   127474559.769    24257608.641    99330851.9624                 
                
  22804943.211   119840797.873    22804952.344    93382468.4024   22804952.281  
                
  22781458.070   121694461.865                    94651237.169    22781459.852  
  22781457.484  
  20882857.891   109740164.686    20882866.969    85511858.4754   20882867.250  
                
  19081315.500   102107989.067                    79417310.883    19081318.895  
  19081313.715  
  19253315.039   102883886.550                    80020796.052    19253319.168  
  19253315.348  
  21254989.195   111695729.664    21254992.820    87035651.1144                 
                
 21  8 15  2 35 30.0000000  0 13G 6G12R24R18G29R14G20G24R16G25R17R15
                                G 2
  22245964.594   116903332.250    22245973.121    91093542.8794   22245973.762  
                
  20123423.438   105749316.515    20123428.645    82402094.9814   20123429.109  
                
  20905861.852   111793040.914                    86950145.674    20905866.281  
  20905860.973  
  21771163.070   116215943.329                    90390171.383    21771166.812  
  21771161.562  
  23056122.844   121160739.468    23056129.129    94410997.4144   23056129.340  
                
  20558889.891   109590460.210                    85237014.961    20558894.398  
  20558889.582  
  24252178.992   127446060.192    24252185.344    99308644.4814                 
                
  22811344.133   119874435.072    22811353.230    93408679.1944   22811353.207  
                
  22774067.781   121654984.125                    94620532.265    22774069.555  
  22774067.207  
  20879130.711   109720578.226    20879139.777    85496596.2954   20879140.066  
                
  19080375.898   102102961.108                    79413400.244    19080379.297  
  19080374.109  
  19251484.234   102874103.262                    80013186.826    19251488.355  
  19251484.543  
  21255684.086   111699381.324    21255687.738    87038496.5564                 
                
 21  8 15  2 35 40.0000000  0 13G 6G12R24R18G29R14G20G24R16G25R17R15
                                G 2
  22250238.914   116925793.903    22250247.426    91111045.4554   22250248.070  
                
  20123520.750   105749827.861    20123525.934    82402493.4264   20123526.414  
                
  20911847.812   111825050.511                    86975042.022    20911852.254  
  20911846.941  
  21764444.766   116180080.477                    90362278.067    21764448.492  
  21764443.238  
  23050832.992   121132941.016    23050839.258    94389336.2744   23050839.461  
                
  20564330.500   109619461.699                    85259571.657    20564335.016  
  20564330.176  
  24246758.117   127417572.841    24246764.371    99286446.5114                 
                
  22817749.531   119908095.653    22817758.578    93434908.2104   22817758.586  
                
  22766680.336   121615521.605                    94589839.165    22766682.082  
  22766679.773  
  20875410.156   109701026.587    20875419.199    85481361.2514   20875419.508  
                
  19079450.344   102098008.278                    79409548.040    19079453.738  
  19079448.551  
  19249666.742   102864391.149                    80005632.965    19249670.863  
  19249667.047  
  21256389.938   111703090.636    21256393.625    87041386.9334                 
                
 21  8 15  2 35 50.0000000  0 13G 6G12R24R18G29R14G20G24R16G25R17R15
                                G 2
  22254522.922   116948306.497    22254531.391    91128587.7274   22254532.066  
                
  20123626.703   105750384.647    20123631.863    82402927.2784   20123632.359  
                
  20917840.883   111857098.175                    86999967.969    20917845.336  
  20917839.965  
  21757734.266   116144259.118                    90334417.005    21757737.918  
  21757732.750  
  23045547.641   121105166.254    23045553.887    94367693.6074   23045554.094  
                
  20569781.586   109648518.984                    85282171.756    20569786.094  
  20569781.285  
  24241339.500   127389097.810    24241345.734    99264258.1764                 
                
  22824159.367   119941779.536    22824168.391    93461155.3984   22824168.402  
                
  22759295.703   121576074.523                    94559158.096    22759297.457  
  22759295.164  
  20871696.242   109681509.876    20871705.258    85466153.4224   20871705.586  
                
  19078538.773   102093130.295                    79405754.057    19078542.176  
  19078536.984  
  19247862.570   102854750.206                    79998134.448    19247866.676  
  19247862.852  
  21257106.781   111706857.653    21257110.488    87044322.2674                 
                
 21  8 15  2 36  0.0000000  0 13G 6G12R24R18G29R14G20G24R16G25R17R15
                                G 2
  22258816.641   116970870.053    22258825.055    91146169.7244   22258825.773  
                
  20123741.344   105750987.056    20123746.488    82403396.6874   20123746.992  
                
  20923841.070   111889183.906                    87024923.518    20923845.539  
  20923840.117  
  21751031.625   116108479.404                    90306588.317    21751035.176  
  21751030.113  
  23040266.844   121077415.380    23040273.090    94346069.5484   23040273.301  
                
  20575243.164   109677632.193                    85304815.349    20575247.672  
  20575242.871  
  24235923.242   127360635.447    24235929.523    99242079.6974                 
                
  22830573.656   119975486.816    22830582.676    93487420.8054   22830582.688  
                
  22751914.070   121536643.195                    94528489.288    22751915.879  
  22751913.562  
  20867989.023   109662028.267    20867998.023    85450972.9504   20867998.371  
                
  19077641.266   102088327.548                    79402018.594    19077644.676  
  19077639.477  
  19246071.789   102845180.766                    79990691.547    19246075.910  
  19246072.059  
  21257834.625   111710682.486    21257838.348    87047302.6524                 
                
 21  8 15  2 36 10.0000000  0 13G 6G12R24R18G29R14G20G24R16G25R17R15
                                G 2
  22263119.977   116993484.242    22263128.375    91163791.1664   22263129.102  
                
  20123864.625   105751634.868    20123869.754    82403901.4754   20123870.270  
                
  20929848.352   111921307.466                    87049908.500    20929852.812  
  20929847.379  
  21744336.719   116072741.302                    90278792.011    21744340.215  
  21744335.191  
  23034990.516   121049688.109    23034996.773    94324463.8754   23034996.980  
                
  20580715.156   109706800.935                    85327502.141    20580719.664  
  20580714.883  
  24230509.336   127332185.534    24230515.648    99219910.9574                 
                
  22836992.297   120009217.095    22837001.336    93513704.1264   22837001.348  
                
  22744535.336   121497227.351                    94497832.527    22744537.203  
  22744534.875  
  20864288.445   109642581.617    20864297.434    85435819.7114   20864297.797  
                
  19076757.750   102083599.670                    79398341.359    19076761.164  
  19076755.953  
  19244294.344   102835682.636                    79983304.109    19244298.461  
  19244294.605  
  21258573.406   111714564.820    21258577.117    87050327.8494                 
                
 21  8 15  2 36 20.0000000  0 13G 6G12R24R18G29R14G20G24R16G25R17R15
                                G 2
  22267432.961   117016149.111    22267441.371    91181452.0884   22267442.094  
                
  20123996.570   105752328.212    20124001.691    82404441.7414   20124002.215  
                
  20935862.688   111953468.783                    87074922.846    20935867.160  
  20935861.703  
  21737649.625   116037045.037                    90251028.251    21737653.078  
  21737648.102  
  23029718.734   121021984.646    23029724.988    94302876.7524   23029725.180  
                
  20586197.609   109736025.389                    85350232.267    20586202.117  
  20586197.359  
  24225097.914   127303748.376    24225104.219    99197752.1294                 
                
  22843415.367   120042970.444    22843424.402    93540005.4244   22843424.426  
                
  22737159.578   121457827.015                    94467187.814    22737161.418  
  22737159.102  
  20860594.555   109623170.085    20860603.539    85420693.8444   20860603.906  
                
  19075888.242   102078946.751                    79394722.420    19075891.648  
  19075886.438  
  19242530.297   102826256.089                    79975972.340    19242534.410  
  19242530.555  
  21259323.164   111718504.814    21259326.863    87053397.9714                 
                
 21  8 15  2 36 30.0000000  0 13G 6G12R24R18G29R14G20G24R16G25R17R15
                                G 2
  22271755.547   117038864.465    22271763.969    91199152.3434   22271764.695  
                
  20124137.156   105753066.961    20124142.281    82405017.3834   20124142.797  
                
  20941884.031   111985667.593                    87099966.357    20941888.504  
  20941883.062  
  21730970.344   116001390.418                    90223296.874    21730973.723  
  21730968.820  
  23024451.445   120994304.860    23024457.738    94281308.0944   23024457.922  
                
  20591690.492   109765305.370                    85373005.585    20591694.984  
  20591690.254  
  24219688.961   127275324.006    24219695.277    99175603.2814                 
                
  22849842.773   120076746.621    22849851.801    93566324.5094   22849851.824  
                
  22729786.797   121418442.708                    94436555.577    22729788.602  
  22729786.293  
  20856907.336   109603793.627    20856916.320    85405595.3024   20856916.695  
                
  19075032.719   102074368.675                    79391161.689    19075036.125  
  19075030.910  
  19240779.648   102816901.121                    79968696.247    19240783.750  
  19240779.898  
  21260083.867   111722502.290    21260087.551    87056512.8784                 
                
 21  8 15  2 36 40.0000000  0 13G 6G12R24R18G29R14G20G24R16G25R17R15
                                G 2
  22276087.703   117061630.161    22276096.121    91216891.8384   22276096.863  
                
  20124286.383   105753851.168    20124291.512    82405628.4514   20124292.023  
                
  20947912.367   112017903.755                    87125038.925    20947916.820  
  20947911.406  
  21724298.836   115965777.577                    90195597.973    21724302.207  
  21724297.324  
  23019188.648   120966648.736    23019195.012    94259757.8674   23019195.188  
                
  20597193.734   109794640.749                    85395821.979    20597198.223  
  20597193.516  
  24214282.305   127246912.372    24214288.707    99153464.3844                 
                
  22856274.484   120110545.511    22856283.500    93592661.2954   22856283.547  
                
  22722416.898   121379074.151                    94405935.588    22722418.719  
  22722416.352  
  20853226.789   109584452.282    20853235.766    85390524.1284   20853236.156  
                
  19074191.172   102069865.421                    79387659.155    19074194.566  
  19074189.355  
  19239042.367   102807617.664                    79961475.778    19239046.465  
  19239042.621  
  21260855.477   111726557.214    21260859.145    87059672.5564                 
                
 21  8 15  2 36 50.0000000  0 13G 6G12R24R18G29R14G20G24R16G25R17R15
                                G 2
  22280429.492   117084446.405    22280437.918    91234670.7284   22280438.676  
                
  20124444.312   105754681.074    20124449.449    82406275.1264   20124449.957  
                
  20953947.711   112050177.359                    87150140.618    20953952.160  
  20953946.766  
  21717635.219   115930206.905                    90167931.898    21717638.602  
  21717633.711  
  23013930.430   120939016.617    23013936.863    94238226.3464   23013937.023  
                
  20602707.438   109824031.765                    85418681.637    20602711.910  
  20602707.258  
  24208878.078   127218513.940    24208884.625    99131335.7134                 
                
  22862710.578   120144367.296    22862719.586    93619015.9274   22862719.633  
                
  22715050.047   121339721.793                    94375328.204    22715051.875  
  22715049.469  
  20849553.016   109565146.405    20849561.984    85375480.5834   20849562.391  
                
  19073363.648   102065437.156                    79384214.950    19073367.055  
  19073361.816  
  19237318.555   102798406.111                    79954311.228    19237322.641  
  19237318.809  
  21261638.078   111730669.802    21261641.738    87062877.1694                 
                
 21  8 15  2 37  0.0000000  0 13G 6G12R24R18G29R14G20G24R16G25R17R15
                                G 2
  22284780.867   117107313.014    22284789.320    91252488.8624   22284790.074  
                
  20124610.945   105755556.696    20124616.094    82406957.4184   20124616.586  
                
  20959990.031   112082488.195                    87175271.263    20959994.465  
  20959989.098  
  21710979.500   115894678.336                    90140298.556    21710982.883  
  21710978.000  
  23008676.750   120911408.412    23008683.230    94216713.4634   23008683.379  
                
  20608231.531   109853478.175                    85441584.397    20608235.977  
  20608231.363  
  24203476.500   127190128.526    24203483.023    99109217.2344                 
