     2.11           OBSERVATION DATA    M (MIXED)           RINEX VERSION / TYPE
EFT-CORS.RU                             20210817 144916 UTC PGM / RUN BY / DATE 
MDNG                                                        MARKER NAME         
                                                            MARKER NUMBER       
MDNG                EFT-CORS.RU                             OBSERVER / AGENCY   
0                   TRIMBLE BD970       2.0                 REC # / TYPE / VERS 
0                   UNKNOWN EXT NONE                        ANT # / TYPE        
  3463911.2830  3030468.2400  4402179.3760                  APPROX POSITION XYZ 
        0.0000        0.0000        0.0000                  ANTENNA: DELTA H/E/N
     1     1                                                WAVELENGTH FACT L1/2
     6    C1    L1    P2    L2    C2    P1                  # / TYPES OF OBSERV 
    10.000                                                  INTERVAL            
  2021     8    16    17    30    0.0000000     GPS         TIME OF FIRST OBS   
  2021     8    16    18    30    0.0000000     GPS         TIME OF LAST OBS    
     0                                                      RCV CLOCK OFFS APPL 
                                                            END OF HEADER       
 21  8 16 17 30  0.0000000  0 14G 4G16R 1G30G 9R13G 6G20R12G 7G 2R 3
                                G 3R 2
  21575805.969   113381669.154    21575813.664    88349402.1744   21575813.641  
                
  22460612.633   118031360.380    22460618.160    91972534.6684                 
                
  23221149.586   124130358.893                    96545831.366    23221157.422  
  23221148.879  
  23392017.875   122925911.513    23392027.875    95786477.6394   23392028.180  
                
  20345586.266   106916815.881    20345594.238    83311859.3624   20345594.098  
                
  20398800.172   108928461.264                    84722175.870    20398803.465  
  20398798.148  
  23871403.547   125445045.617    23871414.184    97749442.9304   23871414.535  
                
  23708196.984   124587415.275    23708203.363    97081136.1184                 
                
  19333049.211   103273723.847                    80324010.406    19333052.535  
  19333048.688  
  21022433.961   110473675.936    21022440.328    86083436.2934   21022440.344  
                
  24739794.219   130008503.712    24739799.922   101305339.2564                 
                
  20693058.219   110771577.519                    86155678.072    20693062.461  
  20693057.023  
  24732103.633   129968072.228    24732114.312   101273868.9194   24732115.094  
                
  19231357.102   102622223.993                    79817290.323    19231360.312  
  19231354.777  
 21  8 16 17 30 10.0000000  0 14G 4G16R 1G30G 9R13G 6G20R12G 7G 2R 3
                                G 3R 2
  21579505.695   113401111.265    21579513.391    88364551.8614   21579513.375  
                
  22463583.477   118046972.305    22463589.027    91984699.8244                 
                
  23228037.305   124167177.056                    96574467.710    23228045.105  
  23228036.488  
  23386384.688   122896309.129    23386394.723    95763410.8524   23386395.004  
                
  20345508.305   106916406.240    20345516.289    83311540.1574   20345516.152  
                
  20393159.328   108898339.509                    84698747.853    20393162.629  
  20393157.273  
  23876101.367   125469732.724    23876111.980    97768679.6314   23876112.363  
                
  23702296.352   124556407.225    23702302.719    97056974.0154                 
                
  19334962.445   103283943.985                    80331959.409    19334965.758  
  19334961.926  
  21019902.047   110460370.626    21019908.398    86073068.5204   21019908.414  
                
  24741087.672   130015300.751    24741093.270   101310635.6684                 
                
  20687621.680   110742475.292                    86133043.012    20687625.898  
  20687620.492  
  24739415.109   130006494.793    24739425.930   101303808.5534   24739426.691  
                
  19232463.844   102628129.841                    79821883.755    19232467.047  
  19232461.523  
 21  8 16 17 30 20.0000000  0 14G 4G16R 1G30G 9R13G 6G20R12G 7G 2R 3
                                G 3R 2
  21583210.961   113420582.508    21583218.672    88379724.2524   21583218.645  
                
  22466567.227   118062651.963    22466572.816    91996917.7384                 
                
  23234929.469   124204019.963                    96603123.292    23234937.348  
  23234928.637  
  23380755.758   122866728.947    23380765.797    95740361.3714   23380766.062  
                
  20345437.773   106916035.637    20345445.762    83311251.3754   20345445.613  
                
  20387529.969   108868279.121                    84675367.540    20387533.250  
  20387527.922  
  23880805.375   125494452.563    23880816.012    97787941.8084   23880816.402  
                
  23696402.000   124525432.179    23696408.375    97032837.6564                 
                
  19336890.562   103294243.623                    80339970.242    19336893.875  
  19336890.043  
  21017377.258   110447102.765    21017383.605    86062729.9394   21017383.621  
                
  24742390.305   130022146.034    24742395.898   101315969.6424                 
                
  20682191.023   110713404.608                    86110432.494    20682195.227  
  20682189.832  
  24746727.945   130044924.452    24746738.922   101333753.7084   24746739.656  
                
  19233582.477   102634099.098                    79826526.504    19233585.680  
  19233580.152  
 21  8 16 17 30 30.0000000  0 14G 4G16R 1G30G 9R13G 6G20R12G 7G 2R 3
                                G 3R 2
  21586921.781   113440082.892    21586929.520    88394919.3504   21586929.473  
                
  22469563.844   118078399.304    22469569.473    92009188.3964                 
                
  23241826.188   124240887.517                    96631798.006    23241834.172  
  23241825.410  
  23375131.070   122837171.027    23375141.133    95717329.2414   23375141.410  
                
  20345374.688   106915704.127    20345382.676    83310993.0574   20345382.531  
                
  20381912.094   108838280.064                    84652034.955    20381915.371  
  20381910.027  
  23885515.648   125519205.008    23885526.262    97807229.4024   23885526.656  
                
  23690513.977   124494490.347    23690520.320    97008727.1264                 
                
  19338833.602   103304622.978                    80348043.086    19338836.910  
  19338833.074  
  21014859.602   110433872.393    21014865.945    86052420.5564   21014865.941  
                
  24743702.109   130029039.515    24743707.727   101321341.1524                 
                
  20676766.289   110684365.613                    86087846.607    20676770.508  
  20676765.102  
  24754042.203   130083361.182    24754053.262   101363704.3944   24754053.965  
                
  19234712.977   102640131.702                    79831218.532    19234716.184  
  19234710.652  
 21  8 16 17 30 40.0000000  0 14G 4G16R 1G30G 9R13G 6G20R12G 7G 2R 3
                                G 3R 2
  21590638.094   113459612.155    21590645.855    88410136.9504   21590645.805  
                
  22472573.258   118094213.904    22472578.926    92021511.4794                 
                
  23248727.500   124277779.394                    96660491.665    23248735.551  
  23248726.777  
  23369510.562   122807635.125    23369520.680    95694314.2684   23369520.941  
                
  20345319.000   106915411.461    20345326.977    83310765.0044   20345326.840  
                
  20376305.633   108808342.031                    84628749.837    20376308.914  
  20376303.543  
  23890232.008   125543989.659    23890242.672    97826542.0994   23890243.035  
                
  23684632.211   124463581.437    23684638.500    96984642.2584                 
                
  19340791.453   103315081.479                    80356177.480    19340794.770  
  19340790.930  
  21012349.023   110420679.213    21012355.383    86042140.1644   21012355.363  
                
  24745023.016   130035980.895    24745028.621   101326749.9944                 
                
  20671347.430   110655358.042                    86065285.171    20671351.645  
  20671346.246  
  24761357.703   130121804.570    24761368.863   101393660.2684   24761369.520  
                
  19235855.266   102646227.256                    79835959.527    19235858.480  
  19235852.961  
 21  8 16 17 30 50.0000000  0 14G 4G16R 1G30G 9R13G 6G20R12G 7G 2R 3
                                G 3R 2
  21594359.953   113479170.551    21594367.742    88425377.2664   21594367.676  
                
  22475595.539   118110096.057    22475601.230    92033887.1794                 
                
  23255633.750   124314695.795                    96689204.421    23255641.500  
  23255632.805  
  23363894.312   122778121.566    23363904.504    95671316.7064   23363904.738  
                
  20345270.750   106915157.919    20345278.719    83310567.4444   20345278.594  
                
  20370710.797   108778466.053                    84605512.966    20370714.102  
  20370708.719  
  23894954.602   125568806.721    23894965.273    97845880.0554   23894965.617  
                
  23678756.812   124432705.923    23678762.988    96960583.3964                 
                
  19342764.180   103325619.453                    80364373.675    19342767.488  
  19342763.652  
  21009845.602   110407523.626    21009851.992    86031889.0634   21009851.945  
                
  24746353.078   130042970.341    24746358.648   101332196.3224                 
                
  20665934.531   110626382.399                    86042748.576    20665938.750  
  20665933.359  
  24768674.609   130160254.875    24768685.789   101423621.5274   24768686.391  
                
  19237009.492   102652386.419                    79840749.978    19237012.672  
  19237007.207  
 21  8 16 17 31  0.0000000  0 14G 4G16R 1G30G 9R13G 6G20R12G 7G 2R 3
                                G 3R 2
  21598087.312   113498757.950    21598095.125    88440640.1694   21598095.047  
                
  22478630.633   118126045.613    22478636.352    92046315.4134                 
                
  23262544.414   124351636.507                    96717936.088    23262552.012  
  23262543.367  
  23358282.281   122748630.270    23358292.570    95648336.5034   23358292.773  
                
  20345229.930   106914943.448    20345237.887    83310400.3154   20345237.777  
                
  20365127.438   108748651.441                    84582323.847    20365130.777  
  20365125.375  
  23899683.227   125593655.957    23899693.980    97865243.0704   23899694.320  
                
  23672887.750   124401863.719    23672893.816    96936550.5074                 
                
  19344751.727   103336236.599                    80372631.465    19344755.039  
  19344751.203  
  21007349.281   110394405.441    21007355.719    86021667.1104   21007355.645  
                
  24747692.250   130050007.745    24747697.812   101337679.9974                 
                
  20660527.562   110597438.503                    86020236.663    20660531.789  
  20660526.395  
  24775992.773   130198711.840    24776003.961   101453587.9784   24776004.531  
                
  19238175.523   102658608.615                    79845589.463    19238178.680  
  19238173.266  
 21  8 16 17 31 10.0000000  0 14G 4G16R 1G30G 9R13G 6G20R12G 7G 2R 3
                                G 3R 2
  21601820.219   113518374.461    21601828.047    88455925.7544   21601827.980  
                
  22481678.555   118142062.584    22481684.285    92058796.1704                 
                
  23269459.430   124388601.761                    96746686.860    23269467.078  
  23269458.520  
  23352674.562   122719161.424    23352684.906    95625373.7824   23352685.094  
                
  20345196.578   106914768.173    20345204.535    83310263.7364   20345204.418  
                
  20359555.703   108718898.767                    84559182.885    20359559.051  
  20359553.625  
  23904418.008   125618537.387    23904428.785    97884631.1784   23904429.141  
                
  23667025.062   124371055.068    23667031.094    96912543.7754                 
                
  19346754.109   103346932.964                    80380950.860    19346757.422  
  19346753.582  
  21004860.109   110381324.761    21004866.602    86011474.3794   21004866.500  
                
  24749040.586   130057093.155    24749046.195   101343201.0854                 
                
  20655126.594   110568526.751                    85997749.754    20655130.816  
  20655125.422  
  24783312.242   130237175.541    24783323.426   101483559.6744   24783323.977  
                
  19239353.406   102664894.055                    79850478.139    19239356.547  
  19239351.172  
 21  8 16 17 31 20.0000000  0 14G 4G16R 1G30G 9R13G 6G20R12G 7G 2R 3
                                G 3R 2
  21605558.648   113538019.980    21605566.504    88471233.9324   21605566.426  
                
  22484739.273   118158146.802    22484745.016    92071329.3314                 
                
  23276379.008   124425591.217                    96775456.411    23276386.703  
  23276378.195  
  23347071.109   122689714.913    23347081.469    95602428.4654   23347081.637  
                
  20345170.664   106914632.028    20345178.625    83310157.6454   20345178.504  
                
  20353995.484   108689207.613                    84536089.787    20353998.812  
  20353993.406  
  23909158.914   125643450.781    23909169.645    97904044.1974   23909170.027  
                
  23661168.742   124340279.944    23661174.746    96888563.1594                 
                
  19348771.289   103357708.387                    80389331.744    19348774.602  
  19348770.773  
  21002378.047   110368281.473    21002384.582    86001310.7844   21002384.445  
                
  24750398.047   130064226.471    24750403.652   101348759.5084                 
                
  20649731.664   110539647.272                    85975287.939    20649735.883  
  20649730.484  
  24790632.930   130275645.799    24790644.137   101513536.4774   24790644.672  
                
  19240543.172   102671242.872                    79855416.097    19240546.281  
  19240540.969  
 21  8 16 17 31 30.0000000  0 14G 4G16R 1G30G 9R13G 6G20R12G 7G 2R 3
                                G 3R 2
  21609302.602   113557694.550    21609310.492    88486564.7664   21609310.398  
                
  22487812.781   118174298.203    22487818.539    92083914.8424                 
                
  23283303.234   124462605.028                    96804244.951    23283310.973  
  23283302.449  
  23341471.906   122660290.834    23341482.281    95579500.6314   23341482.441  
                
  20345152.219   106914535.054    20345160.191    83310082.0804   20345160.062  
                
  20348446.914   108659578.490                    84513044.918    20348450.238  
  20348444.828  
  23913905.852   125668396.064    23913916.602    97923482.0644   23913916.973  
                
  23655318.844   124309538.507    23655324.816    96864608.8024                 
                
  19350803.258   103368562.776                    80397774.052    19350806.578  
  19350802.754  
  20999903.117   110355275.649    20999909.699    85991176.3874   20999909.535  
                
  24751764.609   130071407.674    24751770.195   101354355.2454                 
                
  20644342.742   110510799.919                    85952851.126    20644346.949  
  20644341.555  
  24797954.898   130314122.600    24797966.125   101543518.3984   24797966.602  
                
  19241744.805   102677654.974                    79860403.290    19241747.895  
  19241742.625  
 21  8 16 17 31 40.0000000  0 14G 4G16R 1G30G 9R13G 6G20R12G 7G 2R 3
                                G 3R 2
  21613052.055   113577398.104    21613059.953    88501918.1604   21613059.852  
                
  22490899.008   118190516.569    22490904.797    92096552.5424                 
                
  23290231.977   124499642.956                    96833052.241    23290239.676  
  23290231.207  
  23335876.961   122630889.171    23335887.344    95556590.2634   23335887.508  
                
  20345141.203   106914477.240    20345149.184    83310037.0324   20345149.062  
                
  20342909.930   108630011.293                    84490048.216    20342913.238  
  20342907.855  
  23918658.789   125693373.082    23918669.562    97942944.6604   23918669.941  
                
  23649475.352   124278830.785    23649481.250    96840680.7094                 
                
  19352849.984   103379496.055                    80406277.715    19352853.309  
  19352849.492  
  20997435.297   110342307.251    20997441.930    85981071.1484   20997441.750  
                
  24753140.242   130078636.695    24753145.828   101359988.2404                 
                
  20638959.836   110481984.835                    85930439.383    20638964.027  
  20638958.641  
  24805278.008   130352605.794    24805289.293   101573505.2914   24805289.734  
                
  19242958.344   102684130.696                    79865439.960    19242961.402  
  19242956.199  
 21  8 16 17 31 50.0000000  0 14G 4G16R 1G30G 9R13G 6G20R12G 7G 2R 3
                                G 3R 2
  21616807.039   113597130.699    21616814.969    88517294.2064   21616814.852  
                
  22493998.055   118206802.195    22494003.875    92109242.6394                 
                
  23297165.250   124536705.131                    96861878.365    23297172.934  
  23297164.504  
  23330286.312   122601510.043    23330296.691    95533697.4544   23330296.855  
                
  20345137.672   106914458.684    20345145.660    83310022.5744   20345145.539  
                
  20337384.578   108600506.289                    84467099.892    20337387.902  
  20337382.508  
  23923417.781   125718381.834    23923428.582    97962431.9614   23923428.949  
                
  23643638.328   124248157.047    23643644.129    96816779.0714                 
                
  19354911.508   103390508.314                    80414842.792    19354914.840  
  19354910.996  
  20994974.625   110329376.358    20994981.312    85970995.1344   20994981.125  
                
  24754524.984   130085913.459    24754530.609   101365658.4464                 
                
  20633583.023   110453202.370                    85908053.035    20633587.207  
  20633581.832  
  24812602.297   130391095.372    24812613.695   101603497.1364   24812614.090  
                
  19244183.773   102690669.771                    79870525.900    19244186.805  
  19244181.660  
 21  8 16 17 32  0.0000000  0 14G 4G16R 1G30G 9R13G 6G20R12G 7G 2R 3
                                G 3R 2
  21620567.562   113616892.336    21620575.523    88532692.8734   21620575.398  
                
  22497109.867   118223154.888    22497115.730    92121985.0094                 
                
  23304102.984   124573791.381                    96890723.229    23304110.723  
  23304102.250  
  23324699.938   122572153.465    23324710.289    95510822.2234   23324710.477  
                
  20345141.609   106914479.406    20345149.605    83310038.7264   20345149.496  
                
  20331870.906   108571063.599                    84444200.030    20331874.199  
  20331868.836  
  23928182.812   125743422.152    23928193.609    97981943.8724   23928193.992  
                
  23637807.766   124217517.445    23637813.504    96792904.0494                 
                
  19356987.766   103401599.340                    80423469.157    19356991.109  
  19356987.238  
  20992521.086   110316482.961    20992527.820    85960948.3324   20992527.621  
                
  24755918.836   130093237.973    24755924.539   101371365.8494                 
                
  20628212.297   110424452.488                    85885692.013    20628216.484  
  20628211.133  
  24819927.844   130429591.218    24819939.305   101633493.8664   24819939.645  
                
  19245421.141   102697272.557                    79875661.398    19245424.160  
  19245419.066  
 21  8 16 17 32 10.0000000  0 14G 4G16R 1G30G 9R13G 6G20R12G 7G 2R 3
                                G 3R 2
  21624333.594   113636682.972    21624341.574    88548114.1424   21624341.438  
                
  22500234.422   118239574.599    22500240.348    92134779.5874                 
                
  23311045.172   124610901.649                    96919586.727    23311052.977  
  23311044.500  
  23319117.867   122542819.475    23319128.152    95487964.5804   23319128.367  
                
  20345153.031   106914539.399    20345161.039    83310085.4724   20345160.930  
                
  20326368.859   108541683.095                    84421348.524    20326372.145  
  20326366.816  
  23932953.812   125768493.931    23932964.633    98001480.3104   23932965.016  
                
  23631983.695   124186911.936    23631989.402    96769055.6374                 
                
  19359078.758   103412769.052                    80432156.710    19359082.109  
  19359078.211  
  20990074.680   110303627.072    20990081.449    85950930.7674   20990081.246  
                
  24757321.742   130100610.185    24757327.473   101377110.4304                 
                
  20622847.680   110395735.256                    85863356.404    20622851.859  
  20622846.531  
  24827254.523   130468093.285    24827266.066   101663495.4404   24827266.348  
                
  19246670.391   102703938.777                    79880846.243    19246673.391  
  19246668.336  
 21  8 16 17 32 20.0000000  0 14G 4G16R 1G30G 9R13G 6G20R12G 7G 2R 3
                                G 3R 2
  21628105.156   113656502.592    21628113.160    88563557.9904   21628113.004  
                
  22503371.711   118256061.207    22503377.699    92147626.3024                 
                
  23317991.875   124648035.655                    96948468.711    23317999.711  
  23317991.184  
  23313540.094   122513508.119    23313550.320    95465124.5734   23313550.551  
                
  20345171.922   106914638.685    20345179.938    83310162.8354   20345179.828  
                
  20320878.500   108512364.869                    84398545.479    20320881.773  
  20320876.469  
  23937730.727   125793597.061    23937741.598    98021041.1594   23937741.969  
                
  23626166.117   124156340.494    23626171.828    96745233.7414                 
                
  19361184.453   103424017.312                    80440905.366    19361187.809  
  19361183.891  
  20987635.430   110290808.739    20987642.223    85940942.4634   20987642.012  
                
  24758733.703   130108030.008    24758739.414   101382892.0844                 
                
  20617489.211   110367050.935                    85841046.390    20617493.402  
  20617488.078  
  24834582.414   130506601.527    24834594.012   101693501.8434   24834594.277  
                
  19247931.562   102710668.561                    79886080.513    19247934.539  
  19247929.527  
 21  8 16 17 32 30.0000000  0 14G 4G16R 1G30G 9R13G 6G20R12G 7G 2R 3
                                G 3R 2
  21631882.195   113676351.059    21631890.207    88579024.3324   21631890.047  
                
  22506521.695   118272614.503    22506527.703    92160524.9754                 
                
  23324943.211   124685193.550                    96977369.283    23324950.934  
  23324942.375  
  23307966.578   122484219.237    23307976.770    95442302.0924   23307977.000  
                
  20345198.266   106914777.152    20345206.289    83310270.7334   20345206.180  
                
  20315399.805   108483109.042                    84375790.950    20315403.102  
  20315397.793  
  23942513.641   125818731.258    23942524.465    98040626.2444   23942524.844  
                
  23620355.055   124125803.197    23620360.715    96721438.4164                 
                
  19363304.812   103435343.897                    80449714.942    19363308.176  
  19363304.238  
  20985203.266   110278027.688    20985210.086    85930983.2104   20985209.867  
                
  24760154.695   130115497.291    24760160.379   101388710.7384                 
                
  20612136.844   110338399.304                    85818761.804    20612141.043  
  20612135.684  
  24841911.516   130545115.712    24841923.066   101723512.9054   24841923.324  
                
  19249204.664   102717462.058                    79891364.347    19249207.625  
  19249202.645  
 21  8 16 17 32 40.0000000  0 14G 4G16R 1G30G 9R13G 6G20R12G 7G 2R 3
                                G 3R 2
  21635664.742   113696228.421    21635672.738    88594513.1544   21635672.582  
                
  22509684.367   118289234.439    22509690.367    92173475.5794                 
                
  23331898.906   124722375.231                    97006288.368    23331906.562  
  23331898.023  
  23302397.383   122454952.973    23302407.547    95419497.2184   23302407.758  
                
  20345232.078   106914954.856    20345240.105    83310409.2014   20345239.992  
                
  20309932.844   108453915.821                    84353085.130    20309936.152  
  20309930.824  
  23947302.406   125843896.480    23947313.273    98060235.4734   23947313.621  
                
  23614550.523   124095300.192    23614556.156    96697669.8504                 
                
  19365439.844   103446748.905                    80458585.498    19365443.207  
  19365439.258  
  20982778.211   110265283.960    20982785.062    85921053.0514   20982784.852  
                
  24761584.719   130123011.994    24761590.449   101394566.3544                 
                
  20606790.648   110309780.743                    85796502.930    20606794.859  
  20606789.465  
  24849241.609   130583635.692    24849253.199   101753528.4534   24849253.441  
                
  19250489.625   102724318.817                    79896697.381    19250492.562  
  19250487.633  
 21  8 16 17 32 50.0000000  0 14G 4G16R 1G30G 9R13G 6G20R12G 7G 2R 3
                                G 3R 2
  21639452.812   113716134.801    21639460.789    88610024.6274   21639460.637  
                
  22512859.727   118305921.105    22512865.762    92186478.1804                 
                
  23338858.758   124759580.753                    97035225.960    23338866.656  
  23338858.020  
  23296832.500   122425709.503    23296842.645    95396710.1114   23296842.867  
                
  20345273.406   106915172.028    20345281.441    83310578.4224   20345281.328  
                
  20304477.617   108424785.305                    84330428.063    20304480.934  
  20304475.602  
  23952097.047   125869092.815    23952107.961    98079868.9444   23952108.316  
                
  23608752.555   124064831.807    23608758.184    96673928.2414                 
                
  19367589.570   103458232.359                    80467517.076    19367592.945  
  19367588.980  
  20980360.305   110252577.820    20980367.188    85911152.1734   20980366.973  
                
  24763023.836   130130574.338    24763029.645   101400459.0704                 
                
  20601450.664   110281195.479                    85774269.965    20601454.871  
  20601449.453  
  24856572.852   130622161.646    24856584.480   101783548.6404   24856584.707  
                
  19251786.508   102731239.176                    79902079.880    19251789.426  
  19251784.543  
 21  8 16 17 33  0.0000000  0 14G 4G16R 1G30G 9R13G 6G20R12G 7G 2R 3
                                G 3R 2
  21643246.367   113736070.048    21643254.320    88625558.5714   21643254.176  
                
  22516047.742   118322674.294    22516053.801    92199532.6174                 
                
  23345823.078   124796809.921                    97064181.991    23345831.094  
  23345822.465  
  23291271.914   122396488.661    23291282.043    95373940.6344   23291282.281  
                
  20345322.203   106915428.474    20345330.242    83310778.2494   20345330.137  
                
  20299034.102   108395717.380                    84307819.672    20299037.477  
  20299032.117  
  23956897.617   125894319.914    23956908.480    98099526.3974   23956908.840  
                
  23602961.117   124034397.860    23602966.789    96650213.4824                 
                
  19369753.914   103469793.922                    80476509.402    19369757.293  
  19369753.332  
  20977949.531   110239909.197    20977956.430    85901280.5284   20977956.199  
                
  24764471.922   130138183.970    24764477.773   101406388.6384                 
                
  20596116.867   110252643.294                    85752062.712    20596121.082  
  20596115.652  
  24863905.234   130660693.403    24863916.863   101813573.4214   24863917.086  
                
  19253095.305   102738223.139                    79907511.847    19253098.195  
  19253093.352  
 21  8 16 17 33 10.0000000  0 13G 4G16R 1G30G 9R13G 6G20R12G 7G 2R 3
                                R 2
  21647045.375   113756033.947    21647053.312    88641114.8294   21647053.176  
                
  22519248.367   118339493.726    22519254.441    92212638.6724                 
                
  23352792.188   124834062.491                    97093156.171    23352799.891  
  23352791.398  
  23285715.625   122367290.307    23285725.754    95351188.6934   23285725.992  
                
  20345378.438   106915724.006    20345386.488    83311008.5314   20345386.371  
                
  20293602.297   108366711.886                    84285259.852    20293605.691  
  20293600.324  
  23961703.977   125919577.469    23961714.832    98119207.5824   23961715.188  
                
  23597176.234   124003998.278    23597181.992    96626525.5354                 
                
  19371932.836   103481433.304                    80485562.261    19371936.223  
  19371932.254  
  20975545.820   110227277.607    20975552.703    85891437.7334   20975552.484  
                
  24765928.953   130145840.702    24765934.809   101412354.8764                 
                
  20590789.234   110224124.112                    85729881.131    20590793.449  
  20590787.996  
  19254415.977   102745270.427                    79912993.064    19254418.852  
  19254414.031  
 21  8 16 17 33 20.0000000  0 13G 4G16R 1G30G 9R13G 6G20R12G 7G 2R 3
                                R 2
  21650849.891   113776026.780    21650857.820    88656693.6584   21650857.684  
                
  22522461.641   118356379.648    22522467.727    92225796.5354                 
                
  23359765.648   124871338.523                    97122148.669    23359773.113  
  23359764.727  
  23280163.703   122338114.782    23280173.848    95328454.5334   23280174.070  
                
  20345442.172   106916058.981    20345450.234    83311269.5494   20345450.109  
                
  20288182.266   108337769.318                    84262748.984    20288185.688  
  20288180.305  
  23966516.227   125944865.667    23966527.055    98138912.6644   23966527.391  
                
  23591397.969   123973633.504    23591403.824    96602864.6704                 
                
  19374126.383   103493150.864                    80494675.927    19374129.785  
  19374125.793  
  20973149.227   110214683.478    20973156.086    85881624.1364   20973155.875  
                
  24767395.008   130153544.775    24767400.816   101418358.0384                 
                
  20585467.875   110195638.506                    85707725.656    20585472.078  
  20585466.641  
  19255748.562   102752381.358                    79918523.798    19255751.438  
  19255746.617  
 21  8 16 17 33 30.0000000  0 13G 4G16R 1G30G 9R13G 6G20R12G 7G 2R 3
                                R 2
  21654659.914   113796048.575    21654667.828    88672295.0514   21654667.711  
                
  22525687.586   118373332.129    22525693.691    92239006.2654                 
                
  23366743.438   124908638.236                    97151159.543    23366750.770  
  23366742.469  
  23274616.141   122308962.182    23274626.324    95305738.2454   23274626.527  
                
  20345513.430   106916433.477    20345521.512    83311561.3694   20345521.383  
                
  20282774.086   108308889.953                    84240287.260    20282777.504  
  20282772.137  
  23971334.352   125970184.492    23971345.133    98158641.5904   23971345.434  
                
  23585626.383   123943303.759    23585632.328    96579231.0994                 
                
  19376334.508   103504946.300                    80503850.161    19376337.918  
  19376333.914  
  20970759.781   110202126.879    20970766.609    85871839.7734   20970766.422  
                
  24768870.070   130161296.272    24768875.816   101424398.1474                 
                
  20580152.789   110167186.460                    85685596.301    20580156.977  
  20580151.555  
  19257093.156   102759556.362                    79924104.347    19257096.031  
  19257091.219  
 21  8 16 17 33 40.0000000  0 13G 4G16R 1G30G 9R13G 6G20R12G 7G 2R 3
                                R 2
  21658475.586   113816100.030    21658483.527    88687919.5554   21658483.402  
                
  22528926.297   118390351.707    22528932.422    92252268.2704                 
                
  23373725.609   124945962.124                    97180189.251    23373732.934  
  23373724.719  
  23269073.094   122279833.200    23269083.309    95283040.3574   23269083.473  
                
  20345592.344   106916848.161    20345600.445    83311884.5064   20345600.305  
                
  20277377.836   108280074.350                    84217875.134    20277381.262  
  20277375.844  
  23976158.336   125995534.465    23976169.109    98178394.8034   23976169.398  
                
  23579861.578   123913009.684    23579867.625    96555625.3364                 
                
  19378557.375   103516820.491                    80513085.643    19378560.805  
  19378556.770  
  20968377.602   110189608.419    20968384.406    85862085.1364   20968384.230  
                
  24770354.258   130169095.686    24770360.012   101430475.6044                 
                
  20574844.180   110138769.036                    85663493.856    20574848.336  
  20574842.957  
  19258449.906   102766796.159                    79929735.305    19258452.762  
  19258447.980  
 21  8 16 17 33 50.0000000  0 13G 4G16R 1G30G 9R13G 6G20R12G 7G 2R 3
                                R 2
  21662296.531   113836179.163    21662304.492    88703565.6194   21662304.359  
                
  22532177.391   118407436.295    22532183.527    92265580.9504                 
                
  23380712.023   124983308.162                    97209236.159    23380719.199  
  23380711.078  
  23263534.180   122250725.939    23263544.402    95260359.3914   23263544.547  
                
  20345678.539   106917301.117    20345686.652    83312237.4554   20345686.508  
                
  20271993.172   108251320.689                    84195511.188    20271996.613  
  20271991.184  
  23980987.867   126020913.555    23980998.617    98198170.6984   23980998.898  
                
  23574103.242   123882749.471    23574109.344    96532045.9484                 
                
  19380794.562   103528771.201                    80522380.636    19380797.996  
  19380793.934  
  20966002.320   110177126.262    20966009.082    85852358.7854   20966008.926  
                
  24771847.203   130176941.021    24771852.988   101436588.8454                 
                
  20569541.672   110110384.276                    85641416.832    20569545.816  
  20569540.422  
  19259818.383   102774098.592                    79935414.968    19259821.234  
  19259816.484  
 21  8 16 17 34  0.0000000  0 13G 4G16R 1G30G 9R13G 6G20R12G 7G 2R 3
                                R 2
  21666123.031   113856287.568    21666130.984    88719234.5014   21666130.875  
                
  22535441.148   118424587.498    22535447.285    92278945.5204                 
                
  23387702.672   125020677.911                    97238301.552    23387709.887  
  23387701.852  
  23257999.703   122221642.022    23258009.922    95237696.6054   23258010.059  
                
  20345772.320   106917793.970    20345780.445    83312621.4994   20345780.293  
                
  20266620.430   108222630.546                    84173196.646    20266623.895  
  20266618.453  
  23985823.148   126046323.212    23985833.906    98217970.4094   23985834.203  
                
  23568351.680   123852524.836    23568357.801    96508494.2764                 
                
  19383046.367   103540799.960                    80531736.329    19383049.797  
  19383045.742  
  20963634.250   110164681.999    20963640.965    85842661.9674   20963640.840  
                
  24773349.172   130184833.877    24773354.973   101442739.1084                 
                
  20564245.539   110082033.713                    85619366.391    20564249.672  
  20564244.281  
  19261198.844   102781464.967                    79941144.360    19261201.695  
  19261196.957  
 21  8 16 17 34 10.0000000  0 13G 4G16R 1G30G 9R13G 6G20R12G 7G 2R 3
                                R 2
  21669955.047   113876424.920    21669963.012    88734925.9394   21669962.902  
                
  22538717.508   118441804.913    22538723.629    92292361.6934                 
                
  23394697.977   125058071.121                    97267385.169    23394704.973  
  23394697.070  
  23252469.609   122192581.166    23252479.844    95215051.8064   23252479.969  
                
  20345873.641   106918326.433    20345881.766    83313036.4074   20345881.621  
                
  20261259.555   108194003.748                    84150931.362    20261262.988  
  20261257.602  
  23990664.148   126071763.073    23990674.910    98237793.6404   23990675.230  
                
  23562606.852   123822335.535    23562612.984    96484970.1534                 
                
  19385312.719   103552906.422                    80541152.467    19385316.145  
  19385312.102  
  20961273.312   110152275.216    20961279.977    85832994.3504   20961279.879  
                
  24774860.117   130192773.908    24774865.906   101448926.1054                 
                
  20558955.766   110053717.174                    85597342.423    20558959.887  
  20558954.516  
  19262591.305   102788895.372                    79946923.556    19262594.168  
  19262589.430  
 21  8 16 17 34 20.0000000  0 13G 4G16R 1G30G 9R13G 6G20R12G 7G 2R 3
                                R 2
  21673792.523   113896590.989    21673800.527    88750639.7454   21673800.395  
                
  22542006.414   118459088.294    22542012.504    92305829.2754                 
                
  23401697.547   125095487.358                    97296486.694    23401704.363  
  23401696.582  
  23246943.867   122163543.177    23246954.133    95192424.8244   23246954.246  
                
  20345982.461   106918898.288    20345990.582    83313482.0104   20345990.445  
                
  20255910.508   108165440.210                    84128715.281    20255913.938  
  20255908.570  
  23995510.898   126097232.712    23995521.594    98257640.1084   23995521.953  
                
  23556868.727   123792181.508    23556874.898    96461473.5314                 
                
  19387593.547   103565090.225                    80550628.759    19387596.965  
  19387592.934  
  20958919.477   110139905.712    20958926.098    85823355.7784   20958926.023  
                
  24776379.992   130200760.772    24776385.723   101455149.6504                 
                
  20553672.352   110025434.692                    85575344.944    20553676.457  
  20553671.102  
  19263995.742   102796389.644                    79952752.428    19263998.609  
  19263993.887  
 21  8 16 17 34 30.0000000  0 13G 4G16R 1G30G 9R13G 6G20R12G 7G 2R 3
                                R 2
  21677635.508   113916785.961    21677643.512    88766376.0804   21677643.387  
                
  22545307.914   118476437.796    22545313.973    92319348.3664                 
                
  23408701.445   125132926.726                    97325606.198    23408708.102  
  23408700.477  
  23241422.516   122134528.315    23241432.824    95169815.8554   23241432.941  
                
  20346098.820   106919509.770    20346106.934    83313958.4894   20346106.797  
                
  20250573.383   108136940.227                    84106548.646    20250576.797  
  20250571.434  
  24000363.305   126122732.272    24000374.043    98277509.8724   24000374.402  
                
  23551137.359   123762063.015    23551143.613    96438004.5824                 
                
  19389888.906   103577351.604                    80560165.399    19389892.336  
  19389888.305  
  20956572.789   110127573.762    20956579.367    85813746.4774   20956579.297  
                
  24777908.828   130208794.685    24777914.594   101461409.8474                 
                
  20548395.383   109997186.656                    85553374.251    20548399.480  
  20548394.137  
  19265412.164   102803947.907                    79958631.086    19265415.047  
  19265410.309  
 21  8 16 17 34 40.0000000  0 13G 4G16R 1G30G 9R13G 6G20R12G 7G 2R 3
                                R 2
  21681483.953   113937009.687    21681491.945    88782134.8184   21681491.824  
                
  22548621.914   118493853.043    22548627.980    92332918.6884                 
                
  23415709.570   125170389.171                    97354743.621    23415716.223  
  23415708.672  
  23235905.508   122105536.420    23235915.852    95147224.7954   23235915.984  
                
  20346222.703   106920160.776    20346230.812    83314465.7674   20346230.676  
                
  20245248.188   108108504.035                    84084431.616    20245251.609  
  20245246.219  
  24005221.367   126148261.505    24005232.180    98297402.7524   24005232.496  
                
  23545412.750   123731979.970    23545419.062    96414563.2664                 
                
  19392198.727   103589690.246                    80569762.121    19392202.156  
  19392198.145  
  20954233.203   110115279.141    20954239.727    85804166.2584   20954239.680  
                
  24779446.562   130216875.440    24779452.359   101467706.5114                 
                
  20543124.781   109968972.764                    85531430.131    20543128.867  
  20543123.523  
  19266840.516   102811569.827                    79964559.243    19266843.402  
  19266838.664  
 21  8 16 17 34 50.0000000  0 13G 4G16R 1G30G 9R13G 6G20R12G 7G 2R 3
                                R 2
  21685337.898   113957262.255    21685345.918    88797916.0254   21685345.777  
                
  22551948.453   118511334.138    22551954.508    92346540.3244                 
                
  23422722.062   125207874.636                    97383898.954    23422728.703  
  23422721.121  
  23230392.922   122076567.691    23230403.266    95124651.7764   23230403.414  
                
  20346354.117   106920851.386    20346362.223    83315003.8974   20346362.082  
                
  20239934.922   108080131.534                    84062364.145    20239938.359  
  20239932.918  
  24010085.117   126173820.345    24010095.926    98317318.7074   24010096.258  
                
  23539694.930   123701932.586    23539701.262    96391149.7024                 
                
  19394523.016   103602106.197                    80579418.977    19394526.461  
  19394522.422  
  20951900.742   110103021.987    20951907.199    85794615.2334   20951907.180  
                
  24780993.195   130225003.085    24780998.988   101474039.7124                 
                
  20537860.641   109940793.472                    85509512.896    20537864.730  
  20537859.383  
  19268280.867   102819255.762                    79970537.185    19268283.762  
  19268279.020  
 21  8 16 17 35  0.0000000  0 13G 4G16R 1G30G 9R13G 6G20R12G 7G 2R 3
                                R 2
  21689197.312   113977543.564    21689205.371    88813719.6444   21689205.199  
                
  22555287.508   118528880.995    22555293.523    92360213.2104                 
                
  23429738.812   125245383.098                    97413072.175    23429745.449  
  23429737.879  
  23224884.719   122047622.035    23224895.062    95102096.7364   23224895.223  
                
  20346493.070   106921581.567    20346501.168    83315572.8814   20346501.035  
                
  20234633.578   108051822.775                    84040346.234    20234637.023  
  20234631.582  
  24014954.438   126199408.653    24014965.230    98337257.6374   24014965.578  
                
  23533983.906   123671920.882    23533990.246    96367763.9594                 
                
  19396861.742   103614599.269                    80589135.812    19396865.195  
  19396861.152  
  20949575.414   110090802.299    20949581.805    85785093.4064   20949581.816  
                
  24782548.750   130233177.475    24782554.547   101480409.3704                 
                
  20532602.969   109912648.814                    85487622.626    20532607.059  
  20532601.707  
  19269733.180   102827005.548                    79976564.795    19269736.078  
  19269731.344  
 21  8 16 17 35 10.0000000  0 13G 4G16R 1G30G 9R13G 6G20R12G 7G 2R 3
                                R 2
  21693062.203   113997853.684    21693070.305    88829545.6974   21693070.113  
                
  22558639.070   118546493.587    22558645.082    92373937.3274                 
                
  23436759.766   125282914.494                    97442263.259    23436766.465  
  23436758.941  
  23219380.945   122018699.588    23219391.277    95079559.7804   23219391.434  
                
  20346639.555   106922351.400    20346647.652    83316172.7444   20346647.520  
                
  20229344.195   108023577.806                    84018377.930    20229347.613  
  20229342.234  
  24019829.328   126225026.357    24019840.117    98357219.4554   24019840.500  
                
  23528279.711   123641945.060    23528286.055    96344406.1664                 
                
  19399214.883   103627169.325                    80598912.517    19399218.344  
  19399214.285  
  20947257.203   110078620.039    20947263.523    85775600.7374   20947263.574  
                
  24784113.211   130241398.632    24784118.953   101486815.4844                 
                
  20527351.758   109884538.714                    85465759.207    20527355.848  
  20527350.508  
  19271197.516   102834819.530                    79982642.329    19271200.418  
  19271195.668  
 21  8 16 17 35 20.0000000  0 13G 4G16R 1G30G 9R13G 6G20R12G 7G 2R 3
                                R 2
  21696932.586   114018192.587    21696940.738    88845394.1854   21696940.527  
                
  22562003.125   118564171.858    22562009.156    92387712.6074                 
                
  23443784.992   125320468.553                    97471471.975    23443791.770  
  23443784.246  
  23213881.586   121989800.358    23213891.895    95057040.9164   23213892.031  
                
  20346793.602   106923160.918    20346801.699    83316803.5314   20346801.566  
                
  20224066.820   107995396.889                    83996459.442    20224070.199  
  20224064.855  
  24024709.766   126250673.321    24024720.590    98377204.0894   24024720.992  
                
  23522582.391   123612005.270    23522588.750    96321076.4624                 
                
  19401582.422   103639816.317                    80608749.068    19401585.898  
  19401581.824  
  20944946.133   110066475.305    20944952.391    85766137.3124   20944952.473  
                
  24785686.539   130249666.491    24785692.266   101493257.9244                 
                
  20522107.078   109856463.580                    85443923.010    20522111.176  
  20522105.820  
  19272673.867   102842697.608                    79988769.725    19272676.797  
  19272672.020  
 21  8 16 17 35 30.0000000  0 13G 4G16R 1G30G 9R13G 6G20R12G 7G 2R 3
                                R 2
  21700808.422   114038560.223    21700816.621    88861265.0554   21700816.387  
                
  22565379.656   118581915.621    22565385.711    92401538.9204                 
                
  23450814.500   125358045.374                    97500698.366    23450821.285  
  23450813.719  
  23208386.625   121960924.314    23208396.883    95034540.1224   23208397.035  
                
  20346955.188   106924010.062    20346963.289    83317465.2054   20346963.156  
                
  20218801.438   107967280.003                    83974590.779    20218804.785  
  20218799.473  
  24029595.828   126276349.419    24029606.598    98397211.4134   24029607.004  
                
  23516891.898   123582101.477    23516898.266    96297774.8174                 
                
  19403964.352   103652540.141                    80618645.376    19403967.844  
  19403963.742  
  20942642.188   110054368.016    20942648.398    85756703.0604   20942648.500  
                
  24787268.727   130257980.929    24787274.488   101499736.6824                 
                
  20516868.898   109828423.237                    85422113.846    20516873.012  
  20516867.637  
  19274162.219   102850639.694                    79994946.891    19274165.164  
  19274160.359  
 21  8 16 17 35 40.0000000  0 13G 4G16R 1G30G 9R13G 6G20R12G 7G 2R 3
                                R 2
  21704689.734   114058956.564    21704697.953    88877158.2884   21704697.707  
                
  22568768.609   118599724.717    22568774.672    92415416.1494                 
                
  23457848.227   125395644.987                    97529942.516    23457855.090  
  23457847.469  
  23202896.094   121932071.527    23202906.293    95012057.4454   23202906.480  
                
  20347124.320   106924898.863    20347132.426    83318157.7754   20347132.297  
                
  20213548.031   107939227.128                    83952771.885    20213551.359  
  20213546.066  
  24034487.422   126302054.498    24034498.129    98417241.3314   24034498.547  
                
  23511208.281   123552233.790    23511214.641    96274501.2884                 
                
  19406360.625   103665340.641                    80628601.327    19406364.129  
  19406360.020  
  20940345.352   110042298.051    20940351.539    85747297.8964   20940351.645  
                
  24788859.773   130266341.867    24788865.551   101506251.6784                 
                
  20511637.266   109800417.942                    85400331.957    20511641.387  
  20511636.004  
  19275662.594   102858646.000                    80001174.018    19275665.562  
  19275660.734  
 21  8 16 17 35 50.0000000  0 13G 4G16R 1G30G 9R13G 6G20R12G 7G 2R 3
                                R 2
  21708576.516   114079381.699    21708584.746    88893073.9664   21708584.508  
                
  22572169.992   118617599.126    22572176.059    92429344.2754                 
                
  23464886.180   125433267.269                    97559204.302    23464893.125  
  23464885.484  
  23197410.016   121903242.091    23197420.164    94989592.9574   23197420.355  
                
  20347301.016   106925827.429    20347309.129    83318881.3324   20347308.992  
                
  20208306.617   107911238.292                    83931002.799    20208309.914  
  20208304.625  
  24039384.453   126327788.552    24039395.180    98437293.8284   24039395.590  
                
  23505531.562   123522402.344    23505537.879    96251256.0014                 
                
  19408771.297   103678218.005                    80638617.048    19408774.809  
  19408770.691  
  20938055.641   110030265.542    20938061.816    85737921.9164   20938061.922  
                
  24790459.688   130274749.351    24790465.492   101512802.9564                 
                
  20506412.211   109772447.862                    85378577.449    20506416.340  
  20506410.957  
  19277174.930   102866716.075                    80007450.726    19277177.922  
  19277173.070  
 21  8 16 17 36  0.0000000  0 13G 4G16R 1G30G 9R13G 6G20R12G 7G 2R 3
                                R 2
  21712468.758   114099835.519    21712477.000    88909011.9964   21712476.758  
                
  22575583.820   118635538.956    22575589.875    92443323.3564                 
                
  23471928.375   125470911.995                    97588483.519    23471935.355  
  23471927.684  
  23191928.383   121874435.963    23191938.504    94967146.6384   23191938.668  
                
  20347485.273   106926795.706    20347493.387    83319635.8274   20347493.246  
                
  20203077.242   107883313.803                    83909283.755    20203080.527  
  20203075.223  
  24044286.945   126353551.361    24044297.688    98457368.7284   24044298.109  
                
  23499861.750   123492607.177    23499868.008    96228038.9744                 
                
  19411196.281   103691171.858                    80648692.275    19411199.797  
  19411195.691  
  20935773.023   110018270.362    20935779.195    85728575.0284   20935779.301  
                
  24792068.406   130283203.292    24792074.195   101519390.4264                 
                
  20501193.742   109744512.983                    85356850.322    20501197.871  
  20501192.477  
  19278699.297   102874850.392                    80013777.422    19278702.305  
  19278697.434  
 21  8 16 17 36 10.0000000  0 13G 4G16R 1G30G 9R13G 6G20R12G 7G 2R 3
                                R 2
  21716366.492   114120318.179    21716374.730    88924972.5144   21716374.480  
                
  22579010.102   118653544.179    22579016.141    92457353.4044                 
                
  23478974.820   125508579.401                    97617780.395    23478981.848  
  23478974.137  
  23186451.227   121845653.343    23186461.336    94944718.6384   23186461.488  
                
  20347677.125   106927803.860    20347685.234    83320421.4094   20347685.098  
                
  20197859.945   107855453.809                    83887614.892    20197863.230  
  20197857.934  
  24049194.992   126379342.986    24049205.668    98477466.0814   24049206.105  
                
  23494198.883   123462848.605    23494205.113    96204850.4874                 
                
  19413635.602   103704202.256                    80658827.036    19413639.117  
  19413635.012  
  20933497.570   110006312.797    20933503.746    85719257.4534   20933503.855  
                
  24793685.969   130291703.712    24793691.695   101526014.1354                 
                
  20495981.906   109716613.661                    85335150.857    20495986.047  
  20495980.629  
  19280235.727   102883049.046                    80020154.140    19280238.746  
  19280233.855  
 21  8 16 17 36 20.0000000  0 13G 4G16R 1G30G 9R13G 6G20R12G 7G 2R 3
                                R 2
  21720269.648   114140829.377    21720277.887    88940955.2514   21720277.633  
                
  22582448.750   118671614.413    22582454.773    92471434.1264                 
                
  23486025.312   125546269.021                    97647094.529    23486032.484  
  23486024.734  
  23180978.500   121816893.920    23180988.562    94922308.7074   23180988.707  
                
  20347876.492   106928851.592    20347884.598    83321237.8254   20347884.461  
                
  20192654.703   107827658.149                    83865996.053    20192657.996  
  20192652.707  
  24054108.359   126405163.035    24054119.023    98497585.5584   24054119.512  
                
  23488542.930   123433126.379    23488549.148    96181690.3024                 
                
  19416089.203   103717309.020                    80669021.183    19416092.727  
  19416088.609  
  20931229.188   109994392.437    20931235.375    85709968.8654   20931235.477  
                
  24795312.320   130300250.338    24795317.992   101532673.8014                 
                
  20490776.664   109688749.667                    85313478.868    20490780.816  
  20490775.375  
  19281784.141   102891311.698                    80026580.642    19281787.176  
  19281782.262  
 21  8 16 17 36 30.0000000  0 13G 4G16R 1G30G 9R13G 6G20R12G 7G 2R 3
                                R 2
  21724178.273   114161369.272    21724186.508    88956960.3654   21724186.266  
                
  22585899.789   118689749.762    22585905.781    92485565.5604                 
                
  23493080.133   125583981.064                    97676426.109    23493087.277  
  23493079.527  
  23175510.227   121788157.940    23175520.227    94899917.0314   23175520.371  
                
  20348083.438   106929939.122    20348091.535    83322085.2554   20348091.418  
                
  20187461.539   107799927.001                    83844427.403    20187464.871  
  20187459.551  
  24059027.148   126431011.515    24059037.820    98517727.2034   24059038.340  
                
  23482893.945   123403440.774    23482900.160    96158558.6634                 
                
  19418557.086   103730492.035                    80679274.643    19418560.617  
  19418556.465  
  20928967.930   109982509.508    20928974.141    85700709.4434   20928974.230  
                
  24796947.492   130308843.198    24796953.082   101539369.5224                 
                
  20485578.062   109660921.157                    85291834.471    20485582.207  
  20485576.777  
  19283344.648   102899638.826                    80033057.288    19283347.699  
  19283342.770  
 21  8 16 17 36 40.0000000  0 13G 4G16R 1G30G 9R13G 6G20R12G 7G 2R 3
                                R 2
  21728092.367   114181937.868    21728100.598    88972987.8314   21728100.363  
                
  22589363.195   118707950.137    22589369.172    92499747.6874                 
                
  23500139.133   125621715.422                    97705775.053    23500146.262  
  23500138.527  
  23170046.422   121759445.451    23170056.379    94877543.6674   23170056.527  
                
  20348297.969   106931066.499    20348306.059    83322963.7244   20348305.945  
                
  20182280.414   107772260.126                    83822908.736    20182283.770  
  20182278.406  
  24063951.344   126456888.339    24063962.027    98537890.9454   24063962.562  
                
  23477251.969   123373791.975    23477258.180    96135455.7054                 
                
  19421039.211   103743751.158                    80689587.294    19421042.750  
  19421038.570  
  20926713.805   109970664.034    20926720.047    85691479.2104   20926720.113  
                
  24798591.477   130317482.336    24798597.023   101546101.3224                 
                
  20480386.172   109633128.594                    85270218.038    20480390.336  
  20480384.895  
  19284917.156   102908030.061                    80039583.807    19284920.223  
  19284915.273  
 21  8 16 17 36 50.0000000  0 13G 4G16R 1G30G 9R13G 6G20R12G 7G 2R 3
                                R 2
  21732011.914   114202535.170    21732020.156    88989037.6784   21732019.906  
                
