     2.11           OBSERVATION DATA    M (MIXED)           RINEX VERSION / TYPE
EFT-CORS.RU                             20210817 145244 UTC PGM / RUN BY / DATE 
MDNG                                                        MARKER NAME         
                                                            MARKER NUMBER       
MDNG                EFT-CORS.RU                             OBSERVER / AGENCY   
0                   TRIMBLE BD970       2.0                 REC # / TYPE / VERS 
0                   UNKNOWN EXT NONE                        ANT # / TYPE        
  3463911.2830  3030468.2400  4402179.3760                  APPROX POSITION XYZ 
        0.0000        0.0000        0.0000                  ANTENNA: DELTA H/E/N
     1     1                                                WAVELENGTH FACT L1/2
     6    C1    L1    P2    L2    C2    P1                  # / TYPES OF OBSERV 
    10.000                                                  INTERVAL            
  2021     8    15    11    30    0.0000000     GPS         TIME OF FIRST OBS   
  2021     8    15    12    30    0.0000000     GPS         TIME OF LAST OBS    
     0                                                      RCV CLOCK OFFS APPL 
                                                            END OF HEADER       
 21  8 15 11 30  0.0000000  0 14R20G 1G22G21R 5R 7G27G32R21R22G 8R 6
                                G 3G10
  23305668.430   124625866.955                    96931249.111    23305678.465  
  23305668.047  
  22077588.758   116018551.092    22077599.473    90404114.6744   22077599.000  
                
  22714766.273   119366933.088    22714771.465    93013232.3664                 
                
  21540149.164   113194293.472    21540155.223    88203387.0654                 
                
  23258908.898   124332195.889                    96702823.898    23258914.184  
  23258909.027  
  20525746.734   109875973.246                    85459105.553    20525752.199  
  20525745.082  
  23451308.180   123237419.816    23451318.379    96029218.2534   23451318.664  
                
  20750952.312   109047029.695    20750961.316    84971768.3064   20750961.504  
                
  19442558.766   104041092.352                    80920861.290    19442562.508  
  19442556.887  
  20242454.719   108055648.268                    84043302.550    20242457.523  
  20242452.738  
  22074073.930   116000048.187    22074083.945    90389705.5954   22074084.602  
                
  19341287.914   103208862.296                                                  
  19341285.520  
  24326197.148   127835043.206    24326208.770    99611762.9124   24326209.164  
                
  22500799.984   118242511.463    22500809.637    92137082.7574   22500809.148  
                
 21  8 15 11 30 10.0000000  0 14R20G 1G22G21R 5R 7G27G32R21R22G 8R 6
                                G 3G10
  23313762.164   124669147.279                    96964911.555    23313772.117  
  23313761.672  
  22072034.938   115989365.610    22072045.684    90381372.7624   22072045.191  
                
  22710269.117   119343300.364    22710274.309    92994817.2724                 
                
  21537132.117   113178438.801    21537138.168    88191032.7834                 
                
  23266048.984   124370363.703                    96732509.973    23266054.262  
  23266049.090  
  20521433.688   109852885.192                    85441148.202    20521439.133  
  20521432.008  
  23458022.820   123272705.722    23458033.051    96056713.7414   23458033.344  
                
  20752352.906   109054389.815    20752361.922    84977503.4624   20752362.098  
                
  19445345.141   104056002.855                    80932458.344    19445348.906  
  19445343.238  
  20237821.492   108030915.834                    84024066.218    20237824.312  
  20237819.508  
  22078343.664   116022485.718    22078353.664    90407189.3744   22078354.320  
                
  19343485.320   103220588.091                                                  
  19343482.926  
  24320492.945   127805068.052    24320504.781    99588405.7534   24320505.137  
                
  22505358.602   118266467.160    22505368.320    92155749.5154   22505367.805  
                
 21  8 15 11 30 20.0000000  0 14R20G 1G22G21R 5R 7G27G32R21R22G 8R 6
                                G 3G10
  23321859.828   124712448.554                    96998590.288    23321869.691  
  23321859.242  
  22066485.945   115960205.575    22066496.734    90358650.6784   22066496.227  
                
  22705775.609   119319686.888    22705780.801    92976417.1894                 
                
  21534121.016   113162615.395    21534127.059    88178702.8674                 
                
  23273189.141   124408531.989                    96762196.399    23273194.465  
  23273189.219  
  20517130.258   109829848.658                    85423230.905    20517135.680  
  20517128.582  
  23464740.773   123308008.836    23464751.000    96084222.6394   23464751.320  
                
  20753764.531   109061807.970    20753773.539    84983283.8464   20753773.699  
                
  19448147.000   104070996.205                    80944119.831    19448150.773  
  19448145.070  
  20233200.328   108006247.755                    84004879.946    20233203.133  
  20233198.328  
  22082622.516   116044971.191    22082632.516    90424710.5224   22082633.152  
                
  19345692.953   103232368.511                                                  
  19345690.551  
  24314791.039   127775103.855    24314802.715    99565057.0144   24314803.109  
                
  22509920.242   118290438.725    22509930.023    92174428.6414   22509929.480  
                
 21  8 15 11 30 30.0000000  0 14R20G 1G22G21R 5R 7G27G32R21R22G 8R 6
                                G 3G10
  23329961.023   124755770.710                    97032285.254    23329971.180  
  23329960.703  
  22060941.797   115931070.957    22060952.605    90335948.3924   22060952.090  
                
  22701285.750   119296092.553    22701290.930    92958032.0024                 
                
  21531115.828   113146823.035    21531121.871    88166397.1374                 
                
  23280329.375   124446700.556                    96791883.021    23280334.754  
  23280329.441  
  20512836.430   109806863.484                    85405353.562    20512841.832  
  20512834.742  
  23471461.945   123343328.933    23471472.215    96111744.7644   23471472.527  
                
  20755187.164   109069283.984    20755196.145    84989109.3174   20755196.316  
                
  19450964.305   104086072.212                    80955845.610    19450968.102  
  19450962.375  
  20228591.250   107981644.256                    83985743.891    20228594.082  
  20228589.254  
  22086910.461   116067504.458    22086920.461    90442268.9044   22086921.102  
                
  19347910.844   103244203.580                                                  
  19347908.438  
  24309091.031   127745150.461    24309102.684    99541716.7344   24309103.105  
                
  22514484.875   118314426.026    22514494.707    92193120.0424   22514494.160  
                
 21  8 15 11 30 40.0000000  0 14R20G 1G22G21R 5R 7G27G32R21R22G 8R 6
                                G 3G10
  23338066.461   124799113.728                    97065996.446    23338076.578  
  23338066.070  
  22055402.562   115901962.148    22055413.379    90313266.2184   22055412.859  
                
  22696799.594   119272517.668    22696804.750    92939661.9694                 
                
  21528116.633   113131062.184    21528122.684    88154115.9584                 
                
  23287469.727   124484869.719                    96821570.130    23287475.148  
  23287469.785  
  20508552.289   109783930.151                    85387516.524    20508557.680  
  20508550.605  
  23478186.484   123378666.236    23478196.715    96139280.3014   23478197.023  
                
  20756620.859   109076818.142    20756629.801    84994980.0874   20756629.988  
                
  19453797.125   104101231.221                    80967635.945    19453800.945  
  19453795.176  
  20223994.359   107957105.765                    83966658.402    20223997.191  
  20223992.367  
  22091207.562   116090085.844    22091217.590    90459864.7754   22091218.227  
                
  19350138.984   103256093.338                                                  
  19350136.566  
  24303393.070   127715208.172    24303404.898    99518385.1504   24303405.309  
                
  22519052.570   118338429.370    22519062.422    92211823.9364   22519061.852  
                
 21  8 15 11 30 50.0000000  0 14R20G 1G22G21R 5R 7G27G32R21R22G 8R 6
                                G 3G10
  23346175.852   124842477.228                    97099723.550    23346185.805  
  23346175.270  
  22049868.180   115872878.833    22049878.980    90290603.9114   22049878.457  
                
  22692317.078   119248961.913    22692322.207    92921306.8474                 
                
  21525123.383   113115332.514    21525129.434    88141859.0764                 
                
  23294610.117   124523039.047                    96851257.386    23294615.559  
  23294610.145  
  20504277.719   109761048.069                    85369719.364    20504283.105  
  20504276.039  
  23484914.172   123414020.282    23484924.430    96166828.8764   23484924.707  
                
  20758065.547   109084410.022    20758074.441    85000895.8394   20758074.656  
                
  19456645.383   104116472.860                    80979490.543    19456649.227  
  19456643.438  
  20219409.609   107932632.062                    83947623.305    20219412.430  
  20219407.641  
  22095513.727   116112714.834    22095523.797    90477497.7444   22095524.426  
                
  19352377.328   103268037.554                                                  
  19352374.895  
  24297697.273   127685276.770    24297709.062    99495061.9784   24297709.434  
                
  22523623.234   118362448.357    22523633.102    92230540.0204   22523632.520  
                
 21  8 15 11 31  0.0000000  0 14R20G 1G22G21R 5R 7G27G32R21R22G 8R 6
                                G 3G10
  23354288.938   124885861.055                    97133466.479    23354298.832  
  23354288.199  
  22044338.688   115843821.146    22044349.441    90267961.5634   22044348.930  
                
  22687838.188   119225425.240    22687843.312    92902966.6094                 
                
  21522136.062   113099634.073    21522142.102    88129626.5284                 
                
  23301750.492   124561208.477                    96880944.722    23301755.949  
  23301750.512  
  20500012.766   109738217.441                    85351962.238    20500018.141  
  20500011.102  
  23491644.969   123449390.947    23491655.297    96194390.4094   23491655.562  
                
  20759521.203   109092059.578    20759530.051    85006856.5334   20759530.293  
                
  19459509.055   104131796.904                    80991409.234    19459512.914  
  19459507.109  
  20214837.016   107908223.204                    83928638.654    20214839.840  
  20214835.070  
  22099828.906   116135391.245    22099839.031    90495167.6684   22099839.633  
                
  19354625.844   103280036.087                                                  
  19354623.383  
  24292003.516   127655356.134    24292015.328    99471747.2524   24292015.676  
                
  22528196.875   118386482.973    22528206.738    92249268.2874   22528206.152  
                
 21  8 15 11 31 10.0000000  0 14R20G 1G22G21R 5R 7G27G32R21R22G 8R 6
                                G 3G10
  23362405.742   124929264.965                    97167225.019    23362415.641  
  23362404.586  
  22038814.055   115814789.019    22038824.758    90245339.1374   22038824.277  
                
  22683362.906   119201907.541    22683368.055    92884641.1484                 
                
  21519154.680   113083966.803    21519160.711    88117418.2744                 
                
  23308890.852   124599377.740                    96910631.901    23308896.355  
  23308890.852  
  20495757.406   109715438.240                    85334245.085    20495762.781  
  20495755.754  
  23498378.906   123484778.031    23498389.250    96221964.7354   23498389.512  
                
  20760987.805   109099766.669    20760996.605    85012862.0584   20760996.867  
                
  19462388.125   104147203.385                    81003392.055    19462392.000  
  19462386.203  
  20210276.570   107883879.272                    83909704.480    20210279.430  
  20210274.645  
  22104153.039   116158114.638    22104163.207    90512874.1914   22104163.809  
                
  19356884.469   103292088.576                                                  
  19356881.988  
  24286312.008   127625446.269    24286323.594    99448440.8464   24286323.902  
                
  22532773.453   118410533.053    22532783.332    92268008.5954   22532782.742  
                
 21  8 15 11 31 20.0000000  0 14R20G 1G22G21R 5R 7G27G32R21R22G 8R 6
                                G 3G10
  23370526.414   124972689.303                    97200999.482    23370536.223  
  23370525.262  
  22033294.367   115785782.903    22033305.039    90222736.9804   22033304.586  
                
  22678891.312   119178409.274    22678896.480    92866330.8324                 
                
  21516179.312   113068331.139    21516185.320    88105234.6434                 
                
  23316031.219   124637547.205                    96940319.230    23316036.793  
  23316031.160  
  20491511.688   109692710.584                    85316568.032    20491517.078  
  20491510.035  
  23505116.078   123520181.776    23505126.352    96249552.0634   23505126.609  
                
  20762465.414   109107531.596    20762474.168    85018912.6574   20762474.457  
                
  19465282.656   104162692.590                    81015439.208    19465286.559  
  19465280.766  
  20205728.344   107859600.581                    83890821.057    20205731.219  
  20205726.410  
  22108486.227   116180885.638    22108496.438    90530617.8234   22108497.043  
                
  19359153.258   103304195.314                                                  
  19359150.773  
  24280622.328   127595547.475    24280634.062    99425143.1634   24280634.348  
                
  22537353.039   118434598.948    22537362.926    92286761.2374   22537362.348  
                
 21  8 15 11 31 30.0000000  0 14R20G 1G22G21R 5R 7G27G32R21R22G 8R 6
                                G 3G10
  23378650.594   125016133.645                    97234789.467    23378660.559  
  23378649.602  
  22027779.602   115756802.668    22027790.250    90200154.9964   22027789.793  
                
  22674423.367   119154930.180    22674428.562    92848035.4734                 
                
  21513209.914   113052726.887    21513215.910    88093075.4894                 
                
  23323171.539   124675716.539                    96970006.471    23323177.199  
  23323171.402  
  20487275.617   109670034.633                    85298931.214    20487281.035  
  20487273.973  
  23511856.336   123555601.852    23511866.578    96277152.1194   23511866.852  
                
  20763953.992   109115354.105    20763962.703    85025008.1204   20763963.000  
                
  19468192.602   104178264.247                    81027550.501    19468196.512  
  19468190.738  
  20201192.398   107835387.427                    83871988.624    20201195.336  
  20201190.438  
  22112828.406   116203703.965    22112838.664    90548398.3274   22112839.262  
                
  19361432.195   103316356.084                                                  
  19361429.691  
  24274934.969   127565659.666    24274946.402    99401853.9244   24274946.742  
                
  22541935.594   118458680.431    22541945.469    92305526.0204   22541944.914  
                
 21  8 15 11 31 40.0000000  0 14R20G 1G22G21R 5R 7G27G32R21R22G 8R 6
                                G 3G10
  23386778.680   125059598.116                    97268595.125    23386788.766  
  23386776.887  
  22022269.773   115727848.338    22022280.363    90177593.1804   22022279.953  
                
  22669959.078   119131470.281    22669964.289    92829755.0524                 
                
  21510246.508   113037154.077    21510252.488    88080940.8344                 
                
  23330311.805   124713885.655                    96999693.522    23330317.527  
  23330311.613  
  20483049.164   109647410.126                    85281334.392    20483054.602  
  20483047.531  
  23518599.727   123591038.130    23518609.930    96304764.7864   23518610.191  
                
  20765453.492   109123234.090    20765462.160    85031148.3704   20765462.477  
                
  19471117.914   104193918.169                    81039725.757    19471121.828  
  19471116.074  
  20196668.695   107811239.631                    83853207.014    20196671.621  
  20196666.715  
  22117179.602   116226569.608    22117189.902    90566215.6954   22117190.500  
                
  19363721.227   103328570.813                                                  
  19363718.691  
  24269249.422   127535782.654    24269261.023    99378573.2194   24269261.336  
                
  22546521.102   118482777.424    22546530.969    92324302.8764   22546530.414  
                
 21  8 15 11 31 50.0000000  0 14R20G 1G22G21R 5R 7G27G32R21R22G 8R 6
                                G 3G10
  23394910.445   125103082.281                    97302416.084    23394920.520  
  23394908.988  
  22016764.906   115698920.125    22016775.457    90155051.7244   22016775.070  
                
  22665498.477   119108029.750    22665503.695    92811489.7204                 
                
  21507289.117   113021612.903    21507295.090    88068830.8334                 
                
  23337452.062   124752054.618                    97029380.459    23337457.855  
  23337451.809  
  20478832.359   109624837.285                    85263777.750    20478837.824  
  20478830.742  
  23525346.133   123626490.581    23525356.379    96332390.0414   23525356.648  
                
  20766963.953   109131171.618    20766972.586    85037333.4594   20766972.918  
                
  19474058.648   104209654.623                    81051965.231    19474062.562  
  19474056.844  
  20192157.281   107787157.394                    83834476.392    20192160.199  
  20192155.320  
  22121539.758   116249482.370    22121550.098    90584069.7824   22121550.691  
                
  19366020.336   103340839.338                                                  
  19366017.797  
  24263566.227   127505916.745    24263577.656    99355301.0844   24263578.008  
                
  22551109.578   118506889.983    22551119.422    92343091.8894   22551118.891  
                
 21  8 15 11 32  0.0000000  0 14R20G 1G22G21R 5R 7G27G32R21R22G 8R 6
                                G 3G10
  23403046.016   125146586.857                    97336252.917    23403056.102  
  23403044.727  
  22011265.117   115670018.578    22011275.664    90132531.0554   22011275.273  
                
  22661041.648   119084609.043    22661046.844    92793239.8404                 
                
  21504337.859   113006103.964    21504343.832    88056745.9564                 
                
  23344592.375   124790223.731                    97059067.558    23344598.207  
  23344592.125  
  20474625.281   109602316.484                    85246261.586    20474630.758  
  20474623.660  
  23532095.688   123661959.624    23532106.023    96360028.2264   23532106.281  
                
  20768485.445   109139167.146    20768494.043    85043563.7424   20768494.379  
                
  19477014.883   104225473.949                    81064269.147    19477018.793  
  19477013.098  
  20187658.289   107763141.506                    83815797.383    20187661.188  
  20187656.336  
  22125908.898   116272442.341    22125919.281    90601960.6634   22125919.871  
                
  19368329.641   103353162.255                                                  
  19368327.113  
  24257884.938   127476062.267    24257896.375    99332037.8844   24257896.801  
                
  22555701.117   118531018.620    22555710.934    92361893.4134   22555710.422  
                
 21  8 15 11 32 10.0000000  0 14R20G 1G22G21R 5R 7G27G32R21R22G 8R 6
                                G 3G10
  23411185.086   125190110.498                    97370104.598    23411195.320  
  23411183.965  
  22005770.211   115641142.657    22005780.750    90110030.3454   22005780.340  
                
  22656588.375   119061207.031    22656593.527    92775004.5214                 
                
  21501392.555   112990626.285    21501398.531    88044685.4284                 
                
  23351732.500   124828391.858                    97088753.842    23351738.355  
  23351732.246  
  20470427.742   109579846.771                    85228785.164    20470433.234  
  20470426.113  
  23538848.164   123697444.002    23538858.570    96387678.3664   23538858.801  
                
  20770017.758   109147219.505    20770026.328    85049838.3134   20770026.668  
                
  19479986.398   104241375.063                    81076636.680    19479990.301  
  19479984.621  
  20183171.539   107739190.916                    83797169.146    20183174.422  
  20183169.605  
  22130286.844   116295448.657    22130297.277    90619887.6394   22130297.844  
                
  19370648.883   103365538.154                                                  
  19370646.340  
  24252205.875   127446218.278    24252217.340    99308782.8864   24252217.785  
                
  22560295.484   118555162.160    22560305.285    92380706.5524   22560304.773  
                
 21  8 15 11 32 20.0000000  0 14R20G 1G22G21R 5R 7G27G32R21R22G 8R 6
                                G 3G10
  23419328.133   125233654.229                    97403971.893    23419338.215  
  23419326.953  
  22000280.398   115612293.546    22000290.895    90087550.5334   22000290.500  
                
  22652138.883   119037824.839    22652144.000    92756784.6474                 
                
  21498453.367   112975180.768    21498459.352    88032649.9644                 
                
  23358872.648   124866560.065                    97118440.193    23358878.477  
  23358872.402  
  20466239.938   109557429.142                    85211349.255    20466245.438  
  20466238.316  
  23545603.797   123732944.684    23545614.207    96415341.2244   23545614.414  
                
  20771561.070   109155329.710    20771569.621    85056157.9544   20771569.969  
                
  19482973.367   104257358.903                    81089068.556    19482977.258  
  19482971.613  
  20178697.219   107715306.738                    83778592.575    20178700.121  
  20178695.270  
  22134673.844   116318502.514    22134684.316    90637851.6684   22134684.863  
                
  19372978.266   103377968.327                                                  
  19372975.727  
  24246528.836   127416385.758    24246540.152    99285536.7434   24246540.723  
                
  22564892.891   118579321.662    22564902.695    92399532.1254   22564902.180  
                
 21  8 15 11 32 30.0000000  0 14R20G 1G22G21R 5R 7G27G32R21R22G 8R 6
                                G 3G10
  23427474.789   125277217.295                    97437854.213    23427484.711  
  23427473.559  
  21994795.594   115583470.735    21994806.055    90065091.1994   21994805.672  
                
  22647693.062   119014461.925    22647698.129    92738579.8064                 
                
  21495520.211   112959766.960    21495526.211    88020639.2134                 
                
  23366012.719   124904727.719                    97148126.126    23366018.523  
  23366012.445  
  20462061.789   109535063.222                    85193953.545    20462067.277  
  20462060.172  
  23552362.328   123768461.019    23552372.797    96443016.2654   23552372.992  
                
  20773115.281   109163497.159    20773123.812    85062522.2004   20773124.160  
                
  19485975.688   104273424.899                    81101564.326    19485979.574  
  19485973.938  
  20174235.266   107691488.540                    83760067.311    20174238.172  
  20174233.340  
  22139069.688   116341602.786    22139080.191    90655851.8714   22139080.727  
                
  19375317.703   103390452.029                                                  
  19375315.180  
  24240853.945   127386564.190    24240865.293    99262299.2244   24240865.855  
                
  22569493.219   118603496.543    22569503.027    92418369.6734   22569502.512  
                
 21  8 15 11 32 40.0000000  0 14R20G 1G22G21R 5R 7G27G32R21R22G 8R 6
                                G 3G10
  23435625.133   125320799.810                    97471751.694    23435634.875  
  23435623.844  
  21989315.836   115554674.467    21989326.301    90042652.5584   21989325.918  
                
  22643250.938   118991118.421    22643255.973    92720390.0744                 
                
  21492593.141   112944385.079    21492599.152    88008653.3394                 
                
  23373152.664   124942894.781                    97177811.601    23373158.484  
  23373152.402  
  20457893.312   109512749.062                    85176598.103    20457898.797  
  20457891.703  
  23559123.789   123803993.044    23559134.324    96470703.5334   23559134.527  
                
  20774680.398   109171721.967    20774688.910    85068931.1454   20774689.270  
                
  19488993.375   104289573.158                    81114124.083    19488997.258  
  19488991.609  
  20169785.766   107667736.843                    83741593.789    20169788.684  
  20169783.855  
  22143474.398   116364749.658    22143484.906    90673888.3884   22143485.453  
                
  19377667.094   103402988.828                                                  
  19377664.578  
  24235181.289   127356753.842    24235192.469    99239070.3694   24235193.031  
                
  22574096.500   118627686.911    22574106.324    92437219.3104   22574105.797  
                
 21  8 15 11 32 50.0000000  0 14R20G 1G22G21R 5R 7G27G32R21R22G 8R 6
                                G 3G10
  23443778.977   125364401.244                    97505663.875    23443788.602  
  23443777.602  
  21983841.078   115525904.490    21983851.551    90020234.4224   21983851.168  
                
  22638812.461   118967794.088    22638817.484    92702215.2724                 
                
  21489672.109   112929034.950    21489678.129    87996692.2004                 
                
  23380292.445   124981060.912                    97207496.364    23380298.297  
  23380292.195  
  20453734.453   109490486.427                    85159282.737    20453739.953  
  20453732.836  
  23565888.188   123839540.356    23565898.746    96498402.7044   23565898.984  
                
  20776256.367   109180003.762    20776264.848    85075384.4894   20776265.227  
                
  19492026.375   104305803.350                    81126747.560    19492030.254  
  19492024.586  
  20165348.672   107644051.331                    83723171.725    20165351.594  
  20165346.758  
  22147887.930   116387942.830    22147898.434    90691960.9734   22147898.977  
                
  19380026.539   103415579.216                                                  
  19380024.031  
  24229510.547   127326954.277    24229521.711    99215849.9734   24229522.270  
                
  22578702.672   118651892.456    22578712.516    92456080.7564   22578711.973  
                
 21  8 15 11 33  0.0000000  0 14R20G 1G22G21R 5R 7G27G32R21R22G 8R 6
                                G 3G10
  23451936.250   125408021.927                    97539591.023    23451945.918  
  23451934.984  
  21978371.422   115497161.325    21978381.902    89997837.1584   21978381.523  
                
  22634377.688   118944489.260    22634382.703    92684055.6914                 
                
  21486757.164   112913716.888    21486763.184    87984756.0494                 
                
  23387432.070   125019226.397                    97237180.599    23387437.984  
  23387431.844  
  20449585.297   109468275.832                    85142007.867    20449590.820  
  20449583.668  
  23572655.594   123875103.221    23572666.152    96526114.0094   23572666.406  
                
  20777843.234   109188342.900    20777851.680    85081882.5194   20777852.078  
                
  19495074.742   104322115.830                    81139435.044    19495078.609  
  19495072.949  
  20160924.047   107620432.409                    83704801.470    20160926.969  
  20160922.133  
  22152310.297   116411182.470    22152320.793    90710069.7854   22152321.336  
                
  19382395.945   103428222.865                                                  
  19382393.434  
  24223842.039   127297166.014    24223853.188    99192638.3534   24223853.691  
                
  22583311.797   118676113.509    22583321.656    92474954.2974   22583321.082  
                
 21  8 15 11 33 10.0000000  0 14R20G 1G22G21R 5R 7G27G32R21R22G 8R 6
                                G 3G10
  23460096.820   125451661.755                    97573533.066    23460106.840  
  23460095.867  
  21972906.867   115468444.963    21972917.371    89975460.7854   21972916.973  
                
  22629946.625   118921203.893    22629951.621    92665911.2644                 
                
  21483848.336   112898430.905    21483854.352    87972844.9024                 
                
  23394571.578   125057391.089                    97266864.221    23394577.527  
  23394571.383  
  20445445.812   109446116.962                    85124773.210    20445451.359  
  20445444.164  
  23579425.945   123910681.465    23579436.508    96553837.2874   23579436.758  
                
  20779441.000   109196739.261    20779449.406    85088425.1404   20779449.828  
                
  19498138.477   104338510.527                    81152186.472    19498142.332  
  19498136.672  
  20156511.945   107596880.339                    83686483.197    20156514.859  
  20156510.043  
  22156741.531   116434468.731    22156752.020    90728214.9214   22156752.574  
                
  19384775.352   103440919.857                                                  
  19384772.863  
  24218175.555   127267388.925    24218186.758    99169435.4834   24218187.230  
                
  22587923.875   118700350.027    22587933.707    92493839.8994   22587933.121  
                
 21  8 15 11 33 20.0000000  0 14R20G 1G22G21R 5R 7G27G32R21R22G 8R 6
                                G 3G10
  23468261.266   125495320.610                    97607489.898    23468271.332  
  23468260.477  
  21967447.430   115439755.472    21967457.941    89953105.3624   21967457.535  
                
  22625519.273   118897938.076    22625524.246    92647782.0724                 
                
  21480945.633   112883177.092    21480951.645    87960958.8194                 
                
  23401710.914   125095555.008                    97296547.248    23401716.914  
  23401710.691  
  20441316.055   109424010.106                    85107578.985    20441321.582  
  20441314.391  
  23586199.219   123946274.973    23586209.777    96581572.4674   23586210.008  
                
  20781049.641   109205192.764    20781058.008    85095012.2914   20781058.441  
                
  19501217.555   104354987.300                    81165001.739    19501221.398  
  19501215.715  
  20152112.367   107573395.083                    83668216.896    20152115.266  
  20152110.504  
  22161181.602   116457801.359    22161192.090    90746396.1794   22161192.641  
                
  19387164.750   103453670.154                                                  
  19387162.270  
  24212511.312   127237623.107    24212522.410    99146241.3304   24212522.863  
                
  22592538.875   118724601.939    22592548.652    92512737.4904   22592548.082  
                
 21  8 15 11 33 30.0000000  0 14R20G 1G22G21R 5R 7G27G32R21R22G 8R 6
                                G 3G10
  23476429.086   125538997.944                    97641461.096    23476439.262  
  23476427.988  
  21961993.062   115411092.633    21962003.547    89930770.6874   21962003.145  
                
  22621095.586   118874691.457    22621100.555    92629667.8444                 
                
  21478049.039   112867955.380    21478055.055    87949097.7494                 
                
  23408850.023   125133717.676                    97326229.301    23408856.082  
  23408849.762  
  20437195.914   109401954.741                    85090424.835    20437201.430  
  20437194.238  
  23592975.305   123981883.352    23592985.863    96609319.2234   23592986.070  
                
  20782669.094   109213703.092    20782677.426    85101643.7154   20782677.871  
                
  19504311.922   104371545.925                    81177880.666    19504315.754  
  19504310.043  
  20147725.297   107549976.634                    83650002.546    20147728.195  
  20147723.438  
  22165630.398   116481179.888    22165640.906    90764613.2054   22165641.410  
                
  19389564.016   103466473.096                                                  
  19389561.547  
  24206849.086   127207868.194    24206860.340    99123055.7604   24206860.730  
                
  22597156.758   118748868.941    22597166.492    92531646.8384   22597165.934  
                
 21  8 15 11 33 40.0000000  0 14R20G 1G22G21R 5R 7G27G32R21R22G 8R 6
                                G 3G10
  23484600.367   125582694.290                    97675447.097    23484610.762  
  23484599.441  
  21956543.883   115382457.016    21956554.352    89908457.2364   21956553.957  
                
  22616675.633   118851464.501    22616680.621    92611568.9404                 
                
  21475158.609   112852766.068    21475164.629    87937261.9264                 
                
  23415989.008   125171879.479                    97355910.708    23415995.047  
  23415988.762  
  20433085.508   109379951.487                    85073311.209    20433090.992  
  20433083.832  
  23599754.320   124017506.946    23599764.797    96637077.8534   23599765.016  
                
  20784299.453   109222270.684    20784307.758    85108319.7624   20784308.227  
                
  19507421.625   104388186.627                    81190823.426    19507425.453  
  19507419.707  
  20143350.852   107526625.546                    83631840.600    20143353.727  
  20143349.000  
  22170088.023   116504604.822    22170098.523    90782866.3914   22170099.031  
                
  19391973.242   103479329.110                                                  
  19391970.777  
  24201189.070   127178124.734    24201200.199    99099879.0114   24201200.633  
                
  22601777.586   118773151.479    22601787.297    92550568.2934   22601786.754  
                
 21  8 15 11 33 50.0000000  0 14G31G 1G22G21R 5R 7G27G32R21R22G 8R 6
                                G 3G10
  24474572.461   128614744.879    24474583.555   100219325.6054   24474583.633  
                
  21951099.836   115353848.454    21951110.309    89886164.8654   21951109.910  
                
  22612259.367   118828256.956    22612264.395    92593485.1644                 
                
  21472274.297   112837608.951    21472280.332    87925451.1894                 
                
  23423127.766   125210040.194                    97385591.245    23423133.793  
  23423127.566  
  20428984.781   109358000.106                    85056237.937    20428990.262  
  20428983.098  
  23606536.117   124053145.436    23606546.492    96664848.0884   23606546.734  
                
  20785940.633   109230895.207    20785948.926    85115040.1784   20785949.402  
                
  19510546.648   104404909.286                    81203829.938    19510550.469  
  19510544.711  
  20138989.000   107503341.681                    83613730.926    20138991.844  
  20138987.148  
  22174554.406   116528075.821    22174564.914    90801155.4644   22174565.418  
                
  19394392.375   103492238.055                                                  
  19394389.934  
  24195531.031   127148392.461    24195542.398    99076711.0944   24195542.781  
                
  22606401.320   118797449.271    22606410.988    92569501.6384   22606410.473  
                
 21  8 15 11 34  0.0000000  0 14G31G 1G22G21R 5R 7G27G32R21R22G 8R 6
                                G 3G10
  24468062.695   128580536.142    24468073.648   100192669.5464   24468073.816  
                
  21945660.891   115325266.632    21945671.367    89863893.3304   21945670.980  
                
  22607846.719   118805068.468    22607851.781    92575416.2364                 
                
  21469396.086   112822483.834    21469402.137    87913665.3884                 
                
  23430266.250   125248199.336                    97415270.564    23430272.309  
  23430266.082  
  20424893.680   109336100.198                    85039204.676    20424899.133  
  20424891.992  
  23613320.672   124088798.306    23613330.914    96692629.5414   23613331.223  
                
  20787592.570   109239576.236    20787600.859    85121804.6204   20787601.336  
                
  19513686.891   104421713.368                    81216899.780    19513690.703  
  19513684.945  
  20134639.656   107480124.657                    83595673.246    20134642.492  
  20134637.805  
  22179029.438   116551592.251    22179039.965    90819479.9404   22179040.445  
                
  19396821.320   103505199.399                                                  
  19396818.883  
  24189875.102   127118671.032    24189886.391    99053551.5244   24189886.852  
                
  22611027.867   118821761.918    22611037.547    92588446.5584   22611037.023  
                
 21  8 15 11 34 10.0000000  0 15R20G31G 1G22G21R 5R 7G27G32R21R22G 8
                                R 6G 3G10
  23509135.594   125713893.660                    97777490.872    23509145.809  
  23509135.098  
  24461553.484   128546330.059    24461564.312   100166015.5574   24461564.539  
                
  21940227.172   115296712.313    21940237.633    89841643.2114   21940237.250  
                
  22603437.836   118781899.732    22603442.902    92557362.6994                 
                
  21466524.078   112807391.353    21466530.145    87901905.0184                 
                
  23437404.523   125286357.451                    97444949.094    23437410.590  
  23437404.398  
  20420812.352   109314252.552                    85022212.076    20420817.785  
  20420810.656  
  23620108.023   124124466.111    23620118.219    96720422.6184   23620118.566  
                
  20789255.383   109248314.383    20789263.684    85128613.5704   20789264.156  
                
  19516842.477   104438599.599                    81230033.506    19516846.293  
  19516840.539  
  20130303.008   107456975.409                    83577668.284    20130305.848  
  20130301.156  
  22183513.180   116575154.451    22183523.723    90837840.0894   22183524.188  
                
  19399260.219   103518213.871                                                  
  19399257.809  
  24184221.453   127088961.144    24184232.863    99030401.0444   24184233.305  
                
  22615657.367   118846090.062    22615667.082    92607403.5264   22615666.555  
                
 21  8 15 11 34 20.0000000  0 15R20G31G 1G22G21R 5R 7G27G32R21R22G 8
                                R 6G 3G10
  23517320.680   125757663.420                    97811533.959    23517330.906  
  23517321.082  
  24455044.672   128512126.506    24455055.508   100139363.5194   24455055.746  
                
  21934798.656   115268185.323    21934809.082    89819414.4044   21934808.707  
                
  22599032.680   118758750.586    22599037.750    92539324.4354                 
                
  21463658.234   112792331.314    21463664.312    87890169.9264                 
                
  23444542.578   125324514.368                    97474626.693    23444548.641  
  23444542.484  
  20416740.711   109292456.858                    85005259.890    20416746.141  
  20416739.008  
  23626898.086   124160148.553    23626908.371    96748227.0974   23626908.746  
                
  20790929.008   109257109.403    20790937.328    85135466.8354   20790937.781  
                
  19520013.336   104455567.570                    81243230.815    19520017.168  
  19520011.422  
  20125979.031   107433893.798                    83559715.931    20125981.855  
  20125977.180  
  22188005.695   116598762.747    22188016.250    90856236.1494   22188016.719  
                
  19401708.977   103531280.890                                                  
  19401706.590  
  24178569.977   127059262.614    24178581.316    99007259.3204   24178581.789  
                
  22620289.766   118870433.451    22620299.492    92626372.3854   22620298.973  
                
 21  8 15 11 34 30.0000000  0 15R20G31G 1G22G21R 5R 7G27G32R21R22G 8
                                R 6G 3G10
  23525509.602   125801451.529                    97845591.329    23525519.492  
  23525509.434  
  24448536.367   128477925.709    24448547.184   100112713.6574   24448547.453  
                
  21929375.406   115239685.956    21929385.797    89797207.1244   21929385.445  
                
  22594631.289   118735621.215    22594636.359    92521301.5534                 
                
  21460798.641   112777304.021    21460804.715    87878460.3574                 
                
  23451680.406   125362670.014                    97504303.289    23451686.461  
  23451680.367  
  20412678.836   109270713.390                    84988348.322    20412684.281  
  20412677.121  
  23633690.984   124195845.650    23633701.355    96776042.9884   23633701.715  
                
  20792613.484   109265961.392    20792621.836    85142364.4954   20792622.270  
                
  19523199.555   104472617.616                    81256491.952    19523203.398  
  19523197.648  
  20121667.812   107410880.180                    83541816.465    20121670.625  
  20121665.949  
  22192506.883   116622416.600    22192517.473    90874667.7214   22192517.949  
                
  19404167.594   103544400.525                                                  
  19404165.215  
  24172920.594   127029575.550    24172932.133    98984126.6394   24172932.551  
                
  22624925.094   118894792.216    22624934.828    92645353.2434   22624934.305  
                
 21  8 15 11 34 40.0000000  0 15R20G31G 1G22G21R 5R 7G27G32R21R22G 8
                                R 6G 3G10
  23533701.531   125845257.503                    97879662.593    23533711.461  
  23533701.469  
  24442028.602   128443727.536    24442039.391   100086065.8324   24442039.652  
                
  21923957.320   115211213.819    21923967.711    89775021.0434   21923967.340  
                
  22590233.547   118712511.114    22590238.633    92503293.7094                 
                
  21457945.195   112762309.111    21457951.250    87866776.0064                 
                
  23458817.930   125400824.099                    97533978.679    23458823.988  
  23458817.922  
  20408626.625   109249021.639                    84971476.976    20408632.066  
  20408624.883  
  23640486.531   124231556.879    23640497.012    96803869.8854   23640497.367  
                
  20794308.695   109274869.853    20794317.094    85149306.1564   20794317.504  
                
  19526400.977   104489749.060                    81269816.404    19526404.832  
  19526399.086  
  20117369.273   107387934.286                    83523969.658    20117372.098  
  20117367.410  
  22197016.680   116646115.691    22197027.312    90893134.5324   22197027.770  
                
  19406636.016   103557572.472                                                  
  19406633.664  
  24167273.516   126999899.584    24167284.883    98961002.4874   24167285.328  
                
  22629563.258   118919165.902    22629572.996    92664345.7084   22629572.473  
                
 21  8 15 11 34 50.0000000  0 15R20G31G 1G22G21R 5R 7G27G32R21R22G 8
                                R 6G 3G10
  23541897.227   125889081.221                    97913747.694    23541906.746  
  23541896.680  
  24435521.391   128409532.033    24435532.168   100059420.0704   24435532.426  
                
  21918544.469   115182769.143    21918554.855    89752856.3814   21918554.488  
                
  22585839.531   118689420.487    22585844.641    92485301.0364                 
                
  21455097.953   112747346.765    21455103.984    87855117.0434                 
                
  23465955.148   125438976.639                    97563652.830    23465961.203  
  23465955.152  
  20404584.125   109227381.878                    84954646.073    20404589.574  
  20404582.363  
  23647284.789   124267282.264    23647295.379    96831707.8234   23647295.715  
                
  20796014.688   109283834.889    20796023.141    85156291.9024   20796023.508  
                
  19529617.648   104506962.101                    81283204.314    19529621.508  
  19529615.777  
  20113083.484   107365056.414                    83506175.770    20113086.285  
  20113081.613  
  22201535.086   116669860.038    22201545.723    90911636.6054   22201546.168  
                
  19409114.227   103570796.662                                                  
  19409111.891  
  24161628.500   126970234.829    24161639.898    98937887.1734   24161640.324  
                
  22634204.289   118943554.637    22634214.012    92683349.9184   22634213.496  
                
 21  8 15 11 35  0.0000000  0 15R20G31G 1G22G21R 5R 7G27G32R21R22G 8
                                R 6G 3G10
  23550096.008   125932923.037                    97947846.820    23550105.477  
  23550094.961  
  24429014.695   128375339.663    24429025.516   100032776.7684   24429025.789  
                
  21913136.930   115154352.333    21913147.293    89730713.4274   21913146.934  
                
  22581449.281   118666349.689    22581454.406    92467323.8044                 
                
  21452256.977   112732417.356    21452263.000    87843483.7444                 
                
  23473092.078   125477127.524                    97593325.697    23473098.176  
  23473092.156  
  20400551.375   109205794.324                    84937855.767    20400556.824  
  20400549.629  
  23654085.812   124303022.027    23654096.480    96859556.9604   23654096.820  
                
  20797731.492   109292856.785    20797739.980    85163321.9474   20797740.320  
                
  19532849.625   104524256.945                    81296655.853    19532853.492  
  19532847.793  
  20108810.484   107342246.916                    83488435.064    20108813.305  
  20108808.617  
  22206062.203   116693650.101    22206072.820    90930174.3114   22206073.281  
                
  19411602.273   103584073.296                                                  
  19411599.930  
  24155985.539   126940581.670    24155996.996    98914780.8374   24155997.457  
                
  22638848.242   118967958.712    22638857.961    92702366.0714   22638857.441  
                
 21  8 15 11 35 10.0000000  0 15R20G31G 1G22G21R 5R 7G27G32R21R22G 8
                                R 6G 3G10
  23558298.086   125976782.455                    97981959.643    23558307.453  
  23558296.996  
  24422508.578   128341150.277    24422519.418   100006135.7924   24422519.680  
                
  21907734.641   115125963.170    21907744.992    89708592.0034   21907744.660  
                
  22577062.758   118643298.447    22577067.855    92449361.8244                 
                
  21449422.219   112717520.629    21449428.238    87831875.9104                 
                
  23480228.711   125515276.775                    97622997.314    23480234.801  
  23480228.848  
  20396528.328   109184258.716                    84921105.860    20396533.773  
  20396526.598  
  23660889.547   124338775.717    23660900.234    96887416.9474   23660900.566  
                
  20799459.039   109301935.125    20799467.555    85170395.9834   20799467.887  
                
  19536096.805   104541633.239                    81310170.742    19536100.680  
  19536095.008  
  20104550.227   107319505.406                    83470747.219    20104553.062  
  20104548.348  
  22210597.898   116717485.313    22210608.512    90948747.1884   22210608.961  
                
  19414100.086   103597402.107                                                  
  19414097.758  
  24150344.844   126910939.793    24150356.379    98891683.3204   24150356.824  
                
  22643495.031   118992377.755    22643504.730    92721393.8894   22643504.219  
                
 21  8 15 11 35 20.0000000  0 15R20G31G 1G22G21R 5R 7G27G32R21R22G 8
                                R 6G 3G10
  23566503.648   126020659.707                    98016086.337    23566512.805  
  23566502.488  
  24416003.109   128306964.265    24416013.984    99979497.4464   24416014.230  
                
  21902337.672   115097601.965    21902348.062    89686492.3924   21902347.727  
                
  22572680.008   118620267.033    22572685.055    92431415.2874                 
                
  21446593.750   112702656.902    21446599.766    87820293.7914                 
                
  23487365.031   125553424.415                    97652667.684    23487371.121  
  23487365.191  
  20392515.062   109162775.384                    84904396.620    20392520.496  
  20392513.352  
  23667696.039   124374543.533    23667706.688    96915287.9544   23667707.012  
                
  20801197.383   109311070.182    20801205.914    85177514.2194   20801206.246  
                
  19539359.266   104559091.230                    81323749.188    19539363.156  
  19539357.496  
  20100302.859   107296832.634                    83453112.833    20100305.699  
  20100300.980  
  22215142.227   116741365.839    22215152.844    90967355.3834   22215153.262  
                
  19416607.742   103610783.363                                                  
  19416605.418  
  24144706.375   126881309.473    24144717.855    98868594.7984   24144718.332  
                
  22648144.734   119016812.063    22648154.406    92740433.6094   22648153.906  
                
 21  8 15 11 35 30.0000000  0 15R20G31G 1G22G21R 5R 7G27G32R21R22G 8
                                R 6G 3G10
  23574712.086   126064553.802                    98050226.132    23574721.301  
  23574710.973  
  24409498.133   128272781.007    24409509.070    99952861.2304   24409509.316  
                
  21896945.906   115069268.093    21896956.320    89664414.0684   21896955.969  
                
  22568300.891   118597254.656    22568305.906    92413483.5854                 
                
  21443771.414   112687825.445    21443777.414    87808736.8174                 
                
  23494500.875   125591569.540                    97682336.082    23494506.977  
  23494501.000  
  20388511.430   109141343.693                    84887727.554    20388516.840  
  20388509.703  
  23674504.992   124410324.590    23674515.656    96943169.2724   23674515.961  
                
  20802946.359   109320261.121    20802954.902    85184675.9974   20802955.238  
                
  19542636.852   104576630.181                    81337390.582    19542640.773  
  19542635.113  
  20096068.195   107274227.750                    83435531.268    20096071.020  
  20096066.297  
  22219694.961   116765290.598    22219705.566    90985998.0434   22219706.012  
                
  19419125.016   103624216.042                                                  
  19419122.707  
  24139070.008   126851690.024    24139081.434    98845514.7394   24139081.910  
                
  22652797.188   119041260.827    22652806.852    92759484.5924   22652806.355  
                
 21  8 15 11 35 40.0000000  0 15R20G31G 1G22G21R 5R 7G27G32R21R22G 8
                                R 6G 3G10
  23582923.672   126108465.718                    98084379.822    23582933.121  
  23582922.703  
  24402993.883   128238601.406    24403004.863    99926227.8664   24403005.109  
                
  21891559.508   115040962.487    21891569.926    89642357.7634   21891569.574  
                
  22563925.555   118574262.195    22563930.559    92395567.4014                 
                
  21440955.398   112673027.205    21440961.375    87797205.7234                 
                
  23501636.453   125629713.069                    97712003.227    23501642.551  
  23501636.566  
  20384517.555   109119964.285                    84871099.145    20384522.961  
  20384515.820  
  23681316.555   124446119.676    23681327.289    96971061.5224   23681327.555  
                
  20804706.133   109329508.773    20804714.691    85191881.9634   20804715.031  
                
  19545929.695   104594250.808                    81351095.504    19545933.625  
  19545927.961  
  20091846.438   107251691.827                    83418003.348    20091849.266  
  20091844.535  
  22224256.344   116789260.787    22224266.930    91004676.1044   22224267.406  
                
  19421652.047   103637700.727                                                  
  19421649.734  
  24133435.922   126822082.322    24133447.188    98822443.7924   24133447.684  
                
  22657452.555   119065724.892    22657462.254    92778547.4964   22657461.746  
                
 21  8 15 11 35 50.0000000  0 14G31G 1G22G21R 5R 7G27G32R21R22G 8R 6
                                G 3G10
  24396490.281   128204425.531    24396501.375    99899597.4154   24396501.605  
                
  21886178.500   115012685.123    21886188.902    89620323.4664   21886188.566  
                
  22559554.000   118551289.591    22559558.977    92377666.6844                 
                
  21438145.703   112658262.172    21438151.656    87785700.5024                 
                
  23508771.727   125667854.884                    97741669.062    23508777.824  
  23508771.863  
  20380533.477   109098637.253                    84854511.464    20380538.895  
  20380531.734  
  23688130.766   124481928.565    23688141.512    96998964.5194   23688141.750  
                
  20806476.664   109338812.969    20806485.250    85199131.9934   20806485.578  
                
  19549237.789   104611953.041                    81364863.900    19549241.730  
  19549236.070  
  20087637.633   107229225.011                    83400529.152    20087640.480  
  20087635.730  
  22228826.312   116813276.078    22228836.883    91023389.3044   22228837.375  
                
  19424188.828   103651237.503                                                  
  19424186.523  
  24127803.938   126792486.223    24127815.223    98799381.9364   24127815.672  
                
  22662110.805   119090204.134    22662120.547    92797622.2144   22662120.016  
                
 21  8 15 11 36  0.0000000  0 15R20G31G 1G22G21R 5R 7G27G32R21R22G 8
                                R 6G 3G10
  23599356.492   126196341.112                    98152727.213    23599367.074  
  23599355.250  
  24389987.438   128170253.013    24389998.504    99872969.5834   24389998.730  
                
  21880802.789   114984435.636    21880813.176    89598310.8894   21880812.840  
                
  22555186.148   118528336.439    22555191.062    92359781.1334                 
                
  21435342.242   112643529.884    21435348.168    87774220.8004                 
                
  23515906.547   125705994.358                    97771333.093    23515912.648  
  23515906.707  
  20376559.102   109077362.151                    84837964.171    20376564.531  
  20376557.352  
  23694947.492   124517750.738    23694958.258    97026877.8724   23694958.480  
                
  20808257.867   109348173.239    20808266.488    85206425.7124   20808266.789  
                
  19552561.000   104629736.227                    81378695.263    19552564.961  
  19552559.297  
  20083441.695   107206826.850                    83383108.374    20083444.566  
  20083439.793  
  22233404.734   116837335.809    22233415.309    91042137.1294   22233415.781  
                
  19426735.250   103664825.705                                                  
  19426732.938  
  24122174.070   126762901.325    24122185.398    98776328.8214   24122185.816  
                
  22666771.867   119114698.111    22666781.637    92816708.4114   22666781.102  
                
 21  8 15 11 36 10.0000000  0 15R20G31G 1G22G21R 5R 7G27G32R21R22G 8
                                R 6G 3G10
  23607577.914   126240304.533                    98186920.927    23607588.395  
  23607576.699  
  24383485.297   128136084.434    24383496.363    99846344.8064   24383496.605  
                
  21875432.477   114956214.498    21875442.844    89576320.4084   21875442.512  
                
  22550822.070   118505403.114    22550826.949    92341911.0204                 
                
  21432545.102   112628830.848    21432550.992    87762767.0094                 
                
  23523040.992   125744132.027                    97800995.696    23523047.137  
  23523041.160  
  20372594.484   109056139.311                    84821457.534    20372599.926  
  20372592.738  
  23701766.766   124553586.400    23701777.598    97054801.7364   23701777.805  
                
  20810049.797   109357589.886    20810058.441    85213763.3634   20810058.727  
                
  19555899.445   104647600.836                    81392589.952    19555903.402  
  19555897.746  
  20079258.719   107184497.862                    83365741.393    20079261.605  
  20079256.797  
  22237991.695   116861440.369    22238002.262    91060919.9014   22238002.723  
                
  19429291.438   103678465.975                                                  
  19429289.109  
  24116546.477   126733328.067    24116557.688    98753284.7304   24116558.113  
                
  22671435.789   119139207.125    22671445.574    92835806.3484   22671445.055  
                
 21  8 15 11 36 20.0000000  0 15R20G31G 1G22G21R 5R 7G27G32R21R22G 8
                                R 6G 3G10
  23615802.531   126284284.756                    98221127.717    23615812.766  
  23615802.250  
  24376983.875   128101919.712    24376994.910    99819723.0354   24376995.199  
                
  21870067.516   114928021.530    21870077.879    89554351.8774   21870077.547  
                
  22546461.719   118482489.408    22546466.602    92324056.2064                 
                
  21429754.250   112614164.836    21429760.102    87751338.9504                 
                
  23530174.992   125782267.301                    97830656.418    23530181.168  
  23530175.160  
  20368639.625   109034968.695                    84804991.515    20368645.074  
  20368637.895  
  23708588.641   124589435.254    23708599.461    97082735.8824   23708599.641  
                
  20811852.406   109367062.641    20811861.066    85221144.7344   20811861.344  
                
  19559253.031   104665546.555                    81406547.716    19559256.996  
  19559251.324  
  20075088.680   107162237.948                    83348428.122    20075091.531  
  20075086.738  
