     2.11           OBSERVATION DATA    M (MIXED)           RINEX VERSION / TYPE
EFT-CORS.RU                             20210817 145343 UTC PGM / RUN BY / DATE 
MDNG                                                        MARKER NAME         
                                                            MARKER NUMBER       
MDNG                EFT-CORS.RU                             OBSERVER / AGENCY   
0                   TRIMBLE BD970       2.0                 REC # / TYPE / VERS 
0                   UNKNOWN EXT NONE                        ANT # / TYPE        
  3463911.2830  3030468.2400  4402179.3760                  APPROX POSITION XYZ 
        0.0000        0.0000        0.0000                  ANTENNA: DELTA H/E/N
     1     1                                                WAVELENGTH FACT L1/2
     6    C1    L1    P2    L2    C2    P1                  # / TYPES OF OBSERV 
    10.000                                                  INTERVAL            
  2021     8    15    17    30    0.0000000     GPS         TIME OF FIRST OBS   
  2021     8    15    18    30    0.0000000     GPS         TIME OF LAST OBS    
     0                                                      RCV CLOCK OFFS APPL 
                                                            END OF HEADER       
 21  8 15 17 30  0.0000000  0 14G16R 1G 4R 8R12G20G 7R10G 2G 6G30G 9
                                G 3R 2
  22393419.359   117678248.510    22393425.422    91697373.9974                 
                
  19511139.508   104298251.937                    81120880.777    19511144.688  
  19511138.750  
  21487680.883   112918577.592    21487688.781    87988563.9594   21487688.492  
                
  22509386.227   120536775.860                    93750832.768    22509389.551  
  22509385.641  
  20541667.648   109729926.983                    85345502.061    20541671.918  
  20541667.066  
  23856583.859   125367191.831    23856590.797    97688752.8954                 
                
  21085640.109   110805819.453    21085646.840    86342253.1314   21085646.645  
                
  22852639.844   121817455.146                                                  
  22852639.027  
  24710168.586   129852818.594    24710174.387   101184030.9314                 
                
  23757632.578   124847175.639    23757643.188    97283565.5244   23757643.520  
                
  23532171.375   123662413.184    23532181.613    96360375.1284   23532181.746  
                
  20349984.203   106939929.339    20349992.105    83329869.6714   20349991.852  
                
  24557897.148   129052652.132    24557907.492   100560553.1834   24557908.000  
                
  20726862.836   110602533.745                    86024190.180    20726865.867  
  20726860.641  
 21  8 15 17 30 10.0000000  0 14G16R 1G 4R 8R12G20G 7R10G 2G 6G30G 9
                                G 3R 2
  22396074.844   117692203.277    22396080.949    91708247.8414                 
                
  19513245.148   104309507.804                    81129635.331    19513250.309  
  19513244.402  
  21491244.969   112937306.981    21491252.875    88003158.2844   21491252.586  
                
  22515736.977   120570783.278                    93777282.981    22515740.203  
  22515736.324  
  20535631.867   109697685.020                    85320424.990    20535636.133  
  20535631.277  
  23850533.773   125335398.611    23850540.750    97663978.9784                 
                
  21082936.484   110791611.852    21082943.242    86331182.2774   21082943.047  
                
  22860232.633   121857929.069                                                  
  22860231.828  
  24711236.617   129858431.179    24711242.523   101188404.3544                 
                
  23762167.469   124871006.477    23762178.070    97302134.9824   23762178.414  
                
  23526436.539   123632276.321    23526446.742    96336891.8754   23526446.871  
                
  20349728.086   106938583.440    20349735.973    83328820.9184   20349735.730  
                
  24565171.633   129090879.336    24565181.883   100590340.6194   24565182.379  
                
  20721251.289   110572589.540                    86000900.250    20721254.324  
  20721249.098  
 21  8 15 17 30 20.0000000  0 14G16R 1G 4R 8R12G20G 7R10G 2G 6G30G 9
                                G 3R 2
  22398743.492   117706227.217    22398749.637    91719175.5974                 
                
  19515362.453   104320825.980                    81138438.351    19515367.625  
  19515361.715  
  21494814.633   112956065.697    21494822.535    88017775.4494   21494822.266  
                
  22522093.500   120604822.566                    93803757.980    22522096.816  
  22522092.902  
  20529606.859   109665500.607                    85295392.678    20529611.105  
  20529606.266  
  23844489.484   125303635.934    23844496.492    97639228.8664                 
                
  21080239.969   110777441.627    21080246.754    86320140.5554   21080246.551  
                
  22867829.484   121898424.784                                                  
  22867828.695  
  24712314.023   129864093.077    24712319.992   101192816.1974                 
                
  23766709.117   124894872.783    23766719.703    97320732.0874   23766720.059  
                
  23520705.750   123602160.717    23520715.914    96313425.1844   23520716.043  
                
  20349479.281   106937275.989    20349487.152    83327802.1284   20349486.910  
                
  24572447.805   129129115.481    24572457.934   100620135.0244   24572458.457  
                
  20715645.008   110542673.376                    85977632.127    20715648.059  
  20715642.809  
 21  8 15 17 30 30.0000000  0 14G16R 1G 4R 8R12G20G 7R10G 2G 6G30G 9
                                G 3R 2
  22401425.297   117720320.280    22401431.449    91730157.2124                 
                
  19517491.422   104332206.538                    81147289.894    19517496.594  
  19517490.703  
  21498389.883   112974853.772    21498397.781    88032415.5134   21498397.516  
                
  22528455.977   120638893.893                    93830257.878    22528459.426  
  22528455.422  
  20523592.641   109633373.863                    85270405.231    20523596.891  
  20523592.047  
  23838451.070   125271903.923    23838458.074    97614502.6404                 
                
  21077550.570   110763308.767    21077557.375    86309127.9494   21077557.172  
                
  22875430.492   121938942.404                                                  
  22875429.766  
  24713400.812   129869804.243    24713406.750   101197266.4864                 
                
  23771257.484   124918774.462    23771268.055    97339356.7544   23771268.398  
                
  23514979.016   123572066.462    23514989.168    96289975.1274   23514989.293  
                
  20349237.820   106936007.072    20349245.676    83326813.3614   20349245.438  
                
  24579725.688   129167360.629    24579735.719   100649936.4304   24579736.242  
                
  20710044.000   110512785.389                    85954385.949    20710047.082  
  20710041.793  
 21  8 15 17 30 40.0000000  0 14G16R 1G 4R 8R12G20G 7R10G 2G 6G30G 9
                                G 3R 2
  22404120.266   117734482.539    22404126.414    91741192.7554                 
                
  19519632.062   104343649.493                    81156189.964    19519637.242  
  19519631.336  
  21501970.750   112993671.333    21501978.652    88047078.5424   21501978.398  
                
  22534824.633   120672997.287                    93856782.732    22534828.000  
  22534823.992  
  20517589.312   109601305.191                    85245462.943    20517593.555  
  20517588.727  
  23832418.516   125240202.806    23832425.516    97589800.4844                 
                
  21074868.328   110749213.492    21074875.145    86298144.6274   21074874.945  
                
  22883035.609   121979481.786                                                  
  22883034.910  
  24714496.992   129875564.777    24714502.867   101201755.2014                 
                
  23775812.602   124942711.580    23775823.133    97358009.0404   23775823.477  
                
  23509256.359   123541993.741    23509266.516    96266541.8554   23509266.625  
                
  20349003.711   106934776.818    20349011.555    83325854.7224   20349011.312  
                
  24587005.250   129205614.732    24587015.230   100679744.8224   24587015.758  
                
  20704448.188   110482925.103                    85931161.288    20704451.277  
  20704446.000  
 21  8 15 17 30 50.0000000  0 14G16R 1G 4R 8R12G20G 7R10G 2G 6G30G 9
                                G 3R 2
  22406828.336   117748713.598    22406834.473    91752281.9024                 
                
  19521784.344   104355154.703                    81165138.448    19521789.543  
  19521783.617  
  21505557.164   113012518.038    21505565.070    88061764.2764   21505564.820  
                
  22541199.273   120707132.511                    93883332.350    22541202.492  
  22541198.574  
  20511596.781   109569294.173                    85220565.493    20511601.016  
  20511596.199  
  23826391.781   125208532.337    23826398.770    97565122.2194                 
                
  21072193.156   110735155.443    21072199.984    86287190.3104   21072199.785  
                
  22890644.664   122020042.322                                                  
  22890643.977  
  24715602.500   129881374.302    24715608.340   101206282.0934                 
                
  23780374.359   124966683.692    23780384.887    97376688.5734   23780385.223  
                
  23503537.734   123511942.231    23503547.887    96243125.1144   23503547.996  
                
  20348776.906   106933584.940    20348784.738    83324925.9824   20348784.492  
                
  24594286.406   129243877.420    24594296.375   100709559.9064   24594296.898  
                
  20698857.711   110453093.254                    85907958.749    20698860.789  
  20698855.535  
 21  8 15 17 31  0.0000000  0 14G16R 1G 4R 8R12G20G 7R10G 2G 6G30G 9
                                G 3R 2
  22409549.562   117763013.792    22409555.680    91763424.9124                 
                
  19523948.367   104366722.605                    81174135.710    19523953.578  
  19523947.641  
  21509149.195   113031394.257    21509157.098    88076473.0084   21509156.852  
                
  22547579.867   120741299.776                    93909906.891    22547583.004  
  22547579.129  
  20505615.133   109537341.337                    85195713.304    20505619.367  
  20505614.555  
  23820371.016   125176893.046    23820377.969    97540468.2344                 
                
  21069525.164   110721135.064    21069532.000    86276265.3484   21069531.801  
                
  22898257.797   122060624.483                                                  
  22898257.090  
  24716717.398   129887233.172    24716723.273   101210847.4334                 
                
  23784942.789   124990690.988    23784953.355    97395395.5464   23784953.699  
                
  23497823.227   123481912.347    23497833.406    96219725.2304   23497833.516  
                
  20348557.469   106932431.812    20348565.285    83324027.4454   20348565.039  
                
  24601569.242   129282148.970    24601579.254   100739381.8924   24601579.762  
                
  20693272.625   110423290.179                    85884778.578    20693275.691  
  20693270.441  
 21  8 15 17 31 10.0000000  0 14G16R 1G 4R 8R12G20G 7R10G 2G 6G30G 9
                                G 3R 2
  22412283.836   117777382.603    22412289.949    91774621.4064                 
                
  19526123.992   104378352.561                    81183181.218    19526129.219  
  19526123.281  
  21512746.750   113050299.569    21512754.672    88091204.4164   21512754.422  
                
  22553966.281   120775498.376                    93936505.801    22553969.383  
  22553965.504  
  20499644.344   109505446.536                    85170906.249    20499648.582  
  20499643.777  
  23814356.117   125145284.642    23814363.023    97515838.2974                 
                
  21066864.242   110707151.908    21066871.086    86265369.3934   21066870.875  
                
  22905874.852   122101227.679                                                  
  22905874.152  
  24717841.602   129893140.928    24717847.547   101215450.8384                 
                
  23789517.828   125014733.025    23789528.414    97414129.5714   23789528.746  
                
  23492112.758   123451903.738    23492122.973    96196341.9114   23492123.062  
                
  20348345.344   106931317.095    20348353.148    83323158.8344   20348352.902  
                
  24608853.680   129320428.927    24608863.703   100769210.4234   24608864.211  
                
  20687692.820   110393515.384                    85861620.416    20687695.891  
  20687690.648  
 21  8 15 17 31 20.0000000  0 14G16R 1G 4R 8R12G20G 7R10G 2G 6G30G 9
                                G 3R 2
  22415031.234   117791820.320    22415037.320    91785871.5754                 
                
  19528311.305   104390044.969                    81192275.321    19528316.547  
  19528310.621  
  21516349.906   113069234.295    21516357.855    88105958.7414   21516357.586  
                
  22560358.617   120809729.056                    93963129.651    22560361.777  
  22560357.871  
  20493684.477   109473610.039                    85146144.540    20493688.723  
  20493683.918  
  23808347.180   125113707.528    23808354.066    97491232.7724                 
                
  21064210.492   110693206.331    21064217.348    86254502.7174   21064217.121  
                
  22913495.805   122141851.916                                                  
  22913495.109  
  24718975.188   129899097.850    24718981.152   101220092.6204                 
                
  23794099.555   125038809.995    23794110.113    97432890.8354   23794110.445  
                
  23486406.383   123421916.766    23486416.645    96172975.4584   23486416.727  
                
  20348140.594   106930241.107    20348148.387    83322320.4054   20348148.141  
                
  24616139.742   129358717.521    24616149.809   100799045.6844   24616150.328  
                
  20682118.398   110363769.231                    85838484.534    20682121.477  
  20682116.242  
 21  8 15 17 31 30.0000000  0 14G16R 1G 4R 8R12G20G 7R10G 2G 6G30G 9
                                G 3R 2
  22417791.711   117806326.759    22417797.766    91797175.2984                 
                
  19530510.305   104401799.871                    81201418.005    19530515.562  
  19530509.637  
  21519958.625   113088198.273    21519966.578    88120735.8514   21519966.312  
                
  22566756.992   120843991.302                    93989778.055    22566760.059  
  22566756.191  
  20487735.523   109441831.812                    85121428.155    20487739.789  
  20487734.969  
  23802344.195   125082161.696    23802351.043    97466651.6084                 
                
  21061563.859   110679298.234    21061570.730    86243665.2464   21061570.500  
                
  22921120.766   122182497.183                                                  
  22921120.039  
  24720118.078   129905103.759    24720124.070   101224772.5314                 
                
  23798687.805   125062921.653    23798698.391    97451679.1184   23798698.727  
                
  23480704.070   123391951.288    23480714.375    96149625.7514   23480714.469  
                
  20347943.180   106929203.717    20347950.961    83321512.0484   20347950.719  
                
  24623427.484   129397014.515    24623437.500   100828887.4864   24623438.027  
                
  20676549.312   110334051.592                    85815370.809    20676552.402  
  20676547.156  
 21  8 15 17 31 40.0000000  0 14G16R 1G 4R 8R12G20G 7R10G 2G 6G30G 9
                                G 3R 2
  22420565.242   117820901.829    22420571.262    91808532.5164                 
                
  19532720.938   104413616.967                    81210609.084    19532726.219  
  19532720.289  
  21523572.906   113107191.464    21523580.855    88135535.7344   21523580.582  
                
  22573161.242   120878285.069                    94016450.997    22573164.266  
  22573160.402  
  20481797.484   109410111.946                    85096757.175    20481801.758  
  20481796.941  
  23796347.156   125050647.160    23796353.992    97442094.8344                 
                
  21058924.328   110665427.512    21058931.203    86232856.9014   21058930.977  
                
  22928749.617   122223163.182                                                  
  22928748.859  
  24721270.258   129911158.542    24721276.266   101229490.5394                 
                
  23803282.641   125087067.841    23803293.234    97470494.3064   23803293.586  
                
  23475005.820   123362007.318    23475016.191    96126292.8214   23475016.301  
                
  20347753.117   106928204.932    20347760.891    83320733.7734   20347760.648  
                
  24630716.703   129435319.820    24630726.789   100858735.7634   24630727.312  
                
  20670985.641   110304362.847                    85792279.586    20670988.738  
  20670983.488  
 21  8 15 17 31 50.0000000  0 14G16R 1G 4R 8R12G20G 7R10G 2G 6G30G 9
                                G 3R 2
  22423351.891   117835545.751    22423357.883    91819943.3694                 
                
  19534943.320   104425496.852                    81219848.987    19534948.629  
  19534942.672  
  21527192.789   113126214.127    21527200.723    88150358.5864   21527200.457  
                
  22579571.391   120912610.660                    94043148.687    22579574.414  
  22579570.570  
  20475870.453   109378450.833                    85072131.890    20475874.750  
  20475869.918  
  23790356.148   125019164.201    23790363.016    97417562.6804                 
                
  21056291.969   110651594.375    21056298.824    86222077.8474   21056298.609  
                
  22936382.383   122263849.885                                                  
  22936381.570  
  24722431.805   129917262.431    24722437.789   101234246.8324                 
                
  23807884.047   125111248.701    23807894.688    97489336.5254   23807895.020  
                
  23469311.773   123332085.214    23469322.219    96102976.9344   23469322.312  
                
  20347570.461   106927245.028    20347578.230    83319985.8074   20347577.996  
                
  24638007.516   129473633.598    24638017.703   100888590.6514   24638018.211  
                
  20665427.469   110274703.404                    85769211.133    20665430.547  
  20665425.309  
 21  8 15 17 32  0.0000000  0 14G16R 1G 4R 8R12G20G 7R10G 2G 6G30G 9
                                G 3R 2
  22426151.531   117850258.020    22426157.480    91831407.4804                 
                
  19537177.336   104437438.905                    81229137.239    19537182.668  
  19537176.688  
  21530818.203   113145265.809    21530826.109    88165204.0454   21530825.855  
                
  22585987.250   120946967.527                    94069870.645    22585990.418  
  22585986.523  
  20469954.359   109346848.185                    85047552.072    20469958.672  
  20469953.852  
  23784371.078   124987712.519    23784377.969    97393054.8754                 
                
  21053666.688   110637798.461    21053673.516    86211327.7854   21053673.312  
                
  22944019.023   122304557.209                                                  
  22944018.191  
  24723602.609   129923415.059    24723608.637   101239041.0534                 
                
  23812492.008   125135463.746    23812502.645    97508205.3634   23812502.961  
                
  23463621.828   123302184.552    23463632.277    96079677.7294   23463632.387  
                
  20347395.117   106926323.628    20347402.879    83319267.8264   20347402.645  
                
  24645299.906   129511955.357    24645310.102   100918451.7584   24645310.613  
                
  20659874.664   110245072.622                    85746164.983    20659877.727  
  20659872.508  
 21  8 15 17 32 10.0000000  0 14G16R 1G 4R 8R12G20G 7R10G 2G 6G30G 9
                                G 3R 2
  22428964.211   117865038.738    22428970.086    91842924.9354                 
                
  19539423.023   104449443.360                    81238474.027    19539428.379  
  19539422.391  
  21534449.172   113164346.683    21534457.047    88180072.2514   21534456.812  
                
  22592409.102   120981355.776                    94096617.045    22592412.273  
  22592408.332  
  20464049.242   109315304.117                    85023017.809    20464053.539  
  20464048.770  
  23778392.039   124956292.398    23778398.941    97368571.6634                 
                
  21051048.523   110624039.956    21051055.316    86200606.8794   21051055.113  
                
  22951659.430   122345284.943                                                  
  22951658.613  
  24724782.688   129929616.456    24724788.770   101243873.2964                 
                
  23817106.508   125159712.949    23817117.094    97527100.8474   23817117.422  
                
  23457935.992   123272305.515    23457946.461    96056395.3844   23457946.578  
                
  20347227.133   106925440.887    20347234.875    83318579.9834   20347234.652  
                
  24652593.875   129550285.178    24652604.027   100948319.1424   24652604.566  
                
  20654327.312   110215470.934                    85723141.465    20654330.363  
  20654325.160  
 21  8 15 17 32 20.0000000  0 14G16R 1G 4R 8R12G20G 7R10G 2G 6G30G 9
                                G 3R 2
  22431789.938   117879887.974    22431795.719    91854495.7684                 
                
  19541680.406   104461510.361                    81247859.476    19541685.793  
  19541679.789  
  21538085.727   113183456.856    21538093.574    88194963.2844   21538093.348  
                
  22598836.836   121015775.703                    94123388.092    22598840.027  
  22598836.051  
  20458155.133   109283818.857                    84998529.289    20458159.410  
  20458154.676  
  23772419.062   124924904.110    23772425.977    97344113.2584                 
                
  21048437.500   110610318.973    21048444.258    86189915.2144   21048444.062  
                
  22959303.641   122386032.876                                                  
  22959302.816  
  24725972.062   129935866.696    24725978.184   101248743.6134                 
                
  23821727.492   125183996.403    23821738.023    97546022.9994   23821738.391  
                
  23452254.297   123242448.287    23452264.773    96033130.0384   23452264.902  
                
  20347066.539   106924596.961    20347074.258    83317922.3844   20347074.043  
                
  24659889.352   129588623.104    24659899.477   100978192.8444   24659900.031  
                
  20648785.508   110185898.856                    85700140.967    20648788.527  
  20648783.355  
 21  8 15 17 32 30.0000000  0 14G16R 1G 4R 8R12G20G 7R10G 2G 6G30G 9
                                G 3R 2
  22434628.633   117894805.366    22434634.363    91866119.7204                 
                
  19543949.430   104473639.580                    81257293.303    19543954.836  
  19543948.812  
  21541727.789   113202596.056    21541735.613    88209876.9374   21541735.395  
                
  22605270.547   121050226.888                    94150183.429    22605273.625  
  22605269.660  
  20452272.031   109252392.422                    84974086.511    20452276.273  
  20452271.590  
  23766452.094   124893547.476    23766459.027    97319679.5224                 
                
  21045833.570   110596635.297    21045840.289    86179252.6144   21045840.105  
                
  22966951.609   122426800.771                                                  
  22966950.785  
  24727170.688   129942165.513    24727176.809   101253651.7784                 
                
  23826354.914   125208313.690    23826365.395    97564971.5104   23826365.777  
                
  23446576.750   123212612.650    23446587.199    96009881.5064   23446587.340  
                
  20346913.281   106923791.616    20346920.977    83317294.8434   20346920.766  
                
  24667186.312   129626968.807    24667196.410   101008072.6054   24667196.965  
                
  20643249.109   110156355.613                    85677162.902    20643252.098  
  20643246.949  
 21  8 15 17 32 40.0000000  0 14G16R 1G 4R 8R12G20G 7R10G 2G 6G30G 9
                                G 3R 2
  22437480.352   117909791.237    22437486.043    91877797.0254                 
                
  19546230.164   104485831.386                    81266775.826    19546235.586  
  19546229.555  
  21545375.445   113221764.567    21545383.238    88224813.4334   21545383.039  
                
  22611710.117   121084709.325                    94177003.111    22611713.004  
  22611709.141  
  20446400.000   109221025.052                    84949689.669    20446404.227  
  20446399.543  
  23760491.242   124862222.855    23760498.195    97295270.7444                 
                
  21043236.781   110582989.102    21043243.461    86168619.2294   21043243.301  
                
  22974603.359   122467588.735                                                  
  22974602.547  
  24728378.594   129948513.058    24728384.719   101258597.9124                 
                
  23830988.789   125232665.021    23830999.320    97583946.5394   23830999.699  
                
  23440903.406   123182798.899    23440913.812    95986650.0354   23440913.961  
                
  20346767.438   106923025.195    20346775.113    83316697.6354   20346774.930  
                
  24674484.719   129665322.505    24674494.867   101037958.6024   24674495.426  
                
  20637718.258   110126841.991                    85654207.861    20637721.215  
  20637716.090  
 21  8 15 17 32 50.0000000  0 14G16R 1G 4R 8R12G20G 7R10G 2G 6G30G 9
                                G 3R 2
  22440345.070   117924845.366    22440350.734    91889527.5234                 
                
  19548522.594   104498085.700                    81276306.946    19548528.020  
  19548521.992  
  21549028.656   113240962.289    21549036.414    88239772.6864   21549036.215  
                
  22618155.398   121119223.058                    94203847.126    22618158.215  
  22618154.402  
  20440539.016   109189716.797                    84925338.833    20440543.246  
  20440538.559  
  23754536.500   124830930.280    23754543.469    97270886.9354                 
                
  21040647.125   110569380.403    21040653.762    86158015.0594   21040653.625  
                
  22982258.844   122508396.489                                                  
  22982258.016  
  24729595.766   129954909.236    24729601.934   101263581.9604                 
                
  23835629.156   125257050.147    23835639.691    97602947.9294   23835640.055  
                
  23435234.227   123153007.019    23435244.559    95963435.6014   23435244.711  
                
  20346628.977   106922297.582    20346636.645    83316130.6644   20346636.457  
                
  24681784.633   129703684.004    24681794.832   101067850.6754   24681795.387  
                
  20632192.984   110097358.094                    85631275.952    20632195.914  
  20632190.820  
 21  8 15 17 33  0.0000000  0 14G16R 1G 4R 8R12G20G 7R10G 2G 6G30G 9
                                G 3R 2
  22443222.750   117939967.678    22443228.371    91901311.1524                 
                
  19550826.695   104510402.417                    81285886.607    19550832.133  
  19550826.102  
  21552687.406   113260189.131    21552695.113    88254754.6284   21552694.930  
                
  22624606.336   121153767.867                    94230715.324    22624609.207  
  22624605.453  
  20434689.109   109158467.723                    84901034.018    20434693.344  
  20434688.648  
  23748587.820   124799669.775    23748594.840    97246528.1214                 
                
  21038064.578   110555809.073    21038071.176    86147440.0124   21038071.051  
                
  22989918.039   122549224.158                                                  
  22989917.223  
  24730822.172   129961354.024    24730828.461   101268603.8434                 
                
  23840275.844   125281468.912    23840286.449    97621975.5134   23840286.816  
                
  23429569.188   123123236.929    23429579.406    95940238.1334   23429579.566  
                
  20346497.891   106921608.751    20346505.559    83315593.9144   20346505.379  
                
  24689086.055   129742053.138    24689096.238   101097748.6944   24689096.793  
                
  20626673.289   110067903.995                    85608367.216    20626676.203  
  20626671.137  
 21  8 15 17 33 10.0000000  0 14G16R 1G 4R 8R12G20G 7R10G 2G 6G30G 9
                                G 3R 2
  22446113.422   117955158.213    22446118.980    91913147.9374                 
                
  19553142.523   104522781.750                    81295514.969    19553147.984  
  19553141.949  
  21556351.742   113279445.247    21556359.391    88269759.3914   21556359.238  
                
  22631063.086   121188343.902                    94257607.782    22631066.059  
  22631062.332  
  20428850.312   109127277.914                    84876775.284    20428854.531  
  20428849.836  
  23742645.305   124768441.558    23742652.305    97222194.4474                 
                
  21035489.195   110542275.326    21035495.750    86136894.2474   21035495.629  
                
  22997580.914   122590071.580                                                  
  22997580.145  
  24732057.852   129967847.583    24732064.211   101273663.7284                 
                
  23844929.008   125305921.364    23844939.641    97641029.3334   23844940.027  
                
  23423908.336   123093488.832    23423918.469    95917057.8084   23423918.660  
                
  20346374.219   106920958.835    20346381.895    83315087.4874   20346381.723  
                
  24696388.922   129780430.008    24696399.125   101127652.7384   24696399.684  
                
  20621159.141   110038479.417                    85585481.446    20621162.062  
  20621156.992  
 21  8 15 17 33 20.0000000  0 14G16R 1G 4R 8R12G20G 7R10G 2G 6G30G 9
                                G 3R 2
  22449016.992   117970416.587    22449022.500    91925037.5884                 
                
  19555469.969   104535223.352                    81305191.763    19555475.434  
  19555469.391  
  21560021.562   113298730.258    21560029.160    88284786.6674   21560029.039  
                
  22637525.680   121222950.936                    94284524.353    22637528.676  
  22637524.984  
  20423022.594   109096147.363                    84852562.647    20423026.805  
  20423022.094  
  23736708.898   124737245.445    23736715.855    97197885.7874                 
                
  21032920.883   110528778.808    21032927.383    86126377.4774   21032927.277  
                
  23005247.359   122630938.088                                                  
  23005246.602  
  24733302.711   129974389.398    24733309.039   101278761.2724                 
                
  23849588.508   125330407.025    23849599.145    97660109.0474   23849599.535  
                
  23418251.594   123063762.406    23418261.637    95893894.3714   23418261.852  
                
  20346257.883   106920347.551    20346265.562    83314611.1604   20346265.395  
                
  24703693.164   129818814.160    24703703.379   101157562.4634   24703703.914  
                
  20615650.578   110009084.703                    85562618.888    20615653.496  
  20615648.414  
 21  8 15 17 33 30.0000000  0 14G16R 1G 4R 8R12G20G 7R10G 2G 6G30G 9
                                G 3R 2
  22451933.531   117985743.056    22451938.973    91936980.2944                 
                
  19557809.133   104547727.427                    81314917.151    19557814.578  
  19557808.555  
  21563696.969   113318044.532    21563704.547    88299836.7474   21563704.430  
                
  22643994.266   121257588.859                    94311464.956    22643997.086  
  22643993.496  
  20417206.016   109065076.244                    84828396.243    20417210.223  
  20417205.504  
  23730778.672   124706081.833    23730785.578    97173602.4524                 
                
  21030359.734   110515319.857    21030366.180    86115889.9914   21030366.090  
                
  23012917.492   122671824.055                                                  
  23012916.711  
  24734556.828   129980979.643    24734563.078   101283896.5424                 
                
  23854254.422   125354926.122    23854265.031    97679214.8194   23854265.434  
                
  23412599.062   123034058.067    23412609.035    95870748.1454   23412609.266  
                
  20346148.984   106919775.265    20346156.672    83314165.2274   20346156.496  
                
  24710998.820   129857205.876    24711009.082   101187478.0804   24711009.617  
                
  20610147.633   109979719.919                    85539779.619    20610150.566  
  20610145.453  
 21  8 15 17 33 40.0000000  0 14G16R 1G 4R 8R12G20G 7R10G 2G 6G30G 9
                                G 3R 2
  22454862.992   118001137.467    22454868.371    91948975.9484                 
                
  19560160.016   104560294.224                    81324691.329    19560165.453  
  19560159.434  
  21567377.930   113337388.008    21567385.484    88314909.5724   21567385.387  
                
  22650468.414   121292257.798                    94338429.698    22650471.289  
  22650467.727  
  20411400.586   109034064.775                    84804276.225    20411404.785  
  20411400.070  
  23724854.609   124674950.732    23724861.457    97149344.4414                 
                
  21027805.711   110501898.383    21027812.105    86105431.7054   21027812.039  
                
  23020591.273   122712729.426                                                  
  23020590.480  
  24735820.148   129987618.330    24735826.414   101289069.5264                 
                
  23858926.648   125379478.519    23858937.238    97698346.5344   23858937.641  
                
  23406950.688   123004375.779    23406960.641    95847619.1044   23406960.879  
                
  20346047.492   106919241.953    20346055.188    83313749.6574   20346055.008  
                
  24718305.930   129895605.016    24718316.180   101217399.4864   24718316.691  
                
  20604650.367   109950385.501                    85516963.971    20604653.324  
  20604648.203  
 21  8 15 17 33 50.0000000  0 14G16R 1G 4R 8R12G20G 7R10G 2G 6G30G 9
                                G 3R 2
  22457805.359   118016599.755    22457810.660    91961024.5004                 
                
  19562522.570   104572923.434                    81334514.045    19562528.004  
  19562521.988  
  21571064.422   113356760.585    21571071.969    88330005.0804   21571071.887  
                
  22656948.055   121326957.706                    94365418.492    22656951.258  
  22656947.582  
  20405606.344   109003113.026                    84780202.660    20405610.531  
  20405605.805  
  23718936.758   124643852.303    23718943.539    97125111.9294                 
                
  21025258.820   110488514.400    21025265.184    86095002.6384   21025265.125  
                
  23028268.602   122753653.713                                                  
  23028267.812  
  24737092.656   129994305.345    24737098.988   101294280.1754                 
                
  23863605.148   125404064.032    23863615.762    97717504.0544   23863616.156  
                
  23401306.445   122974715.484    23401316.438    95824507.2224   23401316.664  
                
  20345953.398   106918747.546    20345961.105    83313364.4144   20345960.930  
                
  24725614.430   129934011.449    24725624.656   101247326.5814   24725625.180  
                
  20599158.688   109921080.912                    85494171.545    20599161.660  
  20599156.512  
 21  8 15 17 34  0.0000000  0 14G16R 1G 4R 8R12G20G 7R10G 2G 6G30G 9
                                G 3R 2
  22460760.633   118032129.820    22460765.895    91973125.8624                 
                
  19564896.820   104585615.161                    81344385.380    19564902.242  
  19564896.219  
  21574756.461   113376162.307    21574764.016    88345123.3004   21574763.922  
                
  22663433.703   121361688.624                    94392431.413    22663437.020  
  22663433.297  
  20399823.289   108972221.033                    84756175.577    20399827.473  
  20399822.738  
  23713025.164   124612786.648    23713031.859    97100904.9254                 
                
  21022719.070   110475167.923    21022725.410    86084602.7924   21022725.352  
                
  23035949.469   122794596.998                                                  
  23035948.656  
  24738374.359   130001040.682    24738380.703   101299528.4674                 
                
  23868289.922   125428682.579    23868300.578    97736687.3124   23868300.973  
                
  23395666.422   122945077.322    23395676.465    95801412.5744   23395676.672  
                
  20345866.727   106918292.141    20345874.438    83313009.5544   20345874.270  
                
  24732924.367   129972425.128    24732934.535   101277259.3154   24732935.055  
                
  20593672.734   109891806.811                    85471402.794    20593675.699  
  20593670.562  
 21  8 15 17 34 10.0000000  0 14G16R 1G 4R 8R12G20G 7R10G 2G 6G30G 9
                                G 3R 2
  22463728.828   118047727.780    22463734.074    91985280.1154                 
                
  19567282.805   104598369.571                    81354305.494    19567288.219  
  19567282.188  
  21578454.055   113395593.221    21578461.629    88360264.2674   21578461.520  
                
  22669925.172   121396450.354                    94419468.313    22669928.574  
  22669924.797  
  20394051.477   108941389.094                    84732195.182    20394055.656  
  20394050.957  
  23707119.859   124581753.884    23707126.488    97076723.5624                 
                
  21020186.461   110461858.972    21020192.781    86074232.1914   21020192.711  
                
  23043633.859   122835559.258                                                  
  23043633.027  
  24739665.266   130007824.357    24739671.551   101304814.4754                 
                
  23872980.922   125453334.102    23872991.656    97755896.2814   23872992.043  
                
  23390030.648   122915461.398    23390040.746    95778335.2444   23390040.941  
                
  20345787.500   106917875.784    20345795.219    83312685.1274   20345795.051  
                
  24740235.711   130010846.059    24740245.777   101307197.6844   24740246.324  
                
  20588192.578   109862563.651                    85448658.117    20588195.543  
  20588190.422  
 21  8 15 17 34 20.0000000  0 14G16R 1G 4R 8R12G20G 7R10G 2G 6G30G 9
                                G 3R 2
  22466709.891   118063393.348    22466715.145    91997487.0554                 
                
  19569680.438   104611186.276                    81364274.022    19569685.820  
  19569679.820  
  21582157.164   113415053.128    21582164.766    88375427.8104   21582164.652  
                
  22676422.297   121431242.584                    94446528.917    22676425.848  
  22676421.953  
  20388290.844   108910616.895                    84708261.267    20388295.023  
  20388290.328  
  23701220.773   124550753.891    23701227.332    97052567.7444                 
                
  21017660.977   110448587.409    21017667.281    86063890.7174   21017667.211  
                
  23051321.680   122876539.929                                                  
  23051320.828  
  24740965.352   130014656.192    24740971.602   101310137.9854                 
                
  23877678.180   125478018.297    23877688.941    97775130.6914   23877689.336  
                
  23384399.055   122885867.465    23384409.199    95755275.0524   23384409.367  
                
  20345715.664   106917498.319    20345723.379    83312390.9934   20345723.219  
                
  24747548.273   130049273.915    24747558.355   101337141.4774   24747558.898  
                
  20582718.062   109833350.653                    85425936.915    20582721.027  
  20582715.910  
 21  8 15 17 34 30.0000000  0 14G16R 1G 4R 8R12G20G 7R10G 2G 6G30G 9
                                G 3R 2
  22469703.812   118079126.514    22469709.078    92009746.6884                 
                
  19572089.734   104624065.414                    81374291.125    19572095.086  
  19572089.094  
  21585865.805   113434542.096    21585873.445    88390614.0114   21585873.312  
                
  22682925.312   121466065.580                    94473613.455    22682928.883  
  22682924.906  
  20382541.461   108879904.756                    84684374.052    20382545.648  
  20382540.949  
  23695327.969   124519786.898    23695334.438    97028437.6214                 
                
  21015142.594   110435353.233    21015148.891    86053578.3834   21015148.812  
                
  23059012.977   122917539.151                                                  
  23059012.117  
  24742274.594   130021536.186    24742280.855   101315499.0134                 
                
  23882381.586   125502735.171    23882392.445    97794390.5594   23882392.871  
                
  23378771.695   122856295.704    23378781.883    95732232.1534   23378782.035  
                
  20345651.250   106917159.858    20345658.965    83312127.2604   20345658.801  
                
  24754862.133   130087708.750    24754872.266   101367090.6864   24754872.801  
                
  20577249.305   109804168.329                    85403239.552    20577252.246  
  20577247.156  
 21  8 15 17 34 40.0000000  0 14G16R 1G 4R 8R12G20G 7R10G 2G 6G30G 9
                                G 3R 2
  22472710.586   118094927.245    22472715.863    92022058.9464                 
                
  19574510.758   104637007.176                    81384356.941    19574516.090  
  19574510.105  
  21589579.969   113454060.107    21589587.613    88405822.8474   21589587.477  
                
  22689434.172   121500919.272                    94500721.862    22689437.590  
  22689433.617  
  20376803.336   108849252.777                    84660533.641    20376807.531  
  20376802.832  
  23689441.438   124488852.943    23689447.820    97004333.2464                 
                
  21012631.312   110422156.369    21012637.617    86043295.1204   21012637.523  
                
  23066707.820   122958557.020                                                  
  23066706.957  
  24743592.969   130028464.262    24743599.234   101320897.4844                 
                
  23887091.234   125527484.534    23887102.121    97813675.7564   23887102.555  
                
  23373148.578   122826746.136    23373158.809    95709206.5324   23373158.945  
                
  20345594.258   106916860.421    20345601.961    83311893.9334   20345601.809  
                
  24762177.312   130126150.465    24762187.508   101397045.2504   24762188.031  
                
  20571786.250   109775016.454                    85380565.884    20571789.176  
  20571784.113  
 21  8 15 17 34 50.0000000  0 14G16R 1G 4R 8R12G20G 7R10G 2G 6G30G 9
                                G 3R 2
  22475730.219   118110795.554    22475735.508    92034423.8694                 
                
  19576943.484   104650011.507                    81394471.415    19576948.781  
  19576942.816  
  21593299.680   113473607.256    21593307.324    88421054.3754   21593307.207  
                
  22695948.586   121535803.398                    94527853.952    22695951.996  
  22695947.953  
  20371076.477   108818660.973                    84636740.038    20371080.680  
  20371075.984  
  23683561.250   124457952.294    23683567.547    96980254.8094                 
                
  21010127.164   110408996.995    21010133.484    86033041.0764   21010133.383  
                
  23074406.133   122999593.170                                                  
  23074405.262  
  24744920.508   130035440.452    24744926.750   101326333.4854                 
                
  23891807.086   125552266.413    23891818.000    97832986.2884   23891818.426  
                
  23367529.711   122797218.886    23367540.008    95686198.3124   23367540.125  
                
  20345544.719   106916600.106    20345552.410    83311691.0924   20345552.277  
                
  24769493.789   130164599.043    24769504.066   101427005.1664   24769504.574  
                
  20566329.070   109745895.949                    85357916.603    20566331.980  
  20566326.973  
 21  8 15 17 35  0.0000000  0 14G16R 1G 4R 8R12G20G 7R10G 2G 6G30G 9
                                G 3R 2
  22478762.656   118126731.138    22478767.945    92046841.2264                 
                
  19579387.914   104663078.405                    81404634.553    19579393.191  
  19579387.219  
  21597024.922   113493183.435    21597032.590    88436308.5434   21597032.453  
                
  22702468.641   121570718.240                    94555009.931    22702472.102  
  22702468.016  
  20365360.938   108788129.672                    84612993.485    20365365.137  
  20365360.453  
  23677687.414   124427084.964    23677693.594    96956202.3444                 
                
  21007630.148   110395875.079    21007636.492    86022816.2144   21007636.375  
                
  23082107.875   123040647.361                                                  
  23082106.973  
  24746257.188   130042464.652    24746263.422   101331806.8984                 
                
  23896529.125   125577080.652    23896540.078    97852322.0344   23896540.492  
                
  23361915.117   122767713.936    23361925.469    95663207.4654   23361925.547  
                
  20345502.617   106916378.875    20345510.297    83311518.7094   20345510.184  
                
  24776811.609   130203054.351    24776821.898   101456970.3384   24776822.387  
                
  20560877.633   109716806.052                    85335291.140    20560880.539  
  20560875.535  
 21  8 15 17 35 10.0000000  0 14G16R 1G 4R 8R12G20G 7R10G 2G 6G30G 9
                                G 3R 2
  22481807.883   118142733.942    22481813.164    92059310.9484                 
                
  19581844.008   104676207.634                    81414846.183    19581849.270  
  19581843.277  
  21600755.648   113512788.484    21600763.324    88451585.1924   21600763.191  
                
  22708994.430   121605663.533                    94582189.598    22708997.875  
  22708993.770  
  20359656.680   108757658.610                    84589293.781    20359660.871  
  20359656.195  
  23671819.898   124396250.849    23671825.992    96932175.7534                 
                
  21005140.227   110382790.476    21005146.598    86012620.4234   21005146.457  
                
  23089812.914   123081719.517                                                  
  23089811.996  
  24747602.961   130049536.625    24747609.227   101337317.5354                 
                
  23901257.227   125601926.910    23901268.234    97871682.7334   23901268.637  
                
  23356304.719   122738231.106    23356315.121    95640233.8564   23356315.172  
                
  20345467.922   106916196.579    20345475.598    83311376.6594   20345475.492  
                
  24784130.625   130241516.123    24784140.984   101486940.5454   24784141.453  
                
  20555432.039   109687747.362                    85312689.954    20555434.922  
  20555429.941  
 21  8 15 17 35 20.0000000  0 14G16R 1G 4R 8R12G20G 7R10G 2G 6G30G 9
                                G 3R 2
  22484865.922   118158804.115    22484871.195    92071833.1754                 
                
  19584311.805   104689399.483                    81425106.494    19584317.035  
  19584311.023  
  21604491.930   113532422.694    21604499.605    88466884.5634   21604499.457  
                
  22715525.914   121640638.987                    94609392.733    22715529.281  
  22715525.172  
  20353963.758   108727248.096                    84565641.177    20353967.938  
  20353963.246  
  23665958.750   124365450.434    23665964.875    96908175.4554                 
                
  21002657.461   110369743.489    21002663.875    86002453.9494   21002663.719  
                
  23097521.305   123122809.662                                                  
  23097520.383  
  24748957.898   130056656.674    24748964.168   101342865.6144                 
                
  23905991.445   125626805.287    23906002.516    97891068.4614   23906002.879  
                
  23350698.625   122708770.792    23350709.066    95617277.7874   23350709.090  
                
  20345440.695   106916053.522    20345448.375    83311265.1934   20345448.262  
                
  24791451.039   130279984.600    24791461.367   101516915.9814   24791461.797  
                
  20549992.328   109658720.044                    85290113.147    20549995.199  
  20549990.242  
 21  8 15 17 35 30.0000000  0 14G16R 1G 4R 8R12G20G 7R10G 2G 6G30G 9
                                G 3R 2
  22487936.766   118174941.547    22487942.043    92084407.7894                 
                
  19586791.312   104702653.926                    81435415.515    19586796.531  
  19586790.504  
  21608233.703   113552085.853    21608241.398    88482206.4984   21608241.234  
                
  22722063.008   121675644.955                    94636619.595    22722066.391  
  22722062.258  
  20348282.156   108696898.081                    84542035.627    20348286.316  
  20348281.625  
  23660104.008   124334683.598    23660110.148    96884201.3174                 
                
  21000181.812   110356733.929    21000188.270    85992316.6444   21000188.086  
                
  23105233.055   123163917.517                                                  
  23105232.086  
  24750321.930   130063824.544    24750328.191   101348450.9804                 
                
  23910731.758   125651715.704    23910742.832    97910479.1524   23910743.195  
                
  23345096.758   122679332.772    23345107.230    95594339.0964   23345107.254  
                
  20345420.906   106915949.560    20345428.590    83311184.1814   20345428.473  
                
  24798772.602   130318459.507    24798782.957   101546896.4324   24798783.355  
                
  20544558.430   109629723.747                    85267560.475    20544561.312  
  20544556.359  
 21  8 15 17 35 40.0000000  0 14G16R 1G 4R 8R12G20G 7R10G 2G 6G30G 9
                                G 3R 2
  22491020.391   118191146.127    22491025.699    92097034.7514                 
                
  19589282.492   104715970.764                    81445773.038    19589287.703  
  19589281.664  
  21611981.008   113571778.026    21611988.703    88497551.0274   21611988.547  
                
  22728605.664   121710681.201                    94663869.990    22728609.164  
  22728604.953  
  20342611.961   108666608.972                    84518477.449    20342616.113  
  20342611.422  
  23654255.680   124303950.438    23654261.812    96860253.4054                 
                
  20997713.297   110343761.842    20997719.805    85982208.5324   20997719.613  
                
  23112948.156   123205043.051                                                  
  23112947.129  
  24751695.062   130071040.252    24751701.289   101354073.6104                 
                
  23915478.203   125676657.996    23915489.250    97929914.6954   23915489.605  
                
  23339499.156   122649917.183    23339509.656    95571417.8884   23339509.691  
                
  20345408.578   106915884.775    20345416.266    83311133.6964   20345416.152  
                
  24806095.383   130356940.827    24806105.754   101576881.8744   24806106.148  
                
  20539130.492   109600759.171                    85245032.489    20539133.387  
  20539128.406  
 21  8 15 17 35 50.0000000  0 14G16R 1G 4R 8R12G20G 7R10G 2G 6G30G 9
                                G 3R 2
  22494116.797   118207417.934    22494122.113    92109714.0914                 
                
  19591785.414   104729350.338                    81456179.363    19591790.648  
  19591784.586  
  21615733.828   113591499.237    21615741.547    88512918.1944   21615741.379  
                
  22735154.008   121745747.718                    94691143.923    22735157.562  
  22735153.344  
  20336953.164   108636380.722                    84494966.591    20336957.289  
  20336952.613  
  23648413.797   124273251.135    23648419.848    96836331.8664                 
                
  20995251.906   110330827.200    20995258.465    85972129.5994   20995258.270  
                
  23120666.500   123246186.341                                                  
  23120665.477  
  24753077.289   130078303.817    24753083.488   101359733.5344                 
                
  23920230.633   125701632.125    23920241.688    97949375.0264   23920242.039  
                
  23333905.859   122620524.143    23333916.355    95548514.2354   23333916.398  
                
  20345403.711   106915859.241    20345411.402    83311113.7974   20345411.297  
                
  24813419.320   130395428.536    24813429.789   101606872.2914   24813430.148  
                
  20533708.359   109571825.742                    85222528.716    20533711.281  
  20533706.301  
 21  8 15 17 36  0.0000000  0 14G16R 1G 4R 8R12G20G 7R10G 2G 6G30G 9
                                G 3R 2
  22497225.938   118223756.603    22497231.246    92122445.5244                 
                
  19594300.016   104742792.335                    81466634.252    19594305.254  
  19594299.191  
  21619492.148   113611249.339    21619499.887    88528307.8794   21619499.711  
                
  22741708.023   121780844.217                    94718441.216    22741711.551  
  22741707.332  
  20331305.734   108606213.290                    84471503.045    20331309.848  
  20331305.176  
  23642578.320   124242585.595    23642584.273    96812436.6484                 
                
  20992797.641   110317930.006    20992804.246    85962079.8504   20992804.043  
                
  23128388.109   123287346.915                                                  
  23128387.086  
  24754468.578   130085614.989    24754474.836   101365430.5604                 
                
  23924989.047   125726637.805    23925000.105    97968859.9554   23925000.488  
                
  23328316.773   122591153.465    23328327.238    95525628.0114   23328327.312  
                
  20345406.281   106915872.803    20345413.980    83311124.3654   20345413.867  
                
  24820744.461   130433922.416    24820755.000   101636867.5174   24820755.309  
                
  20528292.203   109542924.109                    85200049.685    20528295.133  
  20528290.137  
 21  8 15 17 36 10.0000000  0 14G16R 1G 4R 8R12G20G 7R10G 2G 6G30G 9
                                G 3R 2
  22500347.852   118240162.417    22500353.188    92135229.2594                 
                
  19596826.383   104756297.196                    81477138.015    19596831.629  
  19596825.578  
  21623256.023   113631028.633    21623263.793    88543720.3014   21623263.605  
                
  22748267.672   121815971.308                    94745762.298    22748271.281  
  22748267.031  
  20325669.750   108576106.941                    84448087.002    20325673.863  
  20325669.168  
  23636749.336   124211954.280    23636755.258    96788568.1084                 
                
  20990350.555   110305070.499    20990357.203    85952059.4664   20990356.984  
                
  23136113.039   123328524.861                                                  
  23136111.969  
  24755869.000   130092974.090    24755875.305   101371164.9314                 
                
  23929753.508   125751675.246    23929764.617    97988369.6304   23929764.996  
                
  23322732.055   122561805.542    23322742.430    95502759.5144   23322742.543  
                
  20345416.375   106915925.834    20345424.082    83311165.6844   20345423.969  
                
  24828070.836   130472422.686    24828081.422   101666867.7164   24828081.691  
                
  20522882.008   109514054.331                    85177595.424    20522884.934  
  20522879.910  
 21  8 15 17 36 20.0000000  0 14G16R 1G 4R 8R12G20G 7R10G 2G 6G30G 9
                                G 3R 2
  22503482.484   118256635.113    22503487.859    92148065.1314                 
                
  19599364.445   104769864.587                    81487690.434    19599369.695  
  19599363.656  
  21627025.406   113650836.817    21627033.203    88559155.2354   21627033.004  
                
  22754832.844   121851128.439                    94773106.715    22754836.633  
  22754832.309  
  20320045.188   108546061.655                    84424718.464    20320049.320  
  20320044.582  
  23630926.828   124181356.997    23630932.762    96764726.0794                 
                
  20987910.578   110292248.381    20987917.258    85942068.2164   20987917.020  
                
  23143841.117   123369719.778                                                  
  23143840.043  
  24757278.461   130100380.778    24757284.754   101376936.3684                 
                
  23934523.945   125776744.033    23934535.078    98007903.7374   23934535.449  
                
  23317151.586   122532480.110    23317161.906    95479908.5424   23317162.039  
                
  20345433.914   106916018.046    20345441.637    83311237.5424   20345441.520  
                
  24835398.297   130510928.995    24835409.016   101696872.6134   24835409.230  
                
  20517477.742   109485216.150                    85155165.741    20517480.664  
  20517475.637  
 21  8 15 17 36 30.0000000  0 14G16R 1G 4R 8R12G20G 7R10G 2G 6G30G 9
                                G 3R 2
  22506629.836   118273174.569    22506635.234    92160953.0284                 
                
  19601914.203   104783494.433                    81498291.426    19601919.445  
  19601913.418  
  21630800.297   113670673.951    21630808.102    88574612.7284   21630807.895  
                
  22761403.781   121886315.514                    94800474.428    22761407.613  
  22761403.273  
  20314432.055   108516077.427                    84401397.417    20314436.207  
  20314431.434  
  23625110.836   124150793.866    23625116.781    96740910.6704                 
                
  20985477.719   110279463.656    20985484.434    85932106.1124   20985484.184  
                
  23151572.484   123410931.943                                                  
  23151571.387  
  24758696.961   130107835.027    24758703.188   101382744.8824                 
