     2.11           OBSERVATION DATA    M (MIXED)           RINEX VERSION / TYPE
EFT-CORS.RU                             20210817 150548 UTC PGM / RUN BY / DATE 
MDNG                                                        MARKER NAME         
                                                            MARKER NUMBER       
MDNG                EFT-CORS.RU                             OBSERVER / AGENCY   
0                   TRIMBLE BD970       2.0                 REC # / TYPE / VERS 
0                   UNKNOWN EXT NONE                        ANT # / TYPE        
  3463911.2830  3030468.2400  4402179.3760                  APPROX POSITION XYZ 
        0.0000        0.0000        0.0000                  ANTENNA: DELTA H/E/N
     1     1                                                WAVELENGTH FACT L1/2
     6    C1    L1    P2    L2    C2    P1                  # / TYPES OF OBSERV 
    10.000                                                  INTERVAL            
  2021     8    14     4    30    0.0000000     GPS         TIME OF FIRST OBS   
  2021     8    14     5    30    0.0000000     GPS         TIME OF LAST OBS    
     0                                                      RCV CLOCK OFFS APPL 
                                                            END OF HEADER       
 21  8 14  4 30  0.0000000  0 16R 1R16R 8G20G29G18R15G 5G12R14G31G 2
                                R24R18R17G25
  22997813.445   122936496.686                    95617292.037    22997820.246  
  22997812.801  
  22536144.461   120384044.048                    93632057.888    22536147.316  
  22536143.969  
  23508780.422   125888450.572                    97913231.272    23508784.492  
  23508779.973  
  22110419.648   116191043.839    22110426.609    90538504.7974                 
                
  20689335.133   108723192.199    20689341.781    84719400.2404   20689341.938  
                
  23102654.648   121405263.590    23102662.035    94601542.4594   23102662.113  
                
  19509491.812   104252799.404                    81085507.012    19509496.316  
  19509492.051  
  22224852.703   116792391.147    22224860.262    91007096.8624   22224860.227  
                
  22132438.047   116306738.477    22132445.273    90628658.0464   22132445.406  
                
  21151893.250   112751478.759                    87695587.758    21151897.969  
  21151892.910  
  22949605.922   120600983.486    22949612.934    93974811.9554   22949613.141  
                
  23604695.844   124043498.240    23604701.105    96657290.2424                 
                
  20999894.180   112295868.034                    87341231.163    20999899.070  
  20999893.570  
  22081187.688   117870870.803                    91677344.012    22081191.867  
  22081186.145  
  19408929.953   103861099.084                    80780851.035    19408933.676  
  19408928.270  
  20359525.016   106990016.659    20359534.730    83368885.0504   20359535.109  
                
 21  8 14  4 30 10.0000000  0 16R 1R16R 8G20G29G18R15G 5G12R14G31G 2
                                R24R18R17G25
  22993784.805   122914961.117                    95600542.162    22993791.535  
  22993784.168  
  22529315.422   120347564.493                    93603684.904    22529318.285  
  22529314.918  
  23509630.023   125893000.085                    97916769.758    23509634.086  
  23509629.520  
  22110526.039   116191602.969    22110532.988    90538940.4824                 
                
  20687638.258   108714275.038    20687644.926    84712451.8054   20687645.055  
                
  23096315.148   121371949.176    23096322.520    94575583.1794   23096322.613  
                
  19509582.664   104253284.898                    81085884.622    19509587.168  
  19509582.898  
  22220511.672   116769579.022    22220519.191    90989321.1814   22220519.191  
                
  22138191.062   116336970.749    22138198.340    90652215.6464   22138198.453  
                
  21158995.469   112789337.517                    87725033.452    21159000.176  
  21158995.117  
  22949772.188   120601857.255    22949779.227    93975492.8114   22949779.438  
                
  23610100.203   124071898.386    23610105.477    96679420.2004                 
                
  21005171.461   112324087.952                    87363179.978    21005176.332  
  21005170.859  
  22075746.602   117841826.036                    91654753.661    22075750.836  
  22075745.043  
  19408381.562   103858164.519                    80778568.578    19408385.281  
  19408379.883  
  20362182.039   107003979.386    20362191.727    83379765.0844   20362192.109  
                
 21  8 14  4 30 20.0000000  0 16R 1R16R 8G20G29G18R15G 5G12R14G31G 2
                                R24R18R17G25
  22989768.102   122893489.447                    95583842.019    22989774.832  
  22989767.469  
  22522494.398   120311127.765                    93575345.238    22522497.234  
  22522493.902  
  23510494.914   125897631.511                    97920371.994    23510498.992  
  23510494.426  
  22110644.641   116192226.230    22110651.543    90539426.1334                 
                
  20685947.453   108705389.777    20685954.148    84705528.2244   20685954.262  
                
  23089980.367   121338659.688    23089987.773    94549643.3354   23089987.844  
                
  19509690.523   104253861.247                    81086332.884    19509695.023  
  19509690.750  
  22216180.203   116746817.108    22216187.688    90971584.6364   22216187.719  
                
  22143950.695   116367237.805    22143958.031    90675800.3514   22143958.133  
                
  21166106.594   112827243.755                    87754516.069    21166111.309  
  21166106.238  
  22949950.523   120602794.460    22949957.602    93976223.0844   22949957.797  
                
  23615507.133   124100312.027    23615512.379    96701560.6934                 
                
  21010452.648   112352328.690                    87385144.992    21010457.512  
  21010452.039  
  22070311.523   117812813.306                    91632188.226    22070315.797  
  22070309.961  
  19407842.531   103855280.031                    80776325.096    19407846.258  
  19407840.863  
  20364849.859   107017998.803    20364859.523    83390689.3014   20364859.914  
                
 21  8 14  4 30 30.0000000  0 16R 1R16R 8G20G29G18R15G 5G12R14G31G 2
                                R24R18R17G25
  22985763.328   122872081.545                    95567191.455    22985770.051  
  22985762.695  
  22515681.414   120274734.071                    93547039.035    22515684.223  
  22515680.930  
  23511375.156   125902345.170                    97924038.182    23511379.230  
  23511374.656  
  22110775.484   116192913.805    22110782.355    90539961.9134                 
                
  20684262.727   108696536.493    20684269.441    84698629.5664   20684269.547  
                
  23083650.336   121305395.319    23083657.770    94523723.0544   23083657.828  
                
  19509815.375   104254528.384                    81086851.765    19509819.859  
  19509815.602  
  22211858.336   116724105.617    22211865.820    90953887.3604   22211865.867  
                
  22149716.953   116397539.706    22149724.320    90699412.2144   22149724.422  
                
  21173226.617   112865197.363                    87784035.518    21173231.324  
  21173226.258  
  22950140.953   120603795.170    22950148.031    93977002.8514   22950148.238  
                
  23620916.641   124128739.195    23620921.840    96723711.7324                 
                
  21015737.781   112380590.555                    87407126.434    21015742.621  
  21015737.164  
  22064882.469   117783832.715                    91609647.767    22064886.777  
  22064880.891  
  19407312.867   103852445.661                    80774120.581    19407316.586  
  19407311.207  
  20367528.469   107032074.969    20367538.105    83401657.7324   20367538.504  
                
 21  8 14  4 30 40.0000000  0 16R 1R16R 8G20G29G18R15G 5G12R14G31G 2
                                R24R18R17G25
  22981770.508   122850737.682                    95550590.672    22981777.203  
  22981769.895  
  22508876.531   120238383.616                    93518766.461    22508879.332  
  22508876.016  
  23512270.672   125907140.563                    97927767.907    23512274.727  
  23512270.191  
  22110918.492   116193665.313    22110925.367    90540547.5044                 
                
  20682584.070   108687715.053    20682590.789    84691755.7124   20682590.898  
                
  23077325.008   121272155.962    23077332.512    94497822.2594   23077332.586  
                
  19509957.195   104255286.230                    81087441.200    19509961.680  
  19509957.434  
  22207546.031   116701444.401    22207553.520    90936229.2714   22207553.574  
                
  22155489.805   116427876.303    22155497.195    90723051.1034   22155497.305  
                
  21180355.477   112903198.089                    87813591.635    21180360.184  
  21180355.129  
  22950343.445   120604859.325    22950350.496    93977832.0594   22950350.746  
                
  23626328.688   124157179.689    23626333.848    96745873.1524                 
                
  21021026.820   112408873.310                    87429124.122    21021031.652  
  21021026.176  
  22059459.414   117754884.216                    91587132.261    22059463.777  
  22059457.816  
  19406792.531   103849661.269                    80771954.950    19406796.250  
  19406790.863  
  20370217.852   107046207.749    20370227.457    83412670.2884   20370227.863  
                
 21  8 14  4 30 50.0000000  0 16R 1R16R 8G20G29G18R15G 5G12R14G31G 2
                                R24R18R17G25
  22977789.609   122829457.519                    95534039.440    22977796.242  
  22977788.977  
  22502079.648   120202076.080                    93490527.283    22502082.477  
  22502079.145  
  23513181.477   125912017.824                    97931561.331    23513185.496  
  23513181.039  
  22111073.609   116194480.443    22111080.488    90541182.6674                 
                
  20680911.414   108678925.183    20680918.117    84684906.4594   20680918.227  
                
  23071004.445   121238941.361    23071011.977    94471940.7594   23071012.070  
                
  19510115.953   104256134.538                    81088100.986    19510120.434  
  19510116.195  
  22203243.266   116678833.294    22203250.730    90918610.2264   22203250.781  
                
  22161269.180   116458247.151    22161276.598    90746716.6884   22161276.695  
                
  21187493.078   112941245.474                    87843184.038    21187497.820  
  21187492.738  
  22950557.953   120605986.582    22950564.965    93978710.4364   22950565.254  
                
  23631743.203   124185633.103    23631748.348    96768044.6344                 
                
  21026319.672   112437176.449                    87451137.665    21026324.484  
  21026319.000  
  22054042.297   117725967.474                    91564641.471    22054046.711  
  22054040.738  
  19406281.477   103846926.496                    80769827.908    19406285.199  
  19406279.797  
  20372917.938   107060396.745    20372927.508    83423726.6454   20372927.934  
                
 21  8 14  4 31  0.0000000  0 16R 1R16R 8G20G29G18R15G 5G12R14G31G 2
                                R24R18R17G25
  22973820.703   122808241.681                    95517538.263    22973827.297  
  22973820.066  
  22495290.953   120165812.160                    93462322.054    22495293.762  
  22495290.438  
  23514107.586   125916976.995                    97935418.448    23514111.551  
  23514107.184  
  22111240.938   116195359.702    22111247.816    90541867.7974                 
                
  20679244.859   108670167.345    20679251.547    84678082.1674   20679251.688  
                
  23064688.711   121205751.992    23064696.270    94446078.9274   23064696.352  
                
  19510291.727   104257073.778                    81088831.494    19510296.203  
  19510291.969  
  22198950.156   116656272.928    22198957.645    90901030.7144   22198957.695  
                
  22167055.141   116488652.635    22167062.582    90770409.2594   22167062.688  
                
  21194639.492   112979339.842                    87872812.978    21194644.273  
  21194639.176  
  22950784.531   120607177.247    22950791.520    93979638.2264   22950791.820  
                
  23637160.242   124214099.815    23637165.391    96790226.4834                 
                
  21031616.344   112465500.118                    87473167.180    21031621.148  
  21031615.660  
  22048631.234   117697082.852                    91542175.673    22048635.664  
  22048629.723  
  19405779.750   103844241.633                    80767739.683    19405783.469  
  19405778.062  
  20375628.797   107074642.403    20375638.324    83434827.1544   20375638.781  
                
 21  8 14  4 31 10.0000000  0 16R 1R16R 8G20G29G18R15G 5G12R14G31G 2
                                R24R18R17G25
  22969863.820   122787089.903                    95501086.915    22969870.355  
  22969863.176  
  22488510.406   120129591.796                    93434150.661    22488513.207  
  22488509.895  
  23515048.969   125922017.970                    97939339.222    23515052.902  
  23515048.574  
  22111420.391   116196302.723    22111427.262    90542602.6204                 
                
  20677584.328   108661441.183    20677591.004    84671282.5614   20677591.145  
                
  23058377.750   121172587.615    23058385.348    94420236.5614   23058385.410  
                
  19510484.438   104258103.558                    81089632.434    19510488.926  
  19510484.695  
  22194666.633   116633762.939    22194674.188    90883490.4644   22194674.227  
                
  22172847.633   116519092.397    22172855.078    90794128.5394   22172855.199  
                
  21201794.617   113017480.638                    87902478.012    21201799.430  
  21201794.289  
  22951023.125   120608431.064    22951030.098    93980615.2244   22951030.406  
                
  23642579.727   124242579.424    23642584.902    96812418.3664                 
                
  21036916.828   112493844.127                    87495212.521    21036921.637  
  21036916.133  
  22043226.164   117668230.182                    91519734.714    22043230.551  
  22043224.625  
  19405287.289   103841606.357                    80765690.014    19405290.980  
  19405285.586  
  20378350.367   107088944.333    20378359.859    83445971.5084   20378360.336  
                
 21  8 14  4 31 20.0000000  0 16R 1R16R 8G20G29G18R15G 5G12R14G31G 2
                                R24R18R17G25
  22965918.969   122766002.599                    95484685.713    22965925.488  
  22965918.320  
  22481738.078   120093415.090                    93406013.226    22481740.832  
  22481737.555  
  23516005.617   125927140.742                    97943323.580    23516009.559  
  23516005.234  
  22111612.008   116197309.683    22111618.887    90543387.2704                 
                
  20675929.852   108652746.852    20675936.516    84664507.7614   20675936.660  
                
  23052071.570   121139448.433    23052079.230    94394413.8334   23052079.281  
                
  19510694.117   104259223.978                    81090503.863    19510698.602  
  19510694.391  
  22190392.734   116611303.474    22190400.352    90865989.5874   22190400.359  
                
  22178646.664   116549566.497    22178654.113    90817874.5874   22178654.250  
                
  21208958.484   113055667.973                    87932179.264    21208963.332  
  21208958.145  
  22951273.750   120609748.088    22951280.715    93981641.4834   22951281.039  
                
  23648001.703   124271072.032    23648006.918    96834620.3914                 
                
  21042221.133   112522208.607                    87517273.772    21042225.941  
  21042220.422  
  22037827.047   117639409.435                    91497318.565    22037831.422  
  22037825.516  
  19404804.117   103839020.759                    80763678.987    19404807.805  
  19404802.406  
  20381082.688   107103302.722    20381092.156    83457159.8604   20381092.641  
                
 21  8 14  4 31 30.0000000  0 16R 1R16R 8G20G29G18R15G 5G12R14G31G 2
                                R24R18R17G25
  22961986.188   122744979.806                    95468334.655    22961992.680  
  22961985.539  
  22474973.875   120057281.978                    93377909.695    22474976.621  
  22474973.414  
  23516977.531   125932345.256                    97947371.530    23516981.496  
  23516977.180  
  22111815.805   116198380.638    22111822.688    90544221.7734                 
                
  20674281.445   108644084.395    20674288.098    84657757.7944   20674288.250  
                
  23045770.195   121106334.478    23045777.898    94368610.7654   23045777.945  
                
  19510920.781   104260435.167                    81091445.898    19510925.273  
  19510921.055  
  22186128.492   116588894.788    22186136.152    90848528.2704   22186136.133  
                
  22184452.234   116580074.940    22184459.699    90841647.3904   22184459.824  
                
  21216131.031   113093901.595                    87961916.498    21216135.906  
  21216130.695  
  22951536.414   120611128.375    22951543.383    93982717.0234   22951543.723  
                
  23653426.125   124299577.551    23653431.344    96856832.4664                 
                
  21047529.234   112550593.356                    87539350.792    21047534.055  
  21047528.531  
  22032434.000   117610620.852                    91474927.424    22032438.348  
  22032432.477  
  19404330.219   103836484.838                    80761706.614    19404333.902  
  19404328.516  
  20383825.727   107117717.489    20383835.184    83468392.1384   20383835.672  
                
 21  8 14  4 31 40.0000000  0 16R 1R16R 8G20G29G18R15G 5G12R14G31G 2
                                R24R18R17G25
  22958065.500   122724021.501                    95452033.783    22958071.980  
  22958064.828  
  22468217.898   120021192.844                    93349840.347    22468220.652  
  22468217.453  
  23517964.727   125937631.514                    97951483.061    23517968.703  
  23517964.371  
  22112031.758   116199515.454    22112038.621    90545106.0464                 
                
  20672639.086   108635453.705    20672645.727    84651032.5824   20672645.871  
                
  23039473.703   121073245.739    23039481.320    94342827.3294   23039481.391  
                
  19511164.422   104261737.067                    81092458.475    19511168.910  
  19511164.695  
  22181873.906   116566536.874    22181881.570    90831106.5284   22181881.555  
                
  22190264.289   116610617.489    22190271.770    90865446.7614   22190271.879  
                
  21223312.242   113132181.332                    87991689.612    21223317.117  
  21223311.895  
  22951811.086   120612571.747    22951818.078    93983841.7294   22951818.414  
                
  23658853.000   124328095.912    23658858.195    96879054.5524                 
                
  21052841.094   112578998.213                    87561443.438    21052845.934  
  21052840.398  
  22027046.906   117581864.119                    91452561.106    22027051.234  
  22027045.398  
  19403865.578   103833998.411                    80759772.719    19403869.270  
  19403863.867  
  20386579.477   107132188.501    20386588.930    83479668.2474   20386589.426  
                
 21  8 14  4 31 50.0000000  0 16R 1R16R 8G20G29G18R15G 5G12R14G31G 2
                                R24R18R17G25
  22954156.930   122703128.081                    95435783.394    22954163.402  
  22954156.227  
  22461470.164   119985147.781                    93321805.315    22461472.930  
  22461469.707  
  23518967.188   125942999.493                    97955658.119    23518971.168  
  23518966.844  
  22112259.883   116200714.257    22112266.723    90546040.1814                 
                
  20671002.766   108626854.805    20671009.391    84644332.1374   20671009.539  
                
  23033182.008   121040182.323    23033189.586    94317063.6394   23033189.652  
                
  19511425.016   104263129.626                    81093541.574    19511429.516  
  19511425.293  
  22177629.016   116544229.864    22177636.668    90813724.4464   22177636.680  
                
  22196082.844   116641194.231    22196090.301    90889272.7924   22196090.410  
                
  21230502.094   113170507.146                    88021498.587    21230506.934  
  21230501.730  
  22952097.766   120614078.268    22952104.793    93985015.6294   22952105.102  
                
  23664282.281   124356626.970    23664287.477    96901286.5364                 
                
  21058156.711   112607423.192                    87583551.750    21058161.566  
  21058156.008  
  22021665.852   117553139.515                    91430219.746    22021670.129  
  22021664.309  
  19403410.172   103831561.509                    80757877.357    19403413.867  
  19403408.461  
  20389343.938   107146715.829    20389353.387    83490988.2364   20389353.883  
                
 21  8 14  4 32  0.0000000  0 16R 1R16R 8G20G29G18R15G 5G12R14G31G 2
                                R24R18R17G25
  22950260.492   122682299.359                    95419583.264    22950266.910  
  22950259.781  
  22454730.727   119949146.940                    93293804.672    22454733.500  
  22454730.234  
  23519984.914   125948449.283                    97959896.856    23519988.914  
  23519984.598  
  22112500.180   116201977.010    22112507.012    90547024.1474                 
                
  20669372.508   108618287.733    20669379.109    84637656.4914   20669379.262  
                
  23026895.133   121007144.293    23026902.699    94291319.7244   23026902.758  
                
  19511702.609   104264612.966                    81094695.280    19511707.117  
  19511702.891  
  22173393.828   116521973.863    22173401.520    90796382.1094   22173401.512  
                
  22201907.906   116671805.074    22201915.293    90913125.3904   22201915.438  
                
  21237700.547   113208878.915                    88051343.293    21237705.375  
  21237700.176  
  22952396.453   120615647.876    22952403.496    93986238.6954   22952403.812  
                
  23669713.969   124385170.640    23669719.180    96923528.3504                 
                
  21063476.086   112635868.226                    87605675.667    21063480.949  
  21063475.391  
  22016290.789   117524447.041                    91407903.370    22016295.035  
  22016289.230  
  19402964.039   103829174.110                    80756020.488    19402967.742  
  19402962.316  
  20392119.102   107161299.398    20392128.547    83502352.0494   20392129.043  
                
 21  8 14  4 32 10.0000000  0 16R 1R16R 8G20G29G18R15G 5G12R14G31G 2
                                R24R18R17G25
  22946376.258   122661535.835                    95403433.891    22946382.617  
  22946375.562  
  22447999.625   119913190.687                    93265838.716    22448002.422  
  22447999.121  
  23521017.898   125953980.929                    97964199.222    23521021.906  
  23521017.547  
  22112752.680   116203303.876    22112759.523    90548058.0714                 
                
  20667748.344   108609752.687    20667754.930    84631005.8104   20667755.094  
                
  23020613.102   120974131.874    23020620.645    94265595.7684   23020620.707  
                
  19511997.219   104266187.231                    81095919.700    19512001.715  
  19511997.516  
  22169168.391   116499769.087    22169176.133    90779079.6944   22169176.098  
                
  22207739.461   116702450.100    22207746.805    90937004.6214   22207746.973  
                
  21244907.578   113247296.568                    88081223.686    21244912.398  
  21244907.199  
  22952707.188   120617280.781    22952714.227    93987511.0774   22952714.562  
                
  23675148.078   124413727.081    23675153.273    96945780.0994                 
                
  21068799.203   112664333.301                    87627815.160    21068804.070  
  21068798.484  
  22010921.781   117495786.961                    91385612.187    22010926.051  
  22010920.219  
  19402527.172   103826836.366                    80754202.247    19402530.891  
  19402525.453  
  20394905.000   107175939.391    20394914.445    83513759.8294   20394914.945  
                
 21  8 14  4 32 20.0000000  0 17G26R 1R16R 8G20G29G18R15G 5G12R14G31
                                G 2R24R18R17G25
  24536482.570   128940071.479    24536492.820   100472834.9064   24536493.145  
                
  22942504.188   122640837.453                    95387335.164    22942510.469  
  22942503.516  
  22441276.859   119877278.932                    93237907.361    22441279.621  
  22441276.352  
  23522066.133   125959594.164                    97968565.075    23522070.141  
  23522065.789  
  22113017.328   116204694.611    22113024.188    90549141.7604                 
                
  20666130.234   108601249.493    20666136.805    84624379.9454   20666136.980  
                
  23014335.883   120941144.875    23014343.430    94239891.6194   23014343.492  
                
  19512308.797   104267852.207                    81097214.684    19512313.285  
  19512309.094  
  22164952.711   116477615.573    22164960.453    90761817.2094   22164960.422  
                
  22213577.469   116733129.028    22213584.777    90960910.2644   22213584.965  
                
  21252123.188   113285759.875                    88111139.577    21252128.012  
  21252122.793  
  22953029.922   120618976.741    22953036.957    93988832.5974   22953037.316  
                
  23680584.555   124442295.996    23680589.707    96968041.5894                 
                
  21074126.031   112692818.257                    87649970.115    21074130.910  
  21074125.312  
  22005558.711   117467158.684                    91363345.775    22005563.023  
  22005557.160  
  19402099.523   103824547.923                    80752422.342    19402103.234  
  19402097.809  
  20397701.586   107190635.541    20397711.035    83525211.3694   20397711.543  
                
 21  8 14  4 32 30.0000000  0 17G26R 1R16R 8G20G29G18R15G 5G12R14G31
                                G 2R24R18R17G25
  24529964.156   128905816.831    24529974.383   100446142.9544   24529974.621  
                
  22938644.070   122620202.989                    95371286.136    22938650.348  
  22938643.395  
  22434562.164   119841410.324                    93210009.571    22434564.930  
  22434561.629  
  23523129.359   125965287.707                    97972993.385    23523133.363  
  23523128.984  
  22113293.898   116206147.998    22113300.789    90550274.2704                 
                
  20664517.945   108592776.808    20664524.504    84617777.8484   20664524.688  
                
  23008063.281   120908182.119    23008070.836    94214206.3624   23008070.910  
                
  19512637.117   104269606.618                    81098579.223    19512641.590  
  19512637.395  
  22160746.531   116455512.000    22160754.238    90744593.6454   22160754.230  
                
  22219421.703   116763840.654    22219428.961    90984841.3934   22219429.172  
                
  21259347.047   113324267.193                    88141089.685    21259351.879  
  21259346.633  
  22953364.406   120620734.474    22953371.461    93990202.2634   22953371.828  
                
  23686023.172   124470876.082    23686028.285    96990311.7834                 
                
  21079456.289   112721321.494                    87672139.295    21079461.160  
  21079455.578  
  22000201.461   117438561.383                    91341103.411    22000205.801  
  22000199.898  
  19401680.852   103822307.473                    80750679.775    19401684.566  
  19401679.125  
  20400508.609   107205386.531    20400518.055    83536705.6434   20400518.562  
                
 21  8 14  4 32 40.0000000  0 17G26R 1R16R 8G20G29G18R15G 5G12R14G31
                                G 2R24R18R17G25
  24523448.242   128871575.759    24523458.508   100419461.5864   24523458.641  
                
  22934796.422   122599635.180                    95355288.965    22934802.699  
  22934795.766  
  22427856.133   119805587.893                    93182147.674    22427858.867  
  22427855.582  
  23524208.117   125971064.391                    97977486.343    23524212.125  
  23524207.711  
  22113582.906   116207666.694    22113589.816    90551457.6624                 
                
  20662911.953   108584337.302    20662918.508    84611201.6104   20662918.703  
                
  23001795.758   120875246.236    23001803.355    94188542.0494   23001803.410  
                
  19512982.656   104271453.085                    81100015.356    19512987.141  
  19512982.926  
  22156550.406   116433461.194    22156558.082    90727411.1944   22156558.098  
                
  22225272.602   116794587.299    22225279.797    91008799.8144   22225280.039  
                
  21266579.711   113362821.237                    88171076.141    21266584.551  
  21266579.289  
  22953711.156   120622556.575    22953718.250    93991622.0724   22953718.613  
                
  23691464.391   124499469.825    23691469.449    97012592.6044                 
                
  21084790.508   112749845.880                    87694324.919    21084795.363  
  21084789.805  
  21994850.484   117409997.463                    91318887.035    21994854.836  
  21994848.902  
  19401271.633   103820117.624                    80748976.559    19401275.332  
  19401269.906  
  20403326.562   107220194.974    20403336.004    83548244.6844   20403336.520  
                
 21  8 14  4 32 50.0000000  0 17G26R 1R16R 8G20G29G18R15G 5G12R14G31
                                G 2R24R18R17G25
  24516934.766   128837347.394    24516945.055   100392790.1284   24516945.117  
                
  22930961.086   122579133.139                    95339342.941    22930967.348  
  22930960.449  
  22421158.570   119769810.777                    93154321.046    22421161.297  
  22421158.035  
  23525302.141   125976922.868                    97982042.939    23525306.133  
  23525301.707  
  22113884.125   116209249.588    22113891.055    90552691.0914                 
                
  20661312.094   108575929.945    20661318.652    84604650.4214   20661318.848  
                
  22995533.172   120842336.330    22995540.789    94162897.9704   22995540.836  
                
  19513345.234   104273390.575                    81101522.283    19513349.715  
  19513345.496  
  22152364.148   116411462.256    22152371.812    90710269.1714   22152371.836  
                
  22231129.969   116825367.930    22231137.117    91032784.7084   22231137.387  
                
  21273820.898   113401420.763                    88201097.982    21273825.758  
  21273820.520  
  22954069.922   120624441.930    22954077.051    93993091.1784   22954077.406  
                
  23696908.016   124528076.206    23696913.031    97034883.2834                 
                
  21090128.469   112778390.280                    87716526.121    21090133.297  
  21090127.742  
  21989505.562   117381465.997                    91296695.923    21989509.934  
  21989503.977  
  19400871.648   103817977.241                    80747311.819    19400875.344  
  19400869.934  
  20406155.258   107235059.825    20406164.691    83559827.6764   20406165.223  
                
 21  8 14  4 33  0.0000000  0 17G26R 1R16R 8G20G29G18R15G 5G12R14G31
                                G 2R24R18R17G25
  24510423.656   128803131.461    24510434.016   100366128.3704   24510434.043  
                
  22927138.023   122558696.826                    95323448.044    22927144.340  
  22927137.375  
  22414469.422   119734078.613                    93126529.370    22414472.121  
  22414468.875  
  23526411.398   125982862.876                    97986662.946    23526415.359  
  23526410.926  
  22114197.492   116210896.356    22114204.438    90553974.2914                 
                
  20659718.266   108567554.350    20659724.828    84598123.9864   20659725.023  
                
  22989275.469   120809452.088    22989283.086    94137273.8964   22989283.113  
                
  19513724.797   104275418.835                    81103099.812    19513729.277  
  19513725.047  
  22148187.695   116389514.866    22148195.340    90693167.3014   22148195.367  
                
  22236993.711   116856182.148    22237000.844    91056795.7834   22237001.129  
                
  21281070.547   113440065.294                    88231154.836    21281075.422  
  21281070.195  
  22954440.672   120626390.222    22954447.793    93994609.3154   22954448.156  
                
  23702353.953   124556694.819    23702358.941    97057183.4814                 
                
  21095470.031   112806953.969                    87738742.317    21095474.855  
  21095469.297  
  21984166.680   117352966.745                    91274529.838    21984171.082  
  21984165.121  
  19400480.906   103815886.256                    80745685.488    19400484.586  
  19400479.195  
  20408994.609   107249980.725    20409004.039    83571454.3474   20409004.586  
                
 21  8 14  4 33 10.0000000  0 17G26R 1R16R 8G20G29G18R15G 5G12R14G31
                                G 2R24R18R17G25
  24503914.930   128768928.095    24503925.355   100339476.3984   24503925.328  
                
  22923327.258   122538326.238                    95307604.281    22923333.613  
  22923326.613  
  22407788.797   119698392.029                    93098773.142    22407791.477  
  22407788.238  
  23527535.906   125988884.561                    97991346.458    23527539.848  
  23527535.391  
  22114523.039   116212607.098    22114529.980    90555307.3344                 
                
  20658130.516   108559210.666    20658137.078    84591622.4134   20658137.281  
                
  22983022.695   120776593.691    22983030.277    94111669.9534   22983030.312  
                
  19514121.367   104277537.994                    81104748.038    19514125.840  
  19514121.609  
  22144021.109   116367619.305    22144028.746    90676105.8354   22144028.789  
                
  22242863.891   116887030.094    22242871.062    91080833.1344   22242871.324  
                
  21288328.625   113478754.775                    88261246.657    21288333.480  
  21288328.293  
  22954823.406   120628401.468    22954830.477    93996176.5154   22954830.887  
                
  23707802.219   124585325.678    23707807.160    97079493.2324                 
                
  21100815.297   112835537.449                    87760973.901    21100820.102  
  21100814.570  
  21978833.859   117324499.817                    91252388.892    21978838.273  
  21978832.320  
  19400099.344   103813844.417                    80744097.394    19400103.027  
  19400097.641  
  20411844.648   107264957.749    20411854.086    83583124.7484   20411854.641  
                
 21  8 14  4 33 20.0000000  0 17G26R 1R16R 8G20G29G18R15G 5G12R14G31
                                G 2R24R18R17G25
  24497408.664   128734737.585    24497419.078   100312834.4364   24497419.066  
                
  22919528.852   122518021.779                    95291811.940    22919535.270  
  22919528.191  
  22401116.703   119662750.850                    93071052.226    22401119.363  
  22401116.102  
  23528675.695   125994988.065                    97996093.634    23528679.645  
  23528675.203  
  22114860.789   116214381.974    22114867.727    90556690.3494                 
                
  20656548.875   108550899.106    20656555.441    84585145.8804   20656555.641  
                
  22976774.883   120743761.358    22976782.453    94086086.3134   22976782.465  
                
  19514534.969   104279748.164                    81106467.053    19514539.438  
  19514535.215  
  22139864.430   116345775.780    22139872.086    90659084.9184   22139872.129  
                
  22248740.492   116917911.836    22248747.715    91104896.8144   22248747.934  
                
  21295595.148   113517489.231                    88291373.439    21295599.965  
  21295594.812  
  22955218.148   120630475.827    22955225.176    93997792.8914   22955225.625  
                
  23713252.844   124613968.868    23713257.730    97101812.5954                 
                
  21106164.188   112864140.360                    87783220.605    21106168.992  
  21106163.457  
  21973507.125   117296065.345                    91230273.202    21973511.527  
  21973505.574  
  19399726.984   103811851.818                    80742547.595    19399730.652  
  19399725.281  
  20414705.383   107279990.990    20414714.832    83594838.9604   20414715.391  
                
 21  8 14  4 33 30.0000000  0 17G26R 1R16R 8G20G29G18R15G 5G12R14G31
                                G 2R24R18R17G25
  24490904.781   128700559.612    24490915.234   100286202.2894   24490915.230  
                
  22915742.773   122497783.171                    95276070.812    22915749.227  
  22915742.055  
  22394453.125   119627155.015                    93043366.581    22394455.734  
  22394452.484  
  23529830.664   126001172.854                    98000904.001    23529834.617  
  23529830.129  
  22115210.680   116216220.647    22115217.602    90558123.0764                 
                
  20654973.281   108542619.290    20654979.844    84578694.0684   20654980.055  
                
  22970531.961   120710954.762    22970539.586    94060522.7484   22970539.582  
                
  19514965.547   104282048.994                    81108256.583    19514970.000  
  19514965.785  
  22135717.602   116323984.050    22135725.281    90642104.3444   22135725.312  
                
  22254623.453   116948826.984    22254630.695    91128986.5224   22254630.898  
                
  21302870.023   113556268.206                    88321534.849    21302874.832  
  21302869.691  
  22955624.828   120632612.871    22955631.836    93999458.1034   22955632.285  
                
  23718705.734   124642623.986    23718710.578    97124141.2424                 
                
  21111516.664   112892762.403                    87805482.179    21111521.473  
  21111515.914  
  21968186.422   117267663.022                    91208182.529    21968190.805  
  21968184.855  
  19399363.758   103809908.099                    80741035.820    19399367.410  
  19399362.062  
  20417576.758   107295080.113    20417586.227    83606596.7104   20417586.781  
                
 21  8 14  4 33 40.0000000  0 17G26R 1R16R 8G20G29G18R15G 5G12R14G31
                                G 2R24R18R17G25
  24484403.359   128666394.551    24484413.828   100259580.1604   24484413.816  
                
  22911969.102   122477610.892                    95260381.287    22911975.559  
  22911968.363  
  22387798.078   119591604.897                    93015716.483    22387800.656  
  22387797.422  
  23531000.891   126007439.406                    98005777.998    23531004.891  
  23531000.320  
  22115572.750   116218123.356    22115579.664    90559605.7164                 
                
  20653403.773   108534371.466    20653410.344    84572267.1934   20653410.551  
                
  22964294.047   120678174.240    22964301.684    94034979.4934   22964301.672  
                
  19515413.148   104284440.848                    81110116.918    19515417.602  
  19515413.383  
  22131580.695   116302244.483    22131588.383    90625164.4154   22131588.414  
                
  22260512.797   116979775.696    22260520.043    91153102.3964   22260520.262  
                
  21310153.234   113595091.878                    88351731.021    21310158.074  
  21310152.891  
  22956043.500   120634812.973    22956050.488    94001172.4534   22956050.922  
                
  23724160.922   124671291.203    23724165.746    97146479.3324                 
                
  21116872.773   112921403.889                    87827758.888    21116877.582  
  21116872.016  
  21962871.750   117239293.001                    91186116.939    21962876.141  
  21962870.203  
  19399009.742   103808013.666                    80739562.362    19399013.395  
  19399008.051  
  20420458.789   107310225.283    20420468.285    83618398.1474   20420468.832  
                
 21  8 14  4 33 50.0000000  0 17G26R 1R16R 8G20G29G18R15G 5G12R14G31
                                G 2R24R18R17G25
  24477904.422   128632242.433    24477914.906   100232968.1264   24477914.887  
                
  22908207.852   122457504.956                    95244743.355    22908214.285  
  22908207.133  
  22381151.617   119556100.688                    92988102.102    22381154.180  
  22381150.973  
  23532186.367   126013787.644                    98010715.526    23532190.414  
  23532185.773  
  22115947.023   116220090.158    22115953.938    90561138.2904                 
                
  20651840.352   108526155.605    20651846.941    84565865.2254   20651847.148  
                
  22958061.094   120645419.805    22958068.773    94009456.5674   22958068.742  
                
  19515877.742   104286923.485                    81112047.855    19515882.188  
  19515877.984  
  22127453.711   116280557.019    22127461.406    90608265.0984   22127461.441  
                
  22266408.516   117010757.854    22266415.781    91177244.3234   22266415.996  
                
  21317444.789   113633959.933                    88381961.706    21317449.664  
  21317444.438  
  22956474.148   120637075.999    22956481.105    94002935.8444   22956481.555  
                
  23729618.414   124699970.458    23729623.270    97168826.7984                 
                
  21122232.484   112950064.566                    87850050.516    21122237.285  
  21122231.719  
  21957563.195   117210955.497                    91164076.672    21957567.590  
  21957561.633  
  19398664.891   103806168.284                    80738127.065    19398668.539  
  19398663.195  
  20423351.492   107325426.513    20423361.012    83630243.2544   20423361.551  
                
 21  8 14  4 34  0.0000000  0 17G26R 1R16R 8G20G29G18R15G 5G12R14G31
                                G 2R24R18R17G25
  24471407.953   128598103.363    24471418.461   100206366.2444   24471418.430  
                
  22904459.055   122437465.519                    95229157.113    22904465.469  
  22904458.324  
  22374513.797   119520642.641                    92960523.629    22374516.355  
  22374513.164  
  23533387.055   126020217.423                    98015716.438    23533391.141  
  23533386.445  
  22116333.508   116222121.089    22116340.430    90562720.8344                 
                
  20650283.031   108517971.845    20650289.648    84559488.2704   20650289.852  
                
  22951833.141   120612691.575    22951840.863    93983954.0674   22951840.809  
                
  19516359.352   104289497.011                    81114049.487    19516363.793  
  19516359.578  
  22123336.680   116258921.912    22123344.395    90591406.5704   22123344.418  
                
  22272310.602   117041773.479    22272317.898    91201412.3354   22272318.094  
                
  21324744.664   113672872.296                    88412226.859    21324749.539  
  21324744.316  
  22956916.766   120639402.005    22956923.691    94004748.3054   22956924.152  
                
  23735078.211   124728661.734    23735083.059    97191183.6264                 
                
  21127595.773   112978744.476                    87872357.099    21127600.586  
  21127594.984  
  21952260.648   117182650.324                    91142061.537    21952265.039  
  21952259.086  
  19398329.188   103804371.858                    80736729.855    19398332.824  
  19398327.500  
  20426254.859   107340683.763    20426264.398    83642132.0144   20426264.938  
                
 21  8 14  4 34 10.0000000  0 17G26R 1R16R 8G20G29G18R15G 5G12R14G31
                                G 2R24R18R17G25
  24464913.945   128563977.311    24464924.520   100179774.5614   24464924.516  
                
  22900722.711   122417492.586                    95213622.631    22900729.102  
  22900722.000  
  22367884.641   119485230.789                    92932981.095    22367887.160  
  22367884.012  
  23534602.992   126026728.654                    98020780.724    23534607.074  
  23534602.398  
  22116732.156   116224216.004    22116739.086    90564353.2374                 
                
  20648731.797   108509820.036    20648738.441    84553136.2154   20648738.633  
                
  22945610.148   120579989.490    22945617.918    93958471.9244   22945617.855  
                
  19516857.938   104292161.345                    81116121.731    19516862.363  
  19516858.145  
  22119229.609   116237339.145    22119237.344    90574588.8354   22119237.359  
                
  22278219.023   117072822.408    22278226.352    91225606.2894   22278226.543  
                
  21332052.805   113711828.726                    88442526.288    21332057.676  
  21332052.457  
  22957371.352   120641790.854    22957378.273    94006609.7344   22957378.711  
                
  23740540.250   124757364.847    23740545.098    97213549.6864                 
                
  21132962.633   113007443.474                    87894678.523    21132967.465  
  21132961.832  
  21946964.188   117154377.575                    91120071.623    21946968.566  
  21946962.633  
  19398002.633   103802624.404                    80735370.718    19398006.258  
  19398000.938  
  20429168.852   107355996.902    20429178.410    83654064.3254   20429178.941  
                
 21  8 14  4 34 20.0000000  0 17G26R 1R16R 8G20G29G18R15G 5G12R14G31
                                G 2R24R18R17G25
  24458422.445   128529864.383    24458433.035   100153193.0584   24458433.051  
                
  22896998.805   122397586.230                    95198139.914    22897005.238  
  22896998.105  
  22361264.117   119449865.096                    92905474.436    22361266.594  
  22361263.477  
  23535834.141   126033321.383                    98025908.387    23535838.219  
  23535833.508  
  22117142.977   116226374.880    22117149.898    90566035.4894                 
                
  20647186.602   108501699.991    20647193.266    84546808.9054   20647193.445  
                
  22939392.133   120547313.615    22939399.938    93933010.2084   22939399.887  
                
  19517373.523   104294916.499                    81118264.626    19517377.934  
  19517373.707  
  22115132.523   116215808.818    22115140.273    90557811.9694   22115140.281  
                
  22284133.766   117103904.589    22284141.125    91249826.1514   22284141.324  
                
  21339369.172   113750829.141                    88472859.939    21339374.035  
  21339368.828  
  22957837.891   120644242.523    22957844.797    94008520.1174   22957845.215  
                
  23746004.523   124786079.696    23746009.391    97235924.8834                 
                
  21138333.016   113036161.273                    87917014.592    21138337.859  
  21138332.223  
  21941673.781   117126137.195                    91098106.903    21941678.172  
  21941672.227  
  19397685.211   103800925.799                    80734049.592    19397688.820  
  19397683.508  
  20432093.492   107371365.941    20432103.074    83666040.1884   20432103.605  
                
 21  8 14  4 34 30.0000000  0 17G26R 1R16R 8G20G29G18R15G 5G12R14G31
                                G 2R24R18R17G25
  24451933.492   128495764.782    24451944.078   100126621.9374   24451944.090  
                
  22893287.430   122377746.862                    95182709.312    22893293.902  
  22893286.691  
  22354652.289   119414545.961                    92878004.014    22354654.801  
  22354651.688  
  23537080.492   126039995.466                    98031099.338    23537084.570  
  23537079.891  
  22117565.992   116228597.797    22117572.887    90567767.6284                 
                
  20645647.508   108493612.007    20645654.191    84540506.5744   20645654.359  
                
  22933179.141   120514664.095    22933186.977    93907569.0404   22933186.922  
                
  19517906.133   104297762.599                    81120478.246    19517910.535  
  19517906.312  
  22111045.445   116194331.087    22111053.203    90541076.0744   22111053.203  
                
  22290054.844   117135020.057    22290062.254    91274071.9614   22290062.438  
                
  21346693.781   113789873.472                    88503227.745    21346698.633  
  21346693.445  
  22958316.391   120646756.989    22958323.238    94010479.4354   22958323.645  
                
  23751471.039   124814806.352    23751475.914    97258309.2644                 
                
  21143706.914   113064897.923                    87939365.299    21143711.766  
  21143706.129  
  21936389.445   117097929.286                    91076167.405    21936393.855  
  21936387.922  
  19397376.938   103799276.189                    80732766.568    19397380.535  
  19397375.234  
  20435028.766   107386790.901    20435038.375    83678059.6364   20435038.898  
                
 21  8 14  4 34 40.0000000  0 17G26R 1R16R 8G20G29G18R15G 5G12R14G31
                                G 2R24R18R17G25
  24445447.047   128461678.456    24445457.613   100100061.1664   24445457.641  
                
  22889588.570   122357974.467                    95167330.766    22889595.086  
  22889587.805  
  22348049.211   119379273.439                    92850569.810    22348051.703  
  22348048.688  
  23538342.094   126046751.199                    98036353.822    23538346.191  
  23538341.559  
  22118001.172   116230884.679    22118008.035    90569549.6084                 
                
  20644114.508   108485556.027    20644121.199    84534229.1844   20644121.355  
                
  22926971.164   120482040.957    22926979.012    93882148.4204   22926978.961  
                
  19518455.766   104300699.666                    81122762.619    19518460.148  
  19518455.941  
  22106968.375   116172905.971    22106976.125    90524381.1794   22106976.129  
                
  22295982.227   117166168.630    22295989.691    91298343.5624   22295989.852  
                
  21354026.609   113828961.540                    88533629.551    21354031.461  
  21354026.281  
  22958806.828   120649334.207    22958813.574    94012487.6574   22958814.020  
                
  23756939.789   124843544.720    23756944.676    97280702.7914                 
                
  21149084.391   113093653.691                    87961730.885    21149089.230  
  21149083.602  
  21931111.227   117069753.780                    91054253.139    21931115.629  
  21931109.715  
  19397077.805   103797675.462                    80731521.545    19397081.398  
  19397076.105  
  20437974.672   107402271.728    20437984.316    83690122.6114   20437984.816  
                
 21  8 14  4 34 50.0000000  0 17G26R 1R16R 8G20G29G18R15G 5G12R14G31
                                G 2R24R18R17G25
  24438963.203   128427605.635    24438973.719   100073510.9234   24438973.758  
                
  22885902.297   122338269.230                    95152004.513    22885908.875  
  22885901.523  
  22341454.898   119344047.754                    92823172.066    22341457.379  
  22341454.410  
  23539618.930   126053588.446                    98041671.680    23539622.977  
  23539618.379  
  22118448.547   116233235.608    22118455.418    90571381.5004                 
                
  20642587.633   108477532.228    20642594.336    84527976.8804   20642594.500  
                
  22920768.219   120449444.339    22920776.109    93856748.4634   22920776.047  
                
  19519022.438   104303727.730                    81125117.783    19519026.805  
  19519022.621  
  22102901.383   116151533.769    22102909.105    90507727.5194   22102909.113  
                
  22301915.922   117197350.362    22301923.422    91322640.9984   22301923.566  
                
  21361367.672   113868093.290                    88564065.351    21361372.469  
  21361367.312  
  22959309.234   120651974.257    22959315.902    94014544.8384   22959316.375  
                
  23762410.789   124872294.801    23762415.703    97303105.4464                 
                
  21154465.367   113122428.121                    87984110.995    21154470.188  
  21154464.566  
  21925839.102   117041610.892                    91032364.230    21925843.508  
  21925837.586  
  19396787.797   103796123.529                    80730314.481    19396791.383  
  19396786.098  
  20440931.234   107417808.470    20440940.914    83702229.1644   20440941.398  
                
 21  8 14  4 35  0.0000000  0 17G26R 1R16R 8G20G29G18R15G 5G12R14G31
                                G 2R24R18R17G25
  24432481.875   128393546.058    24432492.316   100046970.9754   24432492.379  
                
  22882228.531   122318630.919                    95136730.289    22882235.145  
  22882227.746  
  22334869.344   119308868.814                    92795810.662    22334871.773  
  22334868.859  
  23540910.883   126060506.797                    98047052.631    23540914.926  
  23540910.305  
  22118908.070   116235650.363    22118914.926    90573263.1204                 
                
  20641066.820   108469540.296    20641073.527    84521749.3954   20641073.684  
                
  22914570.234   120416873.972    22914578.164    93831368.9554   22914578.102  
                
  19519606.070   104306846.467                    81127543.471    19519610.438  
  19519606.262  
  22098844.398   116130214.198    22098852.078    90491114.8674   22098852.086  
                
  22307855.852   117228564.880    22307863.355    91346963.9884   22307863.523  
                
  21368716.828   113907268.282                    88594534.786    21368721.586  
  21368716.461  
  22959823.531   120654676.883    22959830.160    94016650.7764   22959830.629  
                
  23767883.922   124901056.228    23767888.863    97325516.9424                 
                
  21159849.844   113151221.305                    88006505.691    21159854.676  
  21159849.023  
  21920573.039   117013500.332                    91010500.458    21920577.449  
  21920571.488  
  19396506.859   103794620.139                    80729145.174    19396510.422  
  19396505.164  
  20443898.359   107433400.765    20443908.070    83714378.9974   20443908.535  
                
 21  8 14  4 35 10.0000000  0 17G26R 1R16R 8G20G29G18R15G 5G12R14G31
                                G 2R24R18R17G25
  24426003.172   128359500.188    24426013.539   100020441.7254   24426013.637  
                
  22878567.406   122299060.211                    95121508.636    22878574.055  
  22878566.637  
  22328292.633   119273737.152                    92768486.039    22328295.023  
  22328292.129  
  23542218.062   126067506.693                    98052496.971    23542222.074  
  23542217.496  
  22119379.781   116238129.283    22119386.617    90575194.7534                 
                
  20639552.125   108461580.560    20639558.840    84515547.0044   20639558.996  
                
  22908377.312   120384330.281    22908385.273    93806010.2574   22908385.242  
                
  19520206.734   104310056.286                    81130040.002    19520211.105  
  19520206.922  
  22094797.508   116108947.723    22094805.133    90474543.5874   22094805.160  
                
  22313802.070   117259812.491    22313809.613    91371312.7694   22313809.785  
                
  21376074.125   113946486.728                    88625038.020    21376078.867  
  21376073.766  
  22960349.781   120657442.324    22960356.406    94018805.6634   22960356.840  
                
  23773359.258   124929829.313    23773364.230    97347937.5174                 
                
  21165237.766   113180032.946                    88028914.728    21165242.598  
  21165236.961  
  21915313.070   116985422.413                    90988662.092    21915317.484  
  21915311.520  
  19396235.039   103793165.586                    80728013.860    19396238.594  
  19396233.324  
  20446876.117   107449048.987    20446885.863    83726572.4144   20446886.305  
                
 21  8 14  4 35 20.0000000  0 17G26R 1R16R 8G20G29G18R15G 5G12R14G31
                                G 2R24R18R17G25
  24419527.078   128325467.987    24419537.414    99993923.1164   24419537.531  
                
  22874918.914   122279556.999                    95106339.498    22874925.555  
  22874918.188  
  22321724.703   119238652.481                    92741197.990    22321727.098  
  22321724.207  
  23543540.461   126074588.046                    98058004.671    23543544.418  
  23543539.855  
  22119863.695   116240672.213    22119870.523    90577176.2454                 
                
  20638043.555   108453652.914    20638050.281    84509369.6174   20638050.434  
                
  22902189.461   120351813.214    22902197.492    93780672.3094   22902197.469  
                
  19520824.414   104313356.954                    81132607.186    19520828.781  
  19520824.586  
  22090760.750   116087734.378    22090768.340    90458013.7084   22090768.391  
                
  22319754.578   117291093.021    22319762.176    91395687.1984   22319762.328  
                
  21383439.523   113985748.352                    88655574.816    21383444.273  
  21383439.172  
  22960887.969   120660270.499    22960894.609    94021009.4304   22960895.012  
                
  23778836.789   124958613.838    23778841.793    97370366.9954                 
                
  21170629.195   113208863.147                    88051338.206    21170634.008  
  21170628.379  
  21910059.266   116957377.123                    90966849.084    21910063.664  
  21910057.738  
  19395972.328   103791759.741                    80726920.426    19395975.859  
  19395970.602  
  20449864.492   107464752.965    20449874.281    83738809.2674   20449874.695  
                
 21  8 14  4 35 30.0000000  0 17G26R 1R16R 8G20G29G18R15G 5G12R14G31
                                G 2R24R18R17G25
  24413053.578   128291449.473    24413063.930    99967415.1724   24413064.062  
                
  22871283.039   122260121.261                    95091222.800    22871289.676  
  22871282.336  
  22315165.664   119203615.337                    92713946.856    22315168.035  
  22315165.160  
  23544878.055   126081750.773                    98063575.687    23544881.965  
  23544877.496  
  22120359.781   116243279.136    22120366.625    90579207.6284                 
                
  20636541.078   108445757.360    20636547.816    84503217.2384   20636547.953  
                
  22896006.688   120319322.806    22896014.730    93755355.1134   22896014.719  
                
  19521459.102   104316748.559                    81135245.090    19521463.461  
  19521459.258  
  22086734.102   116066574.223    22086741.719    90441525.2774   22086741.750  
                
  22325713.328   117322406.437    22325720.957    91420087.2464   22325721.094  
                
  21390812.969   114025052.965                    88686145.037    21390817.754  
  21390812.617  
  22961438.102   120663161.320    22961444.727    94023262.0004   22961445.098  
