     2.11           OBSERVATION DATA    M (MIXED)           RINEX VERSION / TYPE
EFT-CORS.RU                             20210817 150724 UTC PGM / RUN BY / DATE 
MDNG                                                        MARKER NAME         
                                                            MARKER NUMBER       
MDNG                EFT-CORS.RU                             OBSERVER / AGENCY   
0                   TRIMBLE BD970       2.0                 REC # / TYPE / VERS 
0                   UNKNOWN EXT NONE                        ANT # / TYPE        
  3463911.2830  3030468.2400  4402179.3760                  APPROX POSITION XYZ 
        0.0000        0.0000        0.0000                  ANTENNA: DELTA H/E/N
     1     1                                                WAVELENGTH FACT L1/2
     6    C1    L1    P2    L2    C2    P1                  # / TYPES OF OBSERV 
    10.000                                                  INTERVAL            
  2021     8    14    23    30    0.0000000     GPS         TIME OF FIRST OBS   
  2021     8    15     0    30    0.0000000     GPS         TIME OF LAST OBS    
     0                                                      RCV CLOCK OFFS APPL 
                                                            END OF HEADER       
 21  8 14 23 30  0.0000000  0 19G 6G12G17G15R 5R 3R24G14G 1R14G13R23
                                G24R13R 4G30R22R12G19
  24472876.750   128605830.233    24472885.543   100212371.7394   24472886.000  
                
  23986811.148   126051544.269    23986817.203    98222010.4204   23986817.250  
                
  21217032.000   111496267.327    21217038.059    86880239.7254   21217037.977  
                
  22325010.375   117318732.529    22325016.543    91417226.7564   22325016.441  
                
  23152305.500   123762346.023                    96259595.394    23152309.496  
  23152305.121  
  23081021.758   123554535.739                    96097969.777    23081025.781  
  23081020.539  
  22275074.883   119114830.244                    92644869.450    22275078.895  
  22275074.180  
  22452800.352   117990281.779    22452806.688    91940525.1744   22452806.828  
                
  24135506.586   126832968.864    24135515.449    98830910.6354   24135515.039  
                
  21052663.055   112222553.888                    87284200.302    21052667.180  
  21052662.801  
  22307439.094   117226394.360    22307444.621    91345276.8254                 
                
  20249864.500   108323128.589                                                  
  20249862.824  
  21339815.656   112141506.889    21339824.137    87383022.6464   21339824.121  
                
  19750116.742   105464566.166                    82027999.874    19750119.312  
  19750115.090  
  21802317.109   116750425.400                    90805880.929    21802320.340  
  21802316.262  
  24500639.109   128751772.153    24500647.793   100326110.1014   24500648.137  
                
  21980907.305   117335597.486                    91261034.587    21980909.348  
  21980905.422  
  22572538.977   120578470.797                    93783246.694    22572543.383  
  22572538.410  
  20401097.695   107208507.150    20401101.785    83539112.9354                 
                
 21  8 14 23 30 10.0000000  0 19G 6G12G17G15R 5R 3R24G14G 1R14G13R23
                                G24R13R 4G30R22R12G19
  24466548.789   128572576.795    24466557.605   100186459.9764   24466558.074  
                
  23980932.766   126020652.944    23980938.777    98197939.2704   23980938.832  
                
  21219808.266   111510856.730    21219814.320    86891608.1014   21219814.250  
                
  22329370.117   117341643.119    22329376.305    91435079.1594   22329376.207  
                
  23148705.328   123743101.223                    96244627.222    23148709.363  
  23148704.914  
  23088352.078   123593775.381                    96128489.486    23088356.043  
  23088350.855  
  22267027.219   119071795.346                    92611397.842    22267031.105  
  22267026.449  
  22457692.852   118015991.999    22457699.156    91960559.1194   22457699.312  
                
  24138130.508   126846757.710    24138139.383    98841655.1824   24138138.965  
                
  21048076.312   112198103.973                    87265183.711    21048080.434  
  21048076.031  
  22313502.688   117258258.771    22313508.219    91370106.2264                 
                
  20245843.906   108301621.168                                                  
  20245842.254  
  21335512.430   112118893.312    21335520.926    87365401.6804   21335520.906  
                
  19751196.367   105470331.377                    82032483.937    19751198.996  
  19751194.691  
  21805096.234   116765307.498                    90817455.877    21805099.449  
  21805095.402  
  24507084.672   128785643.860    24507093.391   100352503.6494   24507093.719  
                
  21986273.750   117364243.941                    91283315.161    21986275.816  
  21986271.867  
  22577847.609   120606828.600                    93805302.771    22577852.031  
  22577847.078  
  20399488.750   107200052.101    20399492.898    83532524.5844                 
                
 21  8 14 23 30 20.0000000  0 19G 6G12G17G15R 5R 3R24G14G 1R14G13R23
                                G24R13R 4G30R22R12G19
  24460221.555   128539327.219    24460230.449   100160551.2264   24460230.895  
                
  23975056.922   125989774.984    23975062.883    98173878.5374   23975062.945  
                
  21222594.344   111525497.633    21222600.383    86903016.5984   21222600.301  
                
  22333738.625   117364599.814    22333744.832    91452967.4814   22333744.738  
                
  23145119.492   123723932.951                    96229718.550    23145123.551  
  23145119.039  
  23095686.117   123633034.621                    96159024.463    23095690.023  
  23095684.852  
  22258984.375   119028786.718                    92577946.697    22258988.219  
  22258983.617  
  22462588.180   118041717.106    22462594.457    91980604.6504   22462594.637  
                
  24140766.680   126860610.899    24140775.547    98852449.8914   24140775.172  
                
  21043492.961   112173672.102                    87246181.125    21043497.066  
  21043492.711  
  22319572.688   117290156.812    22319578.234    91394961.8564                 
                
  20241838.773   108280196.369                                                  
  20241837.129  
  21331216.469   112096317.888    21331224.988    87347810.4414   21331224.965  
                
  19752283.258   105476135.323                    82036998.095    19752285.906  
  19752281.578  
  21807890.242   116780269.210                    90829092.778    21807893.418  
  21807889.441  
  24513533.242   128819531.291    24513542.012   100378909.4364   24513542.309  
                
  21991653.086   117392959.431                    91305649.408    21991655.262  
  21991651.199  
  22583159.656   120635204.525                    93827372.903    22583164.102  
  22583159.094  
  20397892.664   107191664.651    20397896.852    83525988.9064                 
                
 21  8 14 23 30 30.0000000  0 19G 6G12G17G15R 5R 3R24G14G 1R14G13R23
                                G24R13R 4G30R22R12G19
  24453895.156   128506082.057    24453904.148   100134645.8924   24453904.539  
                
  23969183.656   125958910.900    23969189.648    98149828.6014   23969189.715  
                
  21225390.289   111540190.415    21225396.312    86914465.5264   21225396.219  
                
  22338115.969   117387602.885    22338122.172    91470891.9464   22338122.090  
                
  23141548.062   123704841.504                    96214869.651    23141552.098  
  23141547.641  
  23103023.805   123672313.729                    96189574.872    23103027.684  
  23103022.539  
  22250946.539   118985805.072                    92544516.508    22250950.391  
  22250945.797  
  22467486.414   118067457.476    22467492.730    92000662.0904   22467492.879  
                
  24143415.172   126874528.804    24143424.035    98863295.0254   24143423.672  
                
  21038913.062   112149258.627                    87227192.868    21038917.176  
  21038912.828  
  22325649.156   117322088.770    22325654.707    91419843.9134                 
                
  20237849.172   108258854.720                                                  
  20237847.527  
  21326927.859   112073781.059    21326936.402    87330249.2754   21326936.367  
                
  19753377.461   105481978.383                    82041542.704    19753380.145  
  19753375.781  
  21810699.211   116795311.090                    90840792.026    21810702.367  
  21810698.453  
  24519984.906   128853434.844    24519993.707   100405327.7824   24519993.973  
                
  21997045.414   117421744.012                    91328037.427    21997047.559  
  21997043.516  
  22588475.156   120663598.965                    93849457.452    22588479.660  
  22588474.578  
  20396309.531   107183345.246    20396313.727    83519506.2574                 
                
 21  8 14 23 30 40.0000000  0 19G 6G12G17G15R 5R 3R24G14G 1R14G13R23
                                G24R13R 4G30R22R12G19
  24447569.578   128472841.223    24447578.652   100108743.9404   24447579.008  
                
  23963313.000   125928060.486    23963319.027    98125789.3304   23963319.070  
                
  21228196.062   111554934.824    21228202.078    86925954.6864   21228201.988  
                
  22342502.078   117410652.042    22342508.273    91488852.3294   22342508.199  
                
  23137991.039   123685827.112                    96200080.673    23137995.059  
  23137990.676  
  23110365.031   123711612.198                    96220140.335    23110368.961  
  23110363.836  
  22242913.805   118942850.399                    92511107.303    22242917.625  
  22242913.012  
  22472387.508   118093212.927    22472393.836    92020731.2654   22472393.965  
                
  24146075.930   126888511.236    24146084.809    98874190.4254   24146084.422  
                
  21034336.602   112124863.556                    87208218.938    21034340.734  
  21034336.348  
  22331732.016   117354054.386    22331737.621    91444752.1864                 
                
  20233875.141   108237596.323                                                  
  20233873.512  
  21322646.578   112051282.780    21322655.148    87312718.1514   21322655.098  
                
  19754478.969   105487860.310                    82046117.535    19754481.648  
  19754477.277  
  21813523.125   116810432.932                    90852553.449    21813526.258  
  21813522.383  
  24526439.562   128887354.302    24526448.391   100431758.5254   24526448.656  
                
  22002450.586   117450597.500                    91350479.033    22002452.840  
  22002448.734  
  22593794.102   120692011.756                    93871556.300    22593798.613  
  22593793.535  
  20394739.328   107175093.813    20394743.508    83513076.5714                 
                
 21  8 14 23 30 50.0000000  0 19G 6G12G17G15R 5R 3R24G14G 1R14G13R23
                                G24R13R 4G30R22R12G19
  24441244.852   128439604.974    24441254.004   100082845.5634   24441254.367  
                
  23957444.984   125897223.820    23957451.066    98101760.7744   23957451.086  
                
  21231011.664   111569730.894    21231017.664    86937484.0954   21231017.574  
                
  22346896.977   117433747.370    22346903.184    91506848.6804   22346903.086  
                
  23134448.445   123666889.771                    96185351.630    23134452.445  
  23134448.129  
  23117709.875   123750930.143                    96250720.971    23117713.879  
  23117708.770  
  22234886.078   118899922.915                    92477719.270    22234890.004  
  22234885.277  
  22477291.492   118118983.509    22477297.809    92040812.2334   22477297.945  
                
  24148748.977   126902558.219    24148757.879    98885136.1364   24148757.496  
                
  21029763.625   112100487.045                    87189259.433    21029767.762  
  21029763.398  
  22337821.289   117386053.692    22337826.969    91469686.7014                 
                
  20229916.648   108216421.060                                                  
  20229915.016  
  21318372.664   112028823.200    21318381.258    87295217.1864   21318381.195  
                
  19755587.734   105493781.122                    82050722.596    19755590.355  
  19755586.039  
  21816361.922   116825634.569                    90864376.947    21816365.055  
  21816361.188  
  24532897.211   128921289.702    24532906.105   100458201.6934   24532906.375  
                
  22007868.656   117479519.640                    91372974.020    22007870.961  
  22007866.840  
  22599116.484   120720442.980                    93893669.476    22599121.008  
  22599115.922  
  20393182.086   107166910.474    20393186.246    83506699.9464                 
                
 21  8 14 23 31  0.0000000  0 19G 6G12G17G15R 5R 3R24G14G 1R14G13R23
                                G24R13R 4G30R22R12G19
  24434921.031   128406373.229    24434930.211   100056950.6874   24434930.574  
                
  23951579.578   125866400.870    23951585.695    98077742.9024   23951585.727  
                
  21233837.062   111584578.425    21233843.055    86949053.6004   21233842.961  
                
  22351300.625   117456888.648    22351306.844    91524880.8484   22351306.727  
                
  23130920.266   123648029.532                    96170682.576    23130924.234  
  23130919.941  
  23125058.367   123790267.171                    96281316.410    23125062.359  
  23125057.285  
  22226863.250   118857022.527                    92444352.323    22226867.488  
  22226862.625  
  22482198.328   118144769.074    22482204.648    92060904.8774   22482204.781  
                
  24151434.289   126916669.576    24151443.223    98896132.0204   24151442.855  
                
  21025194.117   112076128.991                    87170314.282    21025198.258  
  21025193.883  
  22343916.914   117418086.409    22343922.656    91494647.2624                 
                
  20225973.742   108195329.160                                                  
  20225972.121  
  21314106.109   112006402.277    21314114.723    87277746.3394   21314114.641  
                
  19756703.828   105499741.011                    82055358.071    19756706.461  
  19756702.117  
  21819215.617   116840915.822                    90876262.354    21819218.758  
  21819214.902  
  24539357.898   128955240.940    24539366.824   100484657.1824   24539367.113  
                
  22013299.664   117508510.641                    91395522.586    22013301.891  
  22013297.855  
  22604442.359   120748892.499                    93915796.844    22604446.812  
  22604441.758  
  20391637.789   107158795.110    20391641.953    83500376.2914                 
                
 21  8 14 23 31 10.0000000  0 19G 6G12G17G15R 5R 3R24G14G 1R14G13R23
                                G24R13R 4G30R22R12G19
  24428598.125   128373146.084    24428607.289   100031059.4234   24428607.656  
                
  23945716.734   125835591.519    23945722.883    98053735.6304   23945722.926  
                
  21236672.211   111599477.275    21236678.191    86960663.1014   21236678.105  
                
  22355712.969   117480075.656    22355719.168    91542948.6524   22355719.051  
                
  23127406.477   123629246.403                    96156073.468    23127410.438  
  23127406.113  
  23132410.391   123829623.144                    96311926.630    23132414.355  
  23132409.320  
  22218845.578   118814149.629                    92411006.763    22218850.094  
  22218845.137  
  22487107.984   118170569.507    22487114.332    92081009.1114   22487114.449  
                
  24154131.805   126930845.198    24154140.758    98907177.9774   24154140.406  
                
  21020628.047   112051789.293                    87151383.407    21020632.180  
  21020627.816  
  22350018.859   117450152.347    22350024.652    91519633.7134                 
                
  20222046.406   108174320.570                                                  
  20222044.797  
  21309846.906   111984020.016    21309855.531    87260305.6244   21309855.449  
                
  19757827.172   105505739.635                    82060023.665    19757829.809  
  19757825.457  
  21822084.117   116856276.461                    90888209.521    21822087.258  
  21822083.383  
  24545821.539   128989207.799    24545830.500   100511124.8524   24545830.805  
                
  22018743.391   117537569.781                    91418124.133    22018745.609  
  22018741.594  
  22609771.641   120777360.211                    93937938.442    22609776.027  
  22609771.027  
  20390106.414   107150747.660    20390110.621    83494105.5494                 
                
 21  8 14 23 31 20.0000000  0 19G 6G12G17G15R 5R 3R24G14G 1R14G13R23
                                G24R13R 4G30R22R12G19
  24422276.180   128339923.666    24422285.270   100005171.8334   24422285.652  
                
  23939856.430   125804795.820    23939862.629    98029738.9874   23939862.672  
                
  21239517.109   111614427.320    21239523.070    86972312.4884   21239522.984  
                
  22360133.984   117503308.264    22360140.156    91561051.9804   22360140.066  
                
  23123907.117   123610540.415                    96141524.361    23123911.074  
  23123906.719  
  23139765.867   123868997.746                    96342551.339    23139769.848  
  23139764.832  
  22210833.188   118771304.072                    92377682.446    22210837.805  
  22210832.766  
  22492020.469   118196384.777    22492026.867    92101124.9004   22492026.961  
                
  24156841.562   126945085.068    24156850.523    98918273.9754   24156850.172  
                
  21016065.414   112027467.868                    87132466.757    21016069.562  
  21016065.191  
  22356127.117   117482251.467    22356132.949    91544646.0084                 
                
  20218134.703   108153395.561                                                  
  20218133.094  
  21305595.086   111961676.528    21305603.707    87242895.1084   21305603.625  
                
  19758957.781   105511777.017                    82064719.403    19758960.438  
  19758956.047  
  21824967.438   116871716.512                    90900218.443    21824970.594  
  21824966.684  
  24552288.117   129023190.259    24552297.148   100537604.6954   24552297.457  
                
  22024200.000   117566697.292                    91440778.857    22024202.168  
  22024198.199  
  22615104.281   120805846.138                    93960094.186    22615108.613  
  22615103.680  
  20388587.961   107142768.154    20388592.230    83487887.7494                 
                
 21  8 14 23 31 30.0000000  0 19G 6G12G17G15R 5R 3R24G14G 1R14G13R23
                                G24R13R 4G30R22R12G19
  24415955.102   128306706.176    24415964.184    99979288.0604   24415964.578  
                
  23933998.836   125774013.812    23934004.965    98005753.0054   23934005.023  
                
  21242371.773   111629428.654    21242377.711    86984001.8424   21242377.625  
                
  22364563.695   117526586.514    22364569.855    91579190.8774   22364569.781  
                
  23120422.297   123591911.951                    96127035.543    23120426.207  
  23120421.898  
  23147124.945   123908390.930                    96373190.483    23147128.836  
  23147123.824  
  22202825.977   118728486.293                    92344379.744    22202830.676  
  22202825.602  
  22496935.805   118222214.934    22496942.230    92121252.2854   22496942.309  
                
  24159563.469   126959389.150    24159572.527    98929420.0124   24159572.160  
                
  21011506.273   112003165.108                    87113564.608    21011510.438  
  21011506.027  
  22362241.672   117514383.644    22362247.539    91569684.0604                 
                
  20214238.617   108132554.116                                                  
  20214237.000  
  21301350.664   111939371.892    21301359.285    87225514.8754   21301359.199  
                
  19760095.734   105517853.632                    82069445.660    19760098.422  
  19760093.984  
  21827865.570   116887235.897                    90912289.048    21827868.727  
  21827864.766  
  24558757.641   129057188.323    24558766.809   100564096.7114   24558767.113  
                
  22029669.367   117595892.853                    91463486.529    22029671.496  
  22029667.562  
  22620440.391   120834350.451                    93982264.212    22620444.648  
  22620439.793  
  20387082.477   107134856.739    20387086.805    83481723.0114                 
                
 21  8 14 23 31 40.0000000  0 19G 6G12G17G15R 5R 3R24G14G 1R14G13R23
                                G24R13R 4G30R22R12G19
  24409634.922   128273493.678    24409644.020    99953408.1854   24409644.430  
                
  23928143.844   125743245.687    23928149.906    97981777.8334   23928149.992  
                
  21245236.180   111644481.184    21245242.098    86995731.0944   21245242.020  
                
  22369002.086   117549910.361    22369008.242    91597365.3114   22369008.152  
                
  23116951.945   123573360.761                    96112606.864    23116955.824  
  23116951.535  
  23154487.258   123947802.657                    96403844.055    23154491.262  
  23154486.227  
  22194824.039   118685696.276                    92311098.605    22194828.711  
  22194823.633  
  22501853.953   118248059.935    22501860.418    92141391.2474   22501860.445  
                
  24162297.633   126973757.443    24162306.750    98940616.0814   24162306.387  
                
  21006950.602   111978880.872                    87094676.892    21006954.777  
  21006950.348  
  22368362.492   117546548.793    22368368.371    91594747.8104                 
                
  20210358.180   108111796.424                                                  
  20210356.574  
  21297113.648   111917106.257    21297122.273    87208165.0264   21297122.188  
                
  19761241.000   105523969.327                    82074202.313    19761243.676  
  19761239.246  
  21830778.477   116902834.463                    90924421.266    21830781.602  
  21830777.664  
  24565230.219   129091202.030    24565239.426   100590600.8834   24565239.711  
                
  22035151.484   117625156.610                    91486247.218    22035153.574  
  22035149.680  
  22625779.891   120862872.890                    94004448.327    22625784.113  
  22625779.312  
  20385589.938   107127013.379    20385594.293    83475611.3144                 
                
 21  8 14 23 31 50.0000000  0 19G 6G12G17G15R 5R 3R24G14G 1R14G13R23
                                G24R13R 4G30R22R12G19
  24403315.789   128240286.401    24403324.832    99927532.3634   24403325.234  
                
  23922291.445   125712491.411    23922297.555    97957813.4764   23922297.637  
                
  21248110.320   111659584.905    21248116.223    87007500.2294   21248116.160  
                
  22373449.117   117573279.709    22373455.285    91615575.1844   22373455.199  
                
  23113496.094   123554887.111                    96098238.489    23113499.973  
  23113495.715  
  23161853.062   123987232.733                    96434511.872    23161857.141  
  23161852.082  
  22186827.438   118642934.413                    92277839.362    22186831.965  
  22186826.945  
  22506774.930   118273919.843    22506781.379    92161541.8174   22506781.430  
                
  24165044.008   126988189.950    24165053.184    98951862.1754   24165052.812  
                
  21002398.469   111954615.456                    87075803.788    21002402.617  
  21002398.219  
  22374489.594   117578746.965    22374495.496    91619837.2954                 
                
  20206493.430   108091122.634                                                  
  20206491.836  
  21292884.078   111894879.712    21292892.703    87190845.6394   21292892.625  
                
  19762393.555   105530123.875                    82078989.171    19762396.230  
  19762391.797  
  21833706.203   116918512.251                    90936615.111    21833709.293  
  21833705.414  
  24571705.820   129125231.361    24571715.027   100617117.2274   24571715.297  
                
  22040646.297   117654488.252                    91509060.726    22040648.410  
  22040644.492  
  22631122.828   120891413.751                    94026646.764    22631127.000  
  22631122.273  
  20384110.359   107119238.156    20384114.715    83469552.7114                 
                
 21  8 14 23 32  0.0000000  0 19G 6G12G17G15R 5R 3R24G14G 1R14G13R23
                                G24R13R 4G30R22R12G19
  24396997.680   128207084.309    24397006.613    99901660.5804   24397007.016  
                
  23916441.602   125681750.851    23916447.801    97933859.8194   23916447.902  
                
  21250994.164   111674739.589    21251000.059    87019309.0814   21250999.988  
                
  22377904.758   117596694.270    22377910.941    91633820.2914   22377910.844  
                
  23110054.758   123536491.139                    96083930.520    23110058.617  
  23110054.375  
  23169222.352   124026680.859                    96465193.728    23169226.402  
  23169221.309  
  22178836.039   118600200.511                    92244601.859    22178840.426  
  22178835.484  
  22511698.711   118299794.436    22511705.137    92181703.8374   22511705.191  
                
  24167802.570   127002686.443    24167811.785    98963158.1454   24167811.410  
                
  20997849.820   111930368.596                    87056945.134    20997853.949  
  20997849.555  
  22380622.945   117610977.893    22380628.848    91644952.3044                 
                
  20202644.359   108070532.714                                                  
  20202642.754  
  21288661.938   111872692.223    21288670.559    87173556.6904   21288670.477  
                
  19763553.391   105536317.421                    82083806.369    19763556.066  
  19763551.617  
  21836648.664   116934268.901                    90948870.279    21836651.691  
  21836647.906  
  24578184.211   129159276.090    24578193.559   100643645.5854   24578193.816  
                
  22046153.797   117683887.460                    91531926.781    22046155.902  
  22046151.980  
  22636469.172   120919972.861                    94048859.427    22636473.309  
  22636468.645  
  20382643.711   107111530.850    20382648.035    83463547.0164                 
                
 21  8 14 23 32 10.0000000  0 19G 6G12G17G15R 5R 3R24G14G 1R14G13R23
                                G24R13R 4G30R22R12G19
  24390680.570   128173887.626    24390689.441    99875793.0334   24390689.848  
                
  23910594.398   125651024.103    23910600.605    97909916.9114   23910600.734  
                
  21253887.711   111689945.279    21253893.590    87031157.6734   21253893.520  
                
  22382369.008   117620154.071    22382375.176    91652100.6574   22382375.105  
                
  23106627.930   123518172.847                    96069682.981    23106631.777  
  23106627.465  
  23176595.062   124066146.966                    96495889.581    23176599.035  
  23176593.926  
  22170849.961   118557495.070                    92211386.493    22170854.234  
  22170849.359  
  22516625.289   118325683.825    22516631.707    92201877.3894   22516631.758  
                
  24170573.328   127017247.036    24170582.598    98974504.0544   24170582.203  
                
  20993304.695   111906140.564                    87038101.092    20993308.809  
  20993304.438  
  22386762.516   117643241.525    22386768.387    91670092.8034                 
                
  20198811.016   108050026.900                                                  
  20198809.387  
  21284447.258   111850543.972    21284455.879    87156298.3164   21284455.801  
                
  19764720.570   105542550.030                    82088653.953    19764723.227  
  19764718.793  
  21839605.883   116950104.561                    90961186.905    21839608.852  
  21839605.121  
  24584665.695   129193336.371    24584675.035   100670186.0554   24584675.289  
                
  22051673.969   117713354.450                    91554845.561    22051676.117  
  22051672.152  
  22641818.906   120948550.090                    94071086.173    22641823.004  
  22641818.438  
  20381190.008   107103891.598    20381194.309    83457594.3494                 
                
 21  8 14 23 32 20.0000000  0 19G 6G12G17G15R 5R 3R24G14G 1R14G13R23
                                G24R13R 4G30R22R12G19
  24384364.508   128140696.455    24384373.363    99849929.7784   24384373.742  
                
  23904749.953   125620311.364    23904756.164    97885984.9254   23904756.285  
                
  21256790.961   111705201.913    21256796.828    87043045.9654   21256796.750  
                
  22386841.867   117643659.112    22386848.020    91670416.2754   22386847.973  
                
  23103215.656   123499932.412                    96055495.952    23103219.512  
  23103215.109  
  23183970.891   124105630.933                    96526599.328    23183974.945  
  23183969.828  
  22162869.094   118514818.083                    92178193.291    22162873.418  
  22162868.520  
  22521554.680   118351587.972    22521561.074    92222062.4264   22521561.145  
                
  24173356.258   127031871.644    24173365.574    98985899.8604   24173365.164  
                
  20988763.109   111881931.387                    87019271.731    20988767.227  
  20988762.848  
  22392908.273   117675537.674    22392914.086    91695258.6394                 
                
  20194993.430   108029605.350                                                  
  20194991.793  
  21280240.062   111828435.045    21280248.691    87139070.5814   21280248.625  
                
  19765895.070   105548821.819                    82093532.005    19765897.719  
  19765893.297  
  21842577.844   116966019.161                    90973564.921    21842580.762  
  21842577.117  
  24591150.070   129227412.072    24591159.402   100696738.5404   24591159.680  
                
  22057206.766   117742888.789                    91577816.706    22057208.934  
  22057204.996  
  22647172.094   120977145.693                    94093327.201    22647176.172  
  22647171.625  
  20379749.273   107096320.474    20379753.578    83451694.7624                 
                
 21  8 14 23 32 30.0000000  0 19G 6G12G17G15R 5R 3R24G14G 1R14G13R23
                                G24R13R 4G30R22R12G19
  24378049.461   128107510.727    24378058.379    99824070.7684   24378058.723  
                
  23898908.164   125589612.428    23898914.316    97862063.6844   23898914.422  
                
  21259703.852   111720509.239    21259709.707    87054973.7584   21259709.613  
                
  22391323.266   117667209.033    22391329.418    91688766.8534   22391329.367  
                
  23099817.953   123481769.764                    96041369.454    23099821.805  
  23099817.445  
  23191350.156   124145132.402                    96557322.685    23191354.152  
  23191349.043  
  22154893.453   118472169.583                    92145022.248    22154897.977  
  22154892.938  
  22526486.852   118377506.673    22526493.223    92242258.8214   22526493.297  
                
  24176151.352   127046560.057    24176160.648    98997345.3774   24176160.250  
                
  20984225.047   111857740.969                    87000456.979    20984229.184  
  20984224.762  
  22399060.195   117707866.245    22399066.000    91720449.7324                 
                
  20191191.562   108009267.925                                                  
  20191189.945  
  21276040.328   111806365.306    21276048.969    87121873.3834   21276048.891  
                
  19767076.875   105555132.538                    82098440.339    19767079.539  
  19767075.105  
  21845564.453   116982012.227                    90986003.982    21845567.320  
  21845563.766  
  24597637.359   129261503.006    24597646.652   100723302.8924   24597646.941  
                
  22062752.141   117772490.392                    91600840.182    22062754.402  
  22062750.363  
  22652528.695   121005759.475                    94115582.351    22652532.727  
  22652528.211  
  20378321.477   107088817.379    20378325.832    83445848.1914                 
                
 21  8 14 23 32 40.0000000  0 19G 6G12G17G15R 5R 3R24G14G 1R14G13R23
                                G24R13R 4G30R22R12G19
  24371735.539   128074330.763    24371744.484    99798216.2604   24371744.797  
                
  23893068.938   125558927.387    23893075.098    97838153.2844   23893075.223  
                
  21262626.414   111735867.398    21262632.262    87066941.1554   21262632.160  
                
  22395813.219   117690803.871    22395819.387    91707152.4404   22395819.344  
                
  23096434.867   123463685.077                    96027303.616    23096438.676  
  23096434.398  
  23198732.609   124184651.261                    96588059.602    23198736.629  
  23198731.543  
  22146923.070   118429549.840                    92111873.605    22146927.922  
  22146922.641  
  22531421.805   118403440.064    22531428.152    92262466.6474   22531428.230  
                
  24178958.648   127061312.392    24178967.891    99008840.7014   24178967.496  
                
  20979690.492   111833569.268                    86981656.769    20979694.621  
  20979690.203  
  22405218.273   117740227.222    22405224.098    91745666.0814                 
                
  20187405.469   107989014.861                                                  
  20187403.852  
  21271848.102   111784335.050    21271856.766    87104706.9574   21271856.672  
                
  19768265.969   105561482.256                    82103379.012    19768268.621  
  19768264.195  
  21848565.734   116998083.929                    90998504.213    21848568.598  
  21848565.023  
  24604127.609   129295609.288    24604136.844   100749879.2084   24604137.129  
                
  22068310.109   117802159.158                    91623915.890    22068312.445  
  22068308.293  
  22657888.695   121034391.424                    94137851.673    22657892.688  
  22657888.227  
  20376906.672   107081382.536    20376911.098    83440054.8184                 
                
 21  8 14 23 32 50.0000000  0 19G 6G12G17G15R 5R 3R24G14G 1R14G13R23
                                G24R13R 4G30R22R12G19
  24365422.633   128041156.568    24365431.652    99772366.2364   24365431.953  
                
  23887232.383   125528256.174    23887238.488    97814253.6374   23887238.652  
                
  21265558.625   111751276.230    21265564.469    87078948.0384   21265564.367  
                
  22400311.680   117714443.459    22400317.887    91725572.9094   22400317.824  
                
  23093066.367   123445678.483                    96013298.478    23093070.152  
  23093065.945  
  23206118.359   124224187.429                    96618809.951    23206122.324  
  23206117.270  
  22138958.086   118386958.988                    92078747.398    22138963.250  
  22138957.746  
  22536359.531   118429387.994    22536365.852    92282685.8224   22536365.953  
                
  24181778.078   127076128.487    24181787.270    99020385.7094   24181786.887  
                
  20975159.484   111809416.462                    86962871.259    20975163.629  
  20975159.199  
  22411382.500   117772620.457    22411388.305    91770907.5564                 
                
  20183635.180   107968846.335                                                  
  20183633.559  
  21267663.383   111762344.239    21267672.062    87087571.2604   21267671.977  
                
  19769462.414   105567871.178                    82108348.161    19769465.055  
  19769460.656  
  21851581.656   117014234.028                    91011065.381    21851584.535  
  21851580.945  
  24610620.750   129329730.790    24610629.922   100776467.3804   24610630.230  
                
  22073880.594   117831894.852                    91647043.664    22073883.008  
  22073878.824  
  22663252.055   121063041.516                    94160135.113    22663256.043  
  22663251.609  
  20375504.820   107074015.810    20375509.312    83434314.5234                 
                
 21  8 14 23 33  0.0000000  0 19G 6G12G17G15R 5R 3R24G14G 1R14G13R23
                                G24R13R 4G30R22R12G19
  24359110.859   128007988.252    24359119.926    99746520.8094   24359120.254  
                
  23881398.617   125497598.890    23881404.609    97790364.8454   23881404.781  
                
  21268500.453   111766735.653    21268506.293    87090994.3444   21268506.191  
                
  22404818.648   117738127.690    22404824.883    91744028.1584   22404824.797  
                
  23089712.445   123427749.820                    95999353.959    23089716.242  
  23089712.070  
  23213507.211   124263740.541                    96649573.479    23213511.160  
  23213506.102  
  22130998.742   118344397.382                    92045643.936    22131004.035  
  22130998.379  
  22541300.039   118455350.460    22541306.344    92302916.3204   22541306.445  
                
  24184609.617   127091008.264    24184618.781    99031980.3464   24184618.406  
                
  20970632.031   111785282.549                    86944100.430    20970636.160  
  20970631.770  
  22417552.828   117805045.755    22417558.613    91796174.0364                 
                
  20179880.664   107948762.196                                                  
  20179879.031  
  21263486.188   111740392.930    21263494.875    87070466.3464   21263494.797  
                
  19770666.195   105574299.238                    82113347.778    19770668.824  
  19770664.449  
  21854612.211   117030462.546                    91023687.568    21854615.105  
  21854611.504  
  24617116.805   129363867.457    24617125.895   100803067.3844   24617126.215  
                
  22079463.602   117861697.313                    91670223.351    22079466.043  
  22079461.820  
  22668618.750   121091709.745                    94182432.615    22668622.805  
  22668618.297  
  20374115.945   107066717.212    20374120.477    83428627.3054                 
                
 21  8 14 23 33 10.0000000  0 19G 6G12G17G15R 5R 3R24G14G 1R14G13R23
                                G24R13R 4G30R22R12G19
  24352800.305   127974826.130    24352809.391    99720680.2034   24352809.723  
                
  23875567.414   125466955.676    23875573.309    97766487.0204   23875573.535  
                
  21271451.930   111782245.766    21271457.781    87103080.1544   21271457.664  
                
  22409334.133   117761856.674    22409340.383    91762518.2754   22409340.273  
                
  23086373.125   123409899.361                    95985470.278    23086376.941  
  23086372.707  
  23220899.234   124303310.732                    96680350.305    23220903.227  
  23220898.117  
  22123044.922   118301864.997                    92012563.194    22123050.277  
  22123044.543  
  22546243.336   118481327.603    22546249.605    92323158.2374   22546249.703  
                
  24187453.336   127105951.903    24187462.449    99043624.7314   24187462.082  
                
  20966108.156   111761167.787                    86925344.516    20966112.285  
  20966107.910  
  22423729.289   117837503.199    22423735.062    91821465.5524                 
                
  20176142.016   107928762.995                                                  
  20176140.391  
  21259316.562   111718481.392    21259325.242    87053392.4244   21259325.172  
                
  19771877.297   105580766.425                    82118377.797    19771879.926  
  19771875.570  
  21857657.438   117046769.549                    91036370.775    21857660.348  
  21857656.742  
  24623615.656   129398019.412    24623624.812   100829679.2984   24623625.129  
                
  22085059.141   117891566.706                    91693455.091    22085061.613  
  22085057.379  
  22673988.891   121120396.355                    94204744.419    22673993.004  
  22673988.438  
  20372740.070   107059486.914    20372744.609    83422993.3044                 
                
 21  8 14 23 33 20.0000000  0 19G 6G12G17G15R 5R 3R24G14G 1R14G13R23
                                G24R13R 4G30R22R12G19
  24346490.953   127941670.074    24346500.012    99694844.3234   24346500.352  
                
  23869738.938   125436326.299    23869744.715    97742619.9794   23869744.938  
                
  21274412.977   111797806.176    21274418.844    87115205.1504   21274418.719  
                
  22413858.070   117785630.088    22413864.344    91781043.0134   22413864.215  
                
  23083048.469   123392127.297                    95971647.562    23083052.305  
  23083047.957  
  23228294.414   124342897.778                    96711140.204    23228298.430  
  23228293.305  
  22115096.562   118259361.791                    91979505.138    22115101.961  
  22115096.184  
  22551189.367   118507319.136    22551195.613    92343411.3864   22551195.715  
                
  24190309.117   127120959.095    24190318.223    99055318.6444   24190317.855  
                
  20961587.844   111737071.967                    86906603.316    20961591.969  
  20961587.629  
  22429911.812   117869992.535    22429917.562    91846781.9214                 
                
  20172419.211   107908848.450                                                  
  20172417.594  
  21255154.477   111696609.488    21255163.137    87036349.3804   21255163.078  
                
  19773095.711   105587272.633                    82123438.187    19773098.359  
  19773093.988  
  21860717.258   117063154.623                    91049114.712    21860720.172  
  21860716.621  
  24630117.375   129432186.367    24630126.582   100856302.9184   24630126.883  
                
  22090667.094   117921502.598                    91716738.566    22090669.629  
  22090665.355  
  22679362.406   121149100.992                    94227070.260    22679366.605  
  22679361.977  
  20371377.133   107052324.630    20371381.660    83417412.2934                 
                
 21  8 14 23 33 30.0000000  0 19G 6G12G17G15R 5R 3R24G14G 1R14G13R23
                                G24R13R 4G30R22R12G19
  24340182.758   127908520.412    24340191.840    99669013.4234   24340192.203  
                
  23863913.055   125405711.060    23863918.781    97718763.9644   23863919.027  
                
  21277383.633   111813417.122    21277389.527    87127369.5244   21277389.406  
                
  22418390.477   117809447.996    22418396.766    91799602.4294   22418396.633  
                
  23079738.469   123374433.613                    95957885.805    23079742.332  
  23079737.914  
  23235692.695   124382501.424                    96741943.036    23235696.758  
  23235691.602  
  22107153.789   118216888.519                    91946470.349    22107159.199  
  22107153.422  
  22556138.172   118533325.280    22556144.410    92363675.9104   22556144.520  
                
  24193177.016   127136030.002    24193186.145    99067062.2054   24193185.742  
                
  20957071.117   111712995.236                    86887876.977    20957075.227  
  20957070.910  
  22436100.406   117902513.811    22436106.156    91872123.1724                 
                
  20168712.297   107889018.956                                                  
  20168710.691  
  21250999.984   111674777.506    21251008.621    87019337.4394   21251008.590  
                
  19774321.523   105593818.373                    82128529.323    19774324.176  
  19774319.801  
  21863791.656   117079617.689                    91061919.326    21863794.562  
  21863791.023  
  24636622.008   129466368.526    24636631.246   100882938.3874   24636631.551  
                
  22096287.555   117951505.013                    91740073.774    22096290.113  
  22096285.816  
  22684739.344   121177823.929                    94249410.343    22684743.590  
  22684738.941  
  20370027.195   107045230.703    20370031.727    83411884.5554                 
                
 21  8 14 23 33 40.0000000  0 19G 6G12G17G15R 5R 3R24G14G 1R14G13R23
                                G24R13R 4G30R22R12G19
  24333875.781   127875377.243    24333884.910    99643187.5774   24333885.293  
                
  23858089.836   125375110.024    23858095.523    97694919.0064   23858095.820  
                
  21280363.891   111829078.495    21280369.832    87139573.1884   21280369.699  
                
  22422931.336   117833310.326    22422937.633    91818196.4554   22422937.512  
                
  23076443.211   123356818.589                    95944185.238    23076447.102  
  23076442.703  
  23243094.133   124422121.684                    96772758.817    23243098.172  
  23243093.023  
  22099216.695   118174445.284                    91913458.936    22099222.098  
  22099216.320  
  22561089.758   118559345.965    22561096.004    92383951.7654   22561096.109  
                
  24196057.023   127151164.557    24196066.191    99078855.3704   24196065.758  
                
  20952558.008   111688937.814                    86869165.642    20952562.102  
  20952557.824  
  22442295.055   117935066.875    22442300.812    91897489.1924                 
                
  20165021.297   107869274.544                                                  
  20165019.703  
  21246853.094   111652985.470    21246861.695    87002356.6344   21246861.688  
                
  19775554.664   105600403.258                    82133650.895    19775557.312  
  19775552.957  
  21866880.617   117096158.859                    91074784.684    21866883.547  
  21866879.941  
  24643129.430   129500565.777    24643138.809   100909585.6104   24643139.129  
                
  22101920.516   117981573.877                    91763460.665    22101923.027  
  22101918.734  
  22690119.695   121206565.087                    94271764.586    22690123.992  
  22690119.305  
  20368690.258   107038205.059    20368694.812    83406410.0334                 
                
 21  8 14 23 33 50.0000000  0 19G 6G12G17G15R 5R 3R24G14G 1R14G13R23
                                G24R13R 4G30R22R12G19
  24327570.070   127842240.477    24327579.227    99617366.7434   24327579.625  
                
  23852269.328   125344522.939    23852274.953    97671084.9324   23852275.270  
                
  21283353.688   111844790.041    21283359.672    87151815.9544   21283359.527  
                
  22427480.586   117857216.777    22427486.895    91836824.8564   22427486.770  
                
  23073162.648   123339281.975                    95930545.704    23073166.535  
  23073162.227  
  23250498.562   124461758.181                    96803587.211    23250502.609  
  23250497.477  
  22091285.133   118132031.700                    91880470.592    22091290.543  
  22091284.734  
  22566044.062   118585380.979    22566050.336    92404238.7824   22566050.430  
                
  24198949.117   127166362.506    24198958.270    99090697.9194   24198957.789  
                
  20948048.477   111664899.474                    86850469.166    20948052.570  
  20948048.305  
  22448495.703   117967651.472    22448501.477    91922879.8014                 
                
  20161346.188   107849615.228                                                  
  20161344.598  
  21242713.781   111631233.282    21242722.355    86985406.8784   21242722.371  
                
  19776795.180   105607027.499                    82138803.080    19776797.824  
  19776793.484  
  21869984.102   117112777.792                    91087710.503    21869987.027  
  21869983.461  
  24649639.859   129534777.949    24649649.184   100936244.4174   24649649.512  
                
  22107565.844   118011708.778                    91786898.936    22107568.293  
  22107564.043  
  22695503.484   121235324.355                    94294132.900    22695507.816  
  22695503.047  
  20367366.281   107031247.567    20367370.887    83400988.6214                 
                
 21  8 14 23 34  0.0000000  0 19G 6G12G17G15R 5R 3R24G14G 1R14G13R23
                                G24R13R 4G30R22R12G19
  24321265.555   127809110.333    24321274.777    99591551.0444   24321275.168  
                
  23846451.391   125313949.836    23846457.102    97647261.7444   23846457.387  
                
  21286353.055   111860551.863    21286359.078    87164097.8924   21286358.930  
                
  22432038.219   117881167.298    22432044.539    91855487.5994   22432044.410  
                
  23069896.789   123321823.935                    95916967.222    23069900.641  
  23069896.426  
  23257905.867   124501410.668                    96834428.027    23257910.047  
  23257904.863  
  22083359.188   118089648.067                    91847505.555    22083364.605  
  22083358.707  
  22571001.102   118611430.337    22571007.402    92424536.9744   22571007.461  
                
  24201853.266   127181623.830    24201862.328    99102589.8644   24201861.855  
                
  20943542.531   111640880.253                    86831787.564    20943546.613  
  20943542.355  
  22454702.344   118000267.574    22454708.125    91948294.9444                 
                
  20157687.000   107830041.028                                                  
  20157685.402  
  21238582.094   111609521.100    21238590.637    86968488.2894   21238590.668  
                
  19778043.000   105613690.830                    82143985.674    19778045.648  
  19778041.316  
  21873102.086   117129474.455                    91100696.818    21873105.016  
  21873101.449  
  24656153.180   129569004.995    24656162.355   100962914.8144   24656162.695  
                
  22113223.422   118041909.589                    91810388.450    22113225.875  
  22113221.660  
  22700890.656   121264101.717                    94316515.280    22700895.000  
  22700890.184  
  20366055.305   107024358.356    20366059.965    83395620.4134                 
                
 21  8 14 23 34 10.0000000  0 19G 6G12G17G15R 5R 3R24G14G 1R14G13R23
                                G24R13R 4G30R22R12G19
  24314962.383   127775986.980    24314971.609    99565740.6464   24314972.012  
                
  23840636.211   125283390.979    23840641.934    97623449.6684   23840642.203  
                
  21289361.977   111876363.868    21289368.031    87176418.9354   21289367.879  
                
  22436604.234   117905161.894    22436610.574    91874184.6854   22436610.430  
                
  23066645.664   123304444.704                    95903450.077    23066649.527  
  23066645.312  
  23265316.258   124541079.054                    96865281.196    23265320.469  
  23265315.219  
  22075438.828   118047294.721                    91814564.070    22075444.324  
  22075438.336  
  22575960.875   118637494.074    22575967.184    92444846.3894   22575967.223  
                
  24204769.500   127196948.631    24204778.445    99114531.2704   24204778.016  
                
  20939040.203   111616880.384                    86813120.996    20939044.277  
  20939040.004  
  22460914.953   118032915.183    22460920.793    91973734.6234                 
                
  20154043.781   107810552.260                                                  
  20154042.188  
  21234458.039   111587849.077    21234466.551    86951600.9994   21234466.605  
                
  19779298.219   105620393.501                    82149198.860    19779300.863  
  19779296.574  
  21876234.578   117146248.816                    91113743.546    21876237.527  
  21876233.949  
  24662669.242   129603246.966    24662678.379   100989596.8784   24662678.734  
                
  22118893.383   118072176.292                    91833929.235    22118895.816  
  22118891.590  
  22706281.242   121292897.230                    94338911.808    22706285.582  
  22706280.762  
  20364757.336   107017537.465    20364762.031    83390305.4334                 
                
 21  8 14 23 34 20.0000000  0 19G 6G12G17G15R 5R 3R24G14G 1R14G13R23
                                G24R13R 4G30R22R12G19
  24308660.586   127742870.487    24308669.750    99539935.5984   24308670.164  
                
  23834823.758   125252846.300    23834829.457    97599648.6274   23834829.703  
                
  21292380.422   111892225.924    21292386.512    87188778.9784   21292386.348  
                
  22441178.594   117929200.308    22441184.930    91892915.9144   22441184.781  
                
  23063409.234   123287144.292                    95889994.172    23063413.184  
  23063408.766  
  23272729.609   124580763.275                    96896146.713    23272733.828  
  23272728.586  
  22067524.180   118004971.770                    91781646.213    22067529.711  
  22067523.684  
  22580923.375   118663572.131    22580929.691    92465166.9394   22580929.719  
                
  24207697.781   127212336.730    24207706.652    99126521.9964   24207706.207  
                
  20934541.508   111592899.749                    86794469.387    20934545.559  
  20934541.285  
  22467133.523   118065594.044    22467139.398    91999198.6674                 
                
  20150416.523   107791148.840                                                  
  20150414.941  
  21230341.633   111566217.222    21230350.121    86934745.0074   21230350.188  
                
  19780560.758   105627135.359                    82154442.531    19780563.391  
  19780559.145  
  21879381.539   117163100.671                    91126850.532    21879384.496  
  21879380.883  
  24669188.125   129637503.787    24669197.234   101016290.5034   24669197.582  
                
  22124575.633   118102508.640                    91857521.055    22124578.133  
  22124573.797  
  22711675.242   121321710.841                    94361322.420    22711679.547  
  22711674.754  
  20363472.352   107010784.824    20363477.059    83385043.6264                 
                
 21  8 14 23 34 30.0000000  0 19G 6G12G17G15R 5R 3R24G14G 1R14G13R23
                                G24R13R 4G30R22R12G19
  24302360.086   127709760.857    24302369.215    99514135.8914   24302369.625  
                
  23829013.992   125222315.742    23829019.691    97575858.5654   23829019.875  
                
  21295408.352   111908137.824    21295414.469    87201177.8604   21295414.293  
                
  22445761.273   117953282.467    22445767.586    91911681.2324   22445767.469  
                
  23060187.539   123269922.701                    95876599.560    23060191.523  
  23060187.000  
  23280145.797   124620462.904                    96927024.211    23280150.070  
  23280144.805  
  22059615.344   117962679.367                    91748752.116    22059620.816  
  22059614.773  
  22585888.570   118689664.358    22585894.887    92485498.5394   22585894.902  
                
  24210638.070   127227787.976    24210646.863    99138561.9424   24210646.402  
                
  20930046.406   111568938.375                    86775832.778    20930050.457  
  20930046.152  
  22473358.031   118098303.993    22473363.922    92024686.9514                 
                
  20146805.234   107771830.884                                                  
  20146803.641  
  21226232.867   111544625.502    21226241.344    86917920.2964   21226241.414  
                
  19781830.625   105633916.280                    82159716.571    19781833.273  
  19781829.027  
  21882542.953   117180029.836                    91140017.676    21882545.867  
  21882542.250  
  24675709.789   129671775.244    24675718.867   101042995.5204   24675719.195  
                
  22130270.086   118132906.517                    91881163.832    22130272.656  
  22130268.293  
  22717072.578   121350542.415                    94383747.006    22717076.898  
  22717072.090  
  20362200.344   107004100.386    20362205.043    83379834.9724                 
                
 21  8 14 23 34 40.0000000  0 19G 6G12G17G15R 5R 3R24G14G 1R14G13R23
                                G24R13R 4G30R22R12G19
  24296061.023   127676658.504    24296070.070    99488341.8474   24296070.465  
                
  23823206.867   125191799.425    23823212.621    97552079.6294   23823212.805  
                
  21298445.789   111924099.724    21298451.918    87213615.7134   21298451.738  
                
  22450352.297   117977408.530    22450358.594    91930480.7684   22450358.492  
                
  23056980.672   123252780.095                    95863266.402    23056984.613  
  23056980.191  
  23287564.906   124660178.272                    96957913.949    23287569.207  
  23287563.926  
  22051712.242   117920417.609                    91715881.871    22051717.680  
  22051711.613  
  22590856.492   118715770.973    22590862.754    92505841.3514   22590862.805  
                
  24213590.422   127243302.605    24213599.133    99150651.2604   24213598.672  
                
  20925554.977   111544996.514                    86757211.317    20925559.027  
  20925554.703  
  22479588.469   118131045.142    22479594.383    92050199.5444                 
                
  20143209.984   107752598.682                                                  
  20143208.406  
  21222131.797   111523074.259    21222140.258    86901127.1134   21222140.348  
                
  19783107.883   105640736.748                    82165021.384    19783110.543  
  19783106.309  
  21885718.805   117197036.403                    91153245.000    21885721.715  
  21885718.074  
  24682234.219   129706061.608    24682243.336   101069712.1684   24682243.664  
                
  22135976.852   118163370.019                    91904857.659    22135979.504  
  22135975.145  
  22722473.297   121379392.308                    94406185.832    22722477.664  
  22722472.832  
  20360941.344   106997484.328    20360946.027    83374679.6044                 
                
 21  8 14 23 34 50.0000000  0 19G 6G12G17G15R 5R 3R24G14G 1R14G13R23
                                G24R13R 4G30R22R12G19
  24289763.328   127643563.785    24289772.398    99462553.7434   24289772.785  
                
  23817402.492   125161297.757    23817408.410    97528312.1094   23817408.543  
                
  21301492.797   111940111.876    21301498.934    87226092.7154   21301498.762  
                
  22454951.727   118001578.652    22454958.004    91949314.6294   22454957.895  
                
  23053788.680   123235716.927                    95849995.077    23053792.562  
  23053788.270  
  23294986.961   124699909.264                    96988815.799    23294991.336  
  23294986.004  
  22043815.039   117878187.197                    91683035.994    22043820.410  
  22043814.316  
  22595827.219   118741892.235    22595833.418    92526195.5924   22595833.500  
                
  24216554.875   127258880.793    24216563.527    99162790.1124   24216563.055  
                
  20921067.273   111521074.549                    86738605.364    20921071.324  
  20921066.984  
