     2.11           OBSERVATION DATA    M (MIXED)           RINEX VERSION / TYPE
EFT-CORS.RU                             20210817 144853 UTC PGM / RUN BY / DATE 
MDNG                                                        MARKER NAME         
                                                            MARKER NUMBER       
MDNG                EFT-CORS.RU                             OBSERVER / AGENCY   
0                   TRIMBLE BD970       2.0                 REC # / TYPE / VERS 
0                   UNKNOWN EXT NONE                        ANT # / TYPE        
  3463911.2830  3030468.2400  4402179.3760                  APPROX POSITION XYZ 
        0.0000        0.0000        0.0000                  ANTENNA: DELTA H/E/N
     1     1                                                WAVELENGTH FACT L1/2
     6    C1    L1    P2    L2    C2    P1                  # / TYPES OF OBSERV 
    10.000                                                  INTERVAL            
  2021     8    16    12    30    0.0000000     GPS         TIME OF FIRST OBS   
  2021     8    16    13    30    0.0000000     GPS         TIME OF LAST OBS    
     0                                                      RCV CLOCK OFFS APPL 
                                                            END OF HEADER       
 21  8 16 12 30  0.0000000  0 17R16G17R 1R24R22G32G31G 1R23R 9G22G 8
                                G21R 8G10G 3R 7
  23386656.984   124927335.913                    97165722.634    23386659.531  
  23386656.238  
  24489152.344   128691360.693    24489160.156   100279018.3334   24489160.109  
                
  21642189.406   115689925.792                    89981053.908    21642195.773  
  21642188.711  
  21744266.578   116276394.708                    90437192.585    21744271.344  
  21744265.777  
  21819222.016   116472484.293                    90589728.934    21819225.883  
  21819220.270  
  21993717.406   115577798.366    21993726.207    90060678.3544   21993726.637  
                
  22328836.867   117338861.941    22328844.277    91432937.4404   22328844.449  
                
  20446703.398   107448189.252    20446713.418    83725904.3894   20446712.945  
                
  19579157.766   104735311.454                                                  
  19579156.227  
  22970624.477   122661848.656                    95403663.058    22970628.172  
  22970623.484  
  21284224.180   111849386.076    21284228.527    87155397.3104                 
                
  24207402.133   127210714.040    24207413.488    99125279.0384   24207413.996  
                
  20911612.141   109891288.730    20911618.398    85629611.4394                 
                
  19556994.633   104726851.869                    81454232.482    19556997.270  
  19556993.855  
  24436856.734   128416552.524    24436868.023   100064895.8594   24436867.469  
                
  22322357.875   117304801.896    22322367.047    91406392.7144   22322367.336  
                
  21056980.352   112719708.274                    87670882.469    21056985.418  
  21056978.824  
 21  8 16 12 30 10.0000000  0 17R16G17R 1R24R22G32G31G 1R23R 9G22G 8
                                G21R 8G10G 3R 7
  23388273.047   124935968.595                    97172436.927    23388275.543  
  23388272.324  
  24485545.773   128672408.094    24485553.598   100264250.0874   24485553.531  
                
  21637161.602   115663049.325                    89960149.990    21637168.000  
  21637160.934  
  21738036.281   116243078.573                    90411280.030    21738041.074  
  21738035.477  
  21827012.383   116514069.521                    90622072.967    21827016.180  
  21827010.613  
  21998459.438   115602717.966    21998468.246    90080096.2184   21998468.684  
                
  22323998.172   117313434.420    22324005.535    91413123.7944   22324005.727  
                
  20444166.023   107434855.312    20444176.074    83715514.3044   20444175.590  
                
  19578567.531   104732154.154                                                  
  19578565.969  
  22966536.500   122640019.318                    95386684.668    22966540.180  
  22966535.488  
  21281356.594   111834316.847    21281360.949    87143655.0634                 
                
  24213722.727   127243929.112    24213734.152    99151160.8844   24213734.637  
                
  20911589.516   109891169.855    20911595.758    85629518.8054                 
                
  19556827.828   104725958.630                    81453537.742    19556830.473  
  19556827.055  
  24442284.531   128445075.621    24442295.742   100087121.6344   24442295.195  
                
  22317707.031   117280361.606    22317716.203    91387348.3334   22317716.492  
                
  21062086.867   112747043.927                    87692143.519    21062091.953  
  21062085.355  
 21  8 16 12 30 20.0000000  0 17R16G17R 1R24R22G32G31G 1R23R 9G22G 8
                                G21R 8G10G 3R 7
  23389904.539   124944683.643                    97179215.317    23389907.020  
  23389903.785  
  24481948.555   128653504.538    24481956.387   100249520.0564   24481956.301  
                
  21632139.930   115636205.594                    89939271.539    21632146.352  
  21632139.281  
  21731816.102   116209816.498                    90385409.540    21731820.914  
  21731815.336  
  21834809.773   116555692.319                    90654446.239    21834813.574  
  21834808.008  
  22003207.492   115627669.133    22003216.309    90099538.6824   22003216.754  
                
  22319168.320   117288053.422    22319175.656    91393346.4094   22319175.859  
                
  20441639.469   107421578.158    20441649.543    83705168.4714   20441649.047  
                
  19577994.781   104729090.340                                                  
  19577993.211  
  22962460.086   122618251.609                    95369754.269    22962463.801  
  22962459.082  
  21278494.031   111819274.006    21278498.391    87131933.3714                 
                
  24220044.688   127277151.479    24220056.207    99177048.4114   24220056.691  
                
  20911576.227   109891099.979    20911582.449    85629464.3524                 
                
  19556669.930   104725113.068                    81452880.078    19556672.574  
  19556669.164  
  24447714.062   128473607.815    24447725.184   100109354.5174   24447724.664  
                
  22313059.773   117255940.121    22313068.996    91368318.6204   22313069.246  
                
  21067197.125   112774399.600                    87713420.139    21067202.238  
  21067195.605  
 21  8 16 12 30 30.0000000  0 17R16G17R 1R24R22G32G31G 1R23R 9G22G 8
                                G21R 8G10G 3R 7
  23391551.406   124953480.649                    97186057.432    23391553.832  
  23391550.633  
  24478360.664   128634649.995    24478368.496   100234828.1954   24478368.426  
                
  21627124.289   115609394.125                    89918418.190    21627130.750  
  21627123.664  
  21725606.070   116176608.747                    90359581.326    21725610.941  
  21725605.332  
  21842614.133   116597352.529                    90686848.607    21842617.949  
  21842612.398  
  22007961.492   115652651.565    22007970.332    90119005.5134   22007970.770  
                
  22314347.305   117262718.841    22314354.625    91373605.1894   22314354.840  
                
  20439123.680   107408357.617    20439133.773    83694866.7514   20439133.266  
                
  19577439.531   104726120.117                                                  
  19577437.961  
  22958395.219   122596545.473                    95352871.724    22958398.926  
  22958394.203  
  21275636.453   111804257.341    21275640.820    87120232.0864                 
                
  24226368.023   127310381.014    24226379.609    99202941.5264   24226380.094  
                
  20911572.227   109891078.945    20911578.418    85629447.9544                 
                
  19556520.836   104724314.654                    81452259.094    19556523.477  
  19556520.070  
  24453145.297   128502148.916    24453156.348   100131594.3204   24453155.820  
                
  22308416.062   117231537.270    22308425.336    91349303.4304   22308425.562  
                
  21072311.102   112801775.148                    87734712.230    21072316.219  
  21072309.605  
 21  8 16 12 30 40.0000000  0 17R16G17R 1R24R22G32G31G 1R23R 9G22G 8
                                G21R 8G10G 3R 7
  23393213.617   124962359.821                    97192963.459    23393215.992  
  23393212.840  
  24474782.148   128615844.702    24474789.973   100220174.7114   24474789.906  
                
  21622114.789   115582615.522                    89897590.398    21622121.285  
  21622114.164  
  21719406.227   116143455.405                    90333795.400    21719411.102  
  21719405.488  
  21850425.594   116639050.130                    90719280.059    21850429.324  
  21850423.801  
  22012721.461   115677665.403    22012730.348    90138496.8124   22012730.777  
                
  22309535.172   117237430.949    22309542.523    91353900.3704   22309542.727  
                
  20436618.719   107395193.978    20436628.820    83684609.3734   20436628.316  
                
  19576901.781   104723243.526                                                  
  19576900.215  
  22954341.953   122574901.324                    95336037.432    22954345.707  
  22954340.969  
  21272783.898   111789267.071    21272788.273    87108551.3554                 
                
  24232692.688   127343617.505    24232704.344    99228840.0524   24232704.816  
                
  20911577.570   109891107.029    20911583.734    85629469.8354                 
                
  19556380.602   104723563.700                    81451675.019    19556383.234  
  19556379.848  
  24458578.250   128530699.054    24458589.273   100153841.1594   24458588.730  
                
  22303775.945   117207153.273    22303785.250    91330302.9134   22303785.461  
                
  21077428.773   112829170.489                    87756019.726    21077433.902  
  21077427.293  
 21  8 16 12 30 50.0000000  0 17R16G17R 1R24R22G32G31G 1R23R 9G22G 8
                                G21R 8G10G 3R 7
  23394891.094   124971320.433                    97199932.832    23394893.504  
  23394890.355  
  24471212.891   128597088.010    24471220.684   100205559.1134   24471220.602  
                
  21617111.289   115555868.964                    89876787.526    21617117.770  
  21617110.641  
  21713216.477   116110356.067                    90308051.483    21713221.359  
  21713215.750  
  21858243.734   116680784.388                    90751740.013    21858247.602  
  21858242.062  
  22017487.273   115702709.917    22017496.203    90158012.0024   22017496.613  
                
  22304731.836   117212189.213    22304739.195    91334231.4914   22304739.391  
                
  20434124.477   107382086.635    20434134.590    83674395.8574   20434134.094  
                
  19576381.430   104720459.987                                                  
  19576379.867  
  22950300.203   122553318.560                    95319250.847    22950303.988  
  22950299.254  
  21269936.250   111774302.604    21269940.633    87096890.7314                 
                
  24239018.562   127376860.275    24239030.270    99254743.4794   24239030.738  
                
  20911592.148   109891183.587    20911598.297    85629529.4834                 
                
  19556249.094   104722859.442                    81451127.262    19556251.719  
  19556248.348  
  24464012.805   128559257.598    24464023.852   100176094.5554   24464023.273  
                
  22299139.289   117182787.503    22299148.617    91311316.5994   22299148.824  
                
  21082550.031   112856584.971                    87777342.084    21082555.164  
  21082548.555  
 21  8 16 12 31  0.0000000  0 17R16G17R 1R24R22G32G31G 1R23R 9G22G 8
                                G21R 8G10G 3R 7
  23396583.828   124980362.540                    97206965.566    23396586.297  
  23396583.125  
  24467652.930   128578380.168    24467660.715   100190981.5624   24467660.621  
                
  21612113.766   115529154.528                    89856009.657    21612120.262  
  21612113.129  
  21707036.906   116077311.079                    90282349.816    21707041.773  
  21707036.199  
  21866068.727   116722555.121                    90784228.349    21866072.691  
  21866067.141  
  22022258.938   115727785.187    22022267.914    90177551.1634   22022268.309  
                
  22299937.359   117186993.998    22299944.711    91314598.8584   22299944.910  
                
  20431641.000   107369035.855    20431651.121    83664226.4184   20431650.621  
                
  19575878.516   104717769.700                                                  
  19575876.965  
  22946269.984   122531797.415                    95302512.192    22946273.789  
  22946269.059  
  21267093.562   111759364.144    21267097.941    87085250.3774                 
                
  24245345.633   127410109.586    24245357.426    99280651.9924   24245357.871  
                
  20911615.969   109891308.741    20911622.105    85629626.9994                 
                
  19556126.312   104722201.922                    81450615.869    19556128.938  
  19556125.547  
  24469448.984   128587824.720    24469460.027   100198354.6264   24469459.438  
                
  22294506.148   117158440.153    22294515.488    91292344.6464   22294515.699  
                
  21087674.898   112884018.694                    87798679.419    21087680.023  
  21087673.438  
 21  8 16 12 31 10.0000000  0 17R16G17R 1R24R22G32G31G 1R23R 9G22G 8
                                G21R 8G10G 3R 7
  23398291.875   124989486.436                    97214061.929    23398294.352  
  23398291.238  
  24464102.273   128559721.353    24464110.109   100176442.2454   24464109.980  
                
  21607122.328   115502472.558                    89835257.027    21607128.863  
  21607121.652  
  21700867.531   116044320.580                    90256690.531    21700872.395  
  21700866.867  
  21873900.711   116764362.521                    90816745.186    21873904.648  
  21873899.066  
  22027036.461   115752891.245    22027045.469    90197114.3244   22027045.852  
                
  22295151.789   117161845.621    22295159.141    91295002.7374   22295159.352  
                
  20429168.305   107356041.826    20429178.438    83654101.2024   20429177.953  
                
  19575393.055   104715172.854                                                  
  19575391.512  
  22942251.383   122510338.301                    95285821.798    22942255.207  
  22942250.449  
  21264255.828   111744451.795    21264260.211    87073630.3694                 
                
  24251673.953   127443365.211    24251685.711    99306565.4484   24251686.164  
                
  20911649.070   109891482.670    20911655.203    85629762.5294                 
                
  19556012.312   104721591.491                    81450141.087    19556014.938  
  19556011.543  
  24474886.789   128616400.535    24474897.867   100220621.4574   24474897.277  
                
  22289876.531   117134111.374    22289885.844    91273387.1644   22289886.074  
                
  21092803.359   112911471.709                    87820031.759    21092808.496  
  21092801.914  
 21  8 16 12 31 20.0000000  0 17R16G17R 1R24R22G32G31G 1R23R 9G22G 8
                                G21R 8G10G 3R 7
  23400015.203   124998691.942                    97221221.771    23400017.645  
  23400014.598  
  24460560.992   128541111.776    24460568.887   100161941.2964   24460568.711  
                
  21602136.922   115475822.959                    89814529.604    21602143.512  
  21602136.254  
  21694708.430   116011384.995                    90231073.982    21694713.297  
  21694707.816  
  21881739.539   116806206.296                    90849290.322    21881743.406  
  21881737.867  
  22031819.836   115778028.061    22031828.867    90216701.4494   22031829.242  
                
  22290375.102   117136743.996    22290382.477    91275443.0494   22290382.668  
                
  20426706.438   107343104.621    20426716.574    83644020.2634   20426716.094  
                
  19574925.070   104712669.426                                                  
  19574923.520  
  22938244.406   122488941.344                    95269179.732    22938248.242  
  22938243.523  
  21261423.086   111729565.612    21261427.465    87062030.7484                 
                
  24258003.477   127476627.108    24258015.207    99332483.7844   24258015.711  
                
  20911691.461   109891705.445    20911697.586    85629936.1124                 
                
  19555907.094   104721028.014                    81449702.831    19555909.715  
  19555906.320  
  24480326.266   128644985.039    24480337.352   100242895.0694   24480336.770  
                
  22285250.453   117109801.226    22285259.738    91254444.1894   22285259.977  
                
  21097935.461   112938944.182                    87841399.248    21097940.605  
  21097934.031  
 21  8 16 12 31 30.0000000  0 17R16G17R 1R24R22G32G31G 1R23R 9G22G 8
                                G21R 8G10G 3R 7
  23401753.805   125007979.068                    97228445.106    23401756.262  
  23401753.207  
  24457029.078   128522551.428    24457036.992   100147478.6874   24457036.789  
                
  21597157.609   115449205.751                    89793827.328    21597164.164  
  21597156.941  
  21688559.570   115978504.167                    90205500.005    21688564.418  
  21688559.020  
  21889585.148   116848086.489                    90881863.790    21889588.988  
  21889583.469  
  22036609.047   115803195.556    22036618.102    90236312.4724   22036618.480  
                
  22285607.344   117111689.277    22285614.734    91255919.9014   22285614.898  
                
  20424255.398   107330224.305    20424265.551    83633983.6554   20424265.066  
                
  19574474.562   104710259.544                                                  
  19574473.012  
  22934249.086   122467606.573                    95252586.065    22934252.953  
  22934248.215  
  21258595.320   111714705.623    21258599.680    87050451.5374                 
                
  24264334.266   127509895.316    24264345.941    99358407.0224   24264346.484  
                
  20911743.141   109891976.989    20911749.250    85630147.7034                 
                
  19555810.594   104720511.289                    81449300.932    19555813.227  
  19555809.828  
  24485767.391   128673578.205    24485778.492   100265175.4334   24485777.930  
                
  22280627.930   117085509.710    22280637.211    91235515.7424   22280637.445  
                
  21103071.125   112966435.766                    87862781.571    21103076.273  
  21103069.688  
 21  8 16 12 31 40.0000000  0 17R16G17R 1R24R22G32G31G 1R23R 9G22G 8
                                G21R 8G10G 3R 7
  23403507.656   125017347.699                    97235731.809    23403510.098  
  23403507.090  
  24453506.516   128504040.236    24453514.391   100133054.3774   24453514.188  
                
  21592184.398   115422621.055                    89773150.331    21592190.887  
  21592183.730  
  21682420.992   115945678.368                    90179968.826    21682425.832  
  21682420.492  
  21897437.398   116890002.743                    90914465.309    21897441.312  
  21897435.805  
  22041404.062   115828393.526    22041413.133    90255947.2504   22041413.504  
                
  22280848.500   117086681.454    22280855.926    91236433.3124   22280856.059  
                
  20421815.164   107317400.841    20421825.332    83623991.3434   20421824.852  
                
  19574041.500   104707942.999                                                  
  19574039.949  
  22930265.430   122446334.085                    95236040.801    22930269.285  
  22930264.555  
  21255772.523   111699871.773    21255776.875    87038892.6994                 
                
  24270666.094   127543169.371    24270677.828    99384334.8334   24270678.367  
                
  20911804.094   109892297.303    20911810.172    85630397.2954                 
                
  19555722.828   104720041.301                    81448935.387    19555725.453  
  19555722.059  
  24491210.148   128702179.937    24491221.242   100287462.4594   24491220.688  
                
  22276008.930   117061236.761    22276018.207    91216601.7604   22276018.445  
                
  21108210.359   112993946.486                    87884178.808    21108215.523  
  21108208.926  
 21  8 16 12 31 50.0000000  0 17R16G17R 1R24R22G32G31G 1R23R 9G22G 8
                                G21R 8G10G 3R 7
  23405276.812   125026798.012                    97243082.056    23405279.273  
  23405276.320  
  24449993.398   128485578.623    24450001.242   100118668.7244   24450001.086  
                
  21587217.320   115396069.107                    89752498.814    21587223.766  
  21587216.672  
  21676292.766   115912907.906                    90154480.715    21676297.586  
  21676292.281  
  21905296.500   116931955.276                    90947095.047    21905300.438  
  21905294.934  
  22046204.938   115853622.253    22046214.023    90275605.9904   22046214.402  
                
  22276098.695   117061721.056    22276106.168    91216983.6654   22276106.258  
                
  20419385.836   107304634.627    20419396.016    83614043.6434   20419395.531  
                
  19573626.008   104705720.363                                                  
  19573624.453  
  22926293.523   122425124.290                    95219544.318    22926297.355  
  22926292.629  
  21252954.781   111685064.383    21252959.133    87027354.4774                 
                
  24276999.219   127576449.846    24277010.980    99410267.6374   24277011.516  
                
  20911874.406   109892666.748    20911880.457    85630685.1734                 
                
  19555643.828   104719618.230                    81448606.340    19555646.449  
  19555643.055  
  24496654.602   128730790.537    24496665.699   100309756.4184   24496665.156  
                
  22271393.539   117036982.730    22271402.816    91197702.5284   22271403.059  
                
  21113353.180   113021476.403                    87905590.958    21113358.348  
  21113351.719  
 21  8 16 12 32  0.0000000  0 17R16G17R 1R24R22G32G31G 1R23R 9G22G 8
                                G21R 8G10G 3R 7
  23407061.156   125036329.583                    97250495.479    23407063.707  
  23407060.684  
  24446489.641   128467166.251    24446497.426   100104321.4274   24446497.301  
                
  21582256.258   115369549.386                    89731872.376    21582262.707  
  21582255.621  
  21670174.844   115880192.592                    90129035.487    21670179.633  
  21670174.359  
  21913162.320   116973943.653                    90979752.633    21913166.309  
  21913160.719  
  22051011.562   115878881.252    22051020.676    90295288.3304   22051021.043  
                
  22271357.852   117036807.749    22271365.340    91197570.7044   22271365.414  
                
  20416967.344   107291925.358    20416977.523    83604140.3214   20416977.039  
                
  19573227.977   104703591.184                                                  
  19573226.422  
  22922333.328   122403977.105                    95203096.516    22922337.117  
  22922332.422  
  21250141.992   111670283.110    21250146.352    87015836.6064                 
                
  24283333.383   127609735.969    24283345.176    99436204.8444   24283345.703  
                
  20911953.992   109893084.995    20911960.016    85631011.0784                 
                
  19555573.531   104719241.815                    81448313.564    19555576.152  
  19555572.758  
  24502100.656   128759409.615    24502111.719   100332056.9734   24502111.211  
                
  22266781.688   117012747.287    22266790.984    91178817.7804   22266791.211  
                
  21118499.539   113049025.304                    87927017.863    21118504.719  
  21118498.059  
 21  8 16 12 32 10.0000000  0 17R16G17R 1R24R22G32G31G 1R23R 9G22G 8
                                G21R 8G10G 3R 7
  23408860.766   125045942.721                    97257972.377    23408863.383  
  23408860.328  
  24442995.297   128448803.374    24443003.062   100090012.6924   24443002.969  
                
  21577301.305   115343062.212                    89711271.243    21577307.707  
  21577300.664  
  21664067.328   115847532.988                    90103633.589    21664072.113  
  21664066.828  
  21921034.828   117015967.881                    91012438.114    21921038.930  
  21921033.242  
  22055823.969   115904170.600    22055833.117    90314994.3144   22055833.465  
                
  22266626.008   117011941.706    22266633.488    91178194.5714   22266633.562  
                
  20414559.727   107279273.244    20414569.898    83594281.5284   20414569.414  
                
  19572847.461   104701555.660                                                  
  19572845.902  
  22918384.859   122382892.617                    95186697.471    22918388.633  
  22918383.934  
  21247334.219   111655528.149    21247338.586    87004339.2334                 
                
  24289668.633   127643027.651    24289680.398    99462146.4034   24289680.930  
                
  20912042.906   109893552.189    20912048.906    85631375.1194                 
                
  19555511.953   104718912.065                    81448057.096    19555514.570  
  19555511.191  
  24507548.367   128788037.343    24507559.383   100354364.2724   24507558.891  
                
  22262173.406   116988530.579    22262182.719    91159947.6264   22262182.930  
                
  21123649.398   113076592.868                    87948459.296    21123654.574  
  21123647.910  
 21  8 16 12 32 20.0000000  0 17R16G17R 1R24R22G32G31G 1R23R 9G22G 8
                                G21R 8G10G 3R 7
  23410675.609   125055637.230                    97265512.562    23410678.266  
  23410675.191  
  24439510.352   128430489.912    24439518.082   100075742.4964   24439518.039  
                
  21572352.406   115316607.535                    89690695.392    21572358.793  
  21572351.785  
  21657970.188   115814928.860                    90078274.811    21657974.957  
  21657969.680  
  21928913.844   117058027.396                    91045151.037    21928918.164  
  21928912.387  
  22060642.117   115929490.200    22060651.273    90334723.8564   22060651.613  
                
  22261903.188   116987123.168    22261910.684    91158855.4574   22261910.738  
                
  20412162.984   107266678.305    20412173.141    83584467.2934   20412172.668  
                
  19572484.445   104699613.785                                                  
  19572482.875  
  22914448.195   122361871.061                    95170347.392    22914451.949  
  22914447.246  
  21244531.445   111640799.490    21244535.824    86992862.3524                 
                
  24296005.023   127676325.370    24296016.742    99488092.6354   24296017.277  
                
  20912141.125   109894068.329    20912147.102    85631777.3024                 
                
  19555459.062   104718628.875                    81447836.836    19555461.680  
  19555458.293  
  24512997.680   128816673.647    24513008.652   100376678.2574   24513008.207  
                
  22257568.672   116964332.586    22257577.980    91141092.0524   22257578.207  
                
  21128802.773   113104179.317                    87969915.425    21128807.961  
  21128801.281  
 21  8 16 12 32 30.0000000  0 17R16G17R 1R24R22G32G31G 1R23R 9G22G 8
                                G21R 8G10G 3R 7
  23412505.703   125065413.257                    97273116.130    23412508.379  
  23412505.309  
  24436034.898   128412226.265    24436042.637   100061511.0914   24436042.602  
                
  21567409.609   115290185.551                    89670144.997    21567415.996  
  21567409.000  
  21651883.516   115782380.682                    90052959.578    21651888.281  
  21651883.008  
  21936799.719   117100122.717                    91077891.811    21936804.090  
  21936798.277  
  22065466.062   115954840.171    22065475.227    90354477.0774   22065475.582  
                
  22257189.469   116962352.459    22257196.969    91139553.6274   22257197.031  
                
  20409777.180   107254140.825    20409787.324    83574697.8294   20409786.867  
                
  19572138.977   104697765.795                                                  
  19572137.398  
  22910523.344   122340912.686                    95154046.463    22910527.125  
  22910522.363  
  21241733.719   111626097.350    21241738.117    86981406.1494                 
                
  24302342.461   127709628.853    24302354.223    99514043.3564   24302354.758  
                
  20912248.695   109894633.590    20912254.656    85632217.7654                 
                
  19555414.930   104718392.514                    81447653.000    19555417.559  
  19555414.148  
  24518448.672   128845318.718    24518459.625   100398999.0634   24518459.195  
                
  22252967.555   116940153.582    22252976.875    91122251.2834   22252977.109  
                
  21133959.727   113131784.841                    87991386.378    21133964.906  
  21133958.273  
 21  8 16 12 32 40.0000000  0 17R16G17R 1R24R22G32G31G 1R23R 9G22G 8
                                G21R 8G10G 3R 7
  23414351.031   125075270.499                    97280782.873    23414353.723  
  23414350.613  
  24432568.852   128394012.108    24432576.578   100047318.2274   24432576.512  
                
  21562472.859   115263795.912                    89649619.735    21562479.258  
  21562472.211  
  21645807.273   115749888.311                    90027687.738    21645812.031  
  21645806.754  
  21944692.195   117142253.245                    91110659.993    21944696.570  
  21944690.742  
  22070295.703   115980220.112    22070304.895    90374253.6424   22070305.234  
                
  22252484.820   116937629.379    22252492.305    91120288.9034   22252492.379  
                
  20407402.258   107241660.541    20407412.398    83564972.9314   20407411.941  
                
  19571810.984   104696011.275                                                  
  19571809.414  
  22906610.297   122320017.375                    95137794.584    22906614.094  
  22906609.312  
  21238940.977   111611421.371    21238945.391    86969970.3234                 
                
  24308681.000   127742937.551    24308692.707    99539998.1544   24308693.234  
                
  20912365.555   109895247.666    20912371.492    85632696.2624                 
                
  19555379.422   104718202.333                    81447505.081    19555382.047  
  19555378.629  
  24523901.242   128873972.202    24523912.188   100421326.4374   24523911.793  
                
  22248369.992   116915993.242    22248379.289    91103425.0454   22248379.504  
                
  21139120.102   113159408.783                    88012871.680    21139125.289  
  21139118.645  
 21  8 16 12 32 50.0000000  0 17R16G17R 1R24R22G32G31G 1R23R 9G22G 8
                                G21R 8G10G 3R 7
  23416211.562   125085209.052                    97288512.868    23416214.285  
  23416211.156  
  24429112.273   128375847.710    24429120.039   100033164.1534   24429119.918  
                
  21557542.227   115237438.864                    89629119.814    21557548.617  
  21557541.578  
  21639741.531   115717452.102                    90002459.593    21639746.301  
  21639740.996  
  21952591.367   117184419.135                    91143455.665    21952595.688  
  21952589.875  
  22075131.078   116005630.139    22075140.301    90394053.6614   22075140.609  
                
  22247789.312   116912954.248    22247796.809    91101061.5354   22247796.867  
                
  20405038.273   107229237.727    20405048.422    83555292.8164   20405047.953  
                
  19571500.555   104694350.650                                                  
  19571498.992  
  22902709.117   122299185.380                    95121591.937    22902712.934  
  22902708.094  
  21236153.250   111596771.799    21236157.676    86958555.0794                 
                
  24315020.562   127776251.789    24315032.223    99565957.2714   24315032.773  
                
  20912491.758   109895910.813    20912497.664    85633213.0014                 
                
  19555352.633   104718058.882                    81447393.513    19555355.254  
  19555351.836  
  24529355.453   128902634.299    24529366.414   100443660.5264   24529366.008  
                
  22243776.023   116891851.807    22243785.262    91084613.5404   22243785.516  
                
  21144283.961   113187051.369                    88034371.452    21144289.176  
  21144282.473  
 21  8 16 12 33  0.0000000  0 17R16G17R 1R24R22G32G31G 1R23R 9G22G 8
                                G21R 8G10G 3R 7
  23418087.297   125095228.861                    97296306.062    23418090.020  
  23418086.895  
  24425665.164   128357733.028    24425672.930   100019048.8134   24425672.789  
                
  21552617.695   115211114.465                    89608645.277    21552624.090  
  21552617.066  
  21633686.312   115685072.178                    89977275.214    21633691.090  
  21633685.785  
  21960497.086   117226619.898                    91176278.468    21960501.320  
  21960495.516  
  22079972.133   116031070.091    22079981.375    90413876.9894   22079981.668  
                
  22243102.891   116888327.005    22243110.379    91081871.4884   22243110.438  
                
  20402685.219   107216872.367    20402695.375    83545657.4674   20402694.906  
                
  19571207.625   104692783.680                                                  
  19571206.086  
  22898819.805   122278416.799                    95105438.601    22898823.617  
  22898818.754  
  21233370.523   111582148.508    21233374.949    86947160.3124                 
                
  24321361.047   127809571.121    24321372.711    99591920.3444   24321373.277  
                
  20912627.273   109896622.919    20912633.133    85633767.8864                 
                
  19555334.516   104717961.828                    81447318.029    19555337.133  
  19555333.734  
  24534811.305   128931304.910    24534822.246   100466001.2274   24534821.863  
                
  22239185.641   116867729.206    22239194.855    91065816.7074   22239195.129  
                
  21149451.289   113214712.631                    88055885.753    21149456.539  
  21149449.809  
 21  8 16 12 33 10.0000000  0 17R16G17R 1R24R22G32G31G 1R23R 9G22G 8
                                G21R 8G10G 3R 7
  23419978.453   125105331.019                    97304163.295    23419981.203  
  23419978.113  
  24422227.727   128339669.266    24422235.492   100004973.1464   24422235.352  
                
  21547699.445   115184823.690                    89588196.905    21547705.863  
  21547698.859  
  21627641.820   115652749.668                    89952135.486    21627646.605  
  21627641.281  
  21968409.531   117268856.633                    91209129.248    21968413.711  
  21968407.906  
  22084819.070   116056541.004    22084828.316    90433724.4394   22084828.602  
                
  22238425.820   116863748.860    22238433.250    91062719.6884   22238433.352  
                
  20400343.312   107204565.591    20400353.473    83536067.7734   20400353.004  
                
  19570932.445   104691311.680                                                  
  19570930.918  
  22894942.578   122257712.763                    95089335.471    22894946.391  
  22894941.512  
  21230593.039   111567552.713    21230597.469    86935786.9674                 
                
  24327702.711   127842896.797    24327714.395    99617888.3604   24327714.977  
                
  20912772.312   109897385.106    20912778.129    85634361.7914                 
                
  19555325.266   104717912.298                    81447279.505    19555327.883  
  19555324.492  
  24540268.977   128959985.121    24540279.930   100488349.4204   24540279.559  
                
  22234599.047   116843626.547    22234608.297    91047035.4254   22234608.547  
                
  21154622.289   113242393.427                    88077415.257    21154627.570  
  21154620.832  
 21  8 16 12 33 20.0000000  0 17R16G17R 1R24R22G32G31G 1R23R 9G22G 8
                                G21R 8G10G 3R 7
  23421884.422   125115512.273                    97312082.046    23421887.211  
  23421884.121  
  24418799.438   128321653.501    24418807.215    99990934.8854   24418807.082  
                
  21542786.945   115158563.536                    89567772.359    21542793.340  
  21542786.309  
  21621607.586   115620481.857                    89927038.304    21621612.367  
  21621607.047  
  21976328.102   117311126.204                    91242005.555    21976332.309  
  21976326.430  
  22089671.336   116082039.766    22089680.586    90453593.6114   22089680.871  
                
  22233757.555   116839216.993    22233764.965    91043603.9564   22233765.082  
                
  20398012.008   107192314.509    20398022.172    83526521.4844   20398021.695  
                
  19570674.461   104689931.611                                                  
  19570672.945  
  22891076.914   122237070.417                    95073280.356    22891080.773  
  22891075.820  
  21227820.227   111552981.472    21227824.664    86924432.7564                 
                
  24334044.984   127876225.618    24334056.648    99643858.8454   24334057.258  
                
  20912926.336   109898194.465    20912932.102    85634992.4594                 
                
  19555324.273   104717906.996                    81447275.380    19555326.898  
  19555323.496  
  24545727.906   128988671.923    24545738.879   100510702.7624   24545738.516  
                
  22230015.703   116819540.890    22230024.988    91028267.3934   22230025.211  
                
  21159796.391   113270090.808                    88098957.650    21159801.699  
  21159794.922  
 21  8 16 12 33 30.0000000  0 17R16G17R 1R24R22G32G31G 1R23R 9G22G 8
                                G21R 8G10G 3R 7
  23423805.758   125125775.614                    97320064.648    23423808.539  
  23423805.492  
  24415380.805   128303688.526    24415388.594    99976936.1964   24415388.434  
                
  21537880.648   115132336.662                    89547373.701    21537887.039  
  21537879.992  
  21615584.078   115588271.511                    89901985.795    21615588.840  
  21615583.559  
  21984253.344   117353431.151                    91274909.372    21984257.488  
  21984251.527  
  22094529.391   116107569.048    22094538.637    90473486.5444   22094538.910  
                
  22229098.625   116814734.214    22229106.078    91024526.4794   22229106.184  
                
  20395691.812   107180121.867    20395701.980    83517020.7184   20395701.508  
                
  19570434.141   104688646.029                                                  
  19570432.613  
  22887223.359   122216492.757                    95057275.553    22887227.207  
  22887222.281  
  21225052.586   111538437.465    21225057.039    86913099.7694                 
                
  24340388.328   127909559.879    24340399.902    99669833.5654   24340400.555  
                
  20913089.844   109899053.637    20913095.570    85635661.9454                 
                
  19555332.086   104717948.834                    81447307.925    19555334.711  
  19555331.312  
  24551188.633   129017368.004    24551199.590   100533063.3154   24551199.215  
                
  22225436.102   116795474.956    22225445.379    91009514.7294   22225445.609  
                
  21164974.062   113297807.282                    88120514.902    21164979.383  
  21164972.594  
 21  8 16 12 33 40.0000000  0 17R16G17R 1R24R22G32G31G 1R23R 9G22G 8
                                G21R 8G10G 3R 7
  23425742.305   125136120.204                    97328110.438    23425745.105  
  23425742.020  
  24411971.750   128285773.824    24411979.562    99962976.6934   24411979.391  
                
  21532980.539   115106142.810                    89527000.702    21532986.918  
  21532979.871  
  21609571.234   115556118.105                    89876977.607    21609575.996  
  21609570.727  
  21992184.961   117395770.908                    91307840.262    21992189.188  
  21992183.191  
  22099393.141   116133128.179    22099402.375    90493402.7494   22099402.648  
                
  22224448.930   116790299.954    22224456.422    91005486.8224   22224456.523  
                
  20393382.664   107167987.170    20393392.836    83507565.1164   20393392.375  
                
  19570211.422   104687454.624                                                  
  19570209.871  
  22883381.852   122195979.271                    95041320.613    22883385.664  
  22883380.809  
  21222290.062   111523920.281    21222294.520    86901787.6774                 
                
  24346732.633   127942899.233    24346744.168    99695812.2564   24346744.848  
                
  20913262.773   109899962.285    20913268.469    85636369.9744                 
                
  19555348.594   104718037.175                    81447376.635    19555351.223  
  19555347.820  
  24556651.008   129046072.806    24556661.977   100555430.6694   24556661.602  
                
  22220860.148   116771428.192    22220869.418    90990777.0024   22220869.684  
                
  21170155.195   113325542.309                    88142086.590    21170160.543  
  21170153.719  
 21  8 16 12 33 50.0000000  0 17R16G17R 1R24R22G32G31G 1R23R 9G22G 8
                                G21R 8G10G 3R 7
  23427693.984   125146545.705                    97336219.143    23427696.797  
  23427693.711  
  24408572.234   128267909.282    24408580.027    99949056.2774   24408579.832  
                
  21528086.516   115079981.472                    89506653.031    21528092.859  
  21528085.855  
  21603569.016   115524021.628                    89852013.692    21603573.781  
  21603568.500  
  22000123.016   117438144.961                    91340797.829    22000127.293  
  22000121.262  
  22104262.500   116158716.855    22104271.730    90513341.9764   22104272.004  
                
  22219808.453   116765914.209    22219815.953    90986484.9554   22219816.078  
                
  20391084.500   107155910.265    20391094.680    83498154.5364   20391094.211  
                
  19570006.258   104686357.148                                                  
  19570004.707  
  22879552.336   122175529.852                    95025415.508    22879556.125  
  22879551.320  
  21219532.562   111509429.541    21219537.016    86890496.1974                 
                
  24353077.898   127976243.367    24353089.344    99721794.6394   24353090.031  
                
  20913445.055   109900920.158    20913450.730    85637116.3684                 
                
  19555373.719   104718171.710                    81447481.284    19555376.344  
  19555372.949  
  24562115.008   129074786.053    24562125.984   100577804.6014   24562125.578  
                
  22216287.812   116747400.430    22216297.090    90972054.0754   22216297.344  
                
  21175339.758   113353295.706                    88163672.545    21175345.113  
  21175338.289  
 21  8 16 12 34  0.0000000  0 17R16G17R 1R24R22G32G31G 1R23R 9G22G 8
                                G21R 8G10G 3R 7
  23429660.852   125157052.297                    97344390.946    23429663.684  
  23429660.566  
  24405182.266   128250094.882    24405190.000    99935174.9474   24405189.844  
                
  21523198.633   115053852.950                    89486330.836    21523204.938  
  21523197.965  
  21597577.523   115491982.435                    89827094.339    21597582.281  
  21597576.949  
  22008067.602   117480553.270                    91373782.048    22008071.777  
  22008065.793  
  22109137.484   116184335.062    22109146.711    90533304.2004   22109146.977  
                
  22215177.250   116741577.193    22215184.762    90967521.0514   22215184.898  
                
  20388797.352   107143891.224    20388807.551    83488789.0514   20388807.082  
                
  19569818.672   104685353.668                                                  
  19569817.133  
  22875734.820   122155144.640                    95009560.359    22875738.617  
  22875733.816  
  21216780.133   111494965.427    21216784.586    86879225.4594                 
                
  24359424.039   128009592.140    24359435.418    99747780.6624   24359436.129  
                
  20913636.703   109901927.227    20913642.363    85637901.0894                 
                
  19555407.477   104718352.514                    81447621.913    19555410.102  
  19555406.684  
  24567580.641   129103507.833    24567591.605   100600185.1674   24567591.184  
                
  22211719.102   116723391.719    22211728.395    90953346.0034   22211728.625  
                
  21180527.711   113381067.239                    88185272.634    21180533.102  
  21180526.230  
 21  8 16 12 34 10.0000000  0 17R16G17R 1R24R22G32G31G 1R23R 9G22G 8
                                G21R 8G10G 3R 7
  23431642.867   125167639.852                    97352625.718    23431645.684  
  23431642.578  
  24401801.844   128232330.676    24401809.469    99921332.7124   24401809.336  
                
  21518316.867   115027757.113                    89466034.072    21518323.121  
  21518316.211  
  21591596.703   115460000.413                    89802219.453    21591601.492  
  21591596.082  
  22016018.531   117522995.589                    91406792.706    22016022.699  
  22016016.680  
  22114018.047   116209982.632    22114027.281    90553289.3084   22114027.543  
                
  22210555.312   116717288.878    22210562.867    90948595.1154   22210562.996  
                
  20386521.219   107131930.092    20386531.438    83479468.6824   20386530.961  
                
  19569648.641   104684444.098                                                  
  19569647.117  
  22871929.328   122134823.639                    94993755.166    22871933.156  
  22871928.305  
  21214032.750   111480527.871    21214037.199    86867975.4204                 
                
  24365770.891   128042945.149    24365782.277    99773769.9804   24365783.020  
                
  20913837.695   109902983.439    20913843.340    85638724.1144                 
                
  19555449.828   104718579.363                    81447798.351    19555452.449  
  19555449.016  
  24573047.836   129132238.016    24573058.805   100622572.3044   24573058.375  
                
  22207154.008   116699402.011    22207163.281    90934652.7274   22207163.516  
                
  21185719.000   113408856.661                    88206886.607    21185724.418  
  21185717.516  
 21  8 16 12 34 20.0000000  0 17R16G17R 1R24R22G32G31G 1R23R 9G22G 8
                                G21R 8G10G 3R 7
  23433640.086   125178308.549                    97360923.562    23433642.875  
  23433639.781  
  24398431.016   128214616.840    24398438.551    99907529.7444   24398438.449  
                
  21513441.234   115001694.099                    89445762.843    21513447.445  
  21513440.605  
  21585626.656   115428075.984                    89777389.357    21585631.449  
  21585626.020  
  22023975.938   117565471.979                    91439829.879    22023979.965  
  22023973.977  
  22118904.234   116235659.705    22118913.508    90573297.4154   22118913.734  
                
  22205942.688   116693049.506    22205950.293    90929707.3054   22205950.410  
                
  20384256.156   107120027.092    20384266.395    83470193.6204   20384265.918  
                
  19569496.211   104683628.696                                                  
  19569494.715  
  22868135.930   122114567.230                    94978000.196    22868139.789  
  22868134.906  
  21211290.469   111466117.064    21211294.910    86856746.2214                 
                
  24372118.656   128076302.932    24372130.008    99799763.0204   24372130.801  
                
  20914048.109   109904089.081    20914053.750    85639585.6484                 
                
  19555500.812   104718852.361                    81448010.674    19555503.434  
  19555499.992  
  24578516.664   129160976.805    24578527.617   100644966.1544   24578527.199  
                
  22202592.578   116675431.543    22202601.820    90915974.4444   22202602.074  
                
  21190913.727   113436664.352                    88228514.791    21190919.125  
  21190912.246  
 21  8 16 12 34 30.0000000  0 17R16G17R 1R24R22G32G31G 1R23R 9G22G 8
                                G21R 8G10G 3R 7
  23435652.438   125189058.142                    97369284.357    23435655.188  
  23435652.105  
  24395069.766   128196953.364    24395077.215    99893765.9944   24395077.141  
                
  21508571.719   114975663.727                    89425516.995    21508577.922  
  21508571.086  
  21579667.344   115396208.989                    89752603.931    21579672.156  
  21579666.672  
  22031939.688   117607982.144                    91472893.331    22031943.574  
  22031937.641  
  22123795.977   116261366.022    22123805.289    90593328.2984   22123805.496  
                
  22201339.367   116668859.035    22201346.992    90910857.5984   22201347.113  
                
  20382002.133   107108182.156    20382012.391    83460963.8014   20382011.906  
                
  19569361.375   104682907.342                                                  
  19569359.891  
  22864354.633   122094375.389                    94962295.450    22864358.488  
  22864353.609  
  21208553.242   111451732.904    21208557.688    86845537.7854                 
                
  24378467.242   128109664.964    24378478.586    99825759.3754   24378479.391  
                
  20914267.875   109905243.929    20914273.512    85640485.5294                 
                
  19555560.430   104719171.605                    81448258.971    19555563.055  
  19555559.594  
  24583987.070   129189724.046    24583998.031   100667366.5774   24583997.609  
                
  22198034.781   116651480.173    22198044.031    90897311.0444   22198044.285  
                
  21196111.797   113464490.048                    88250157.008    21196117.207  
  21196110.336  
 21  8 16 12 34 40.0000000  0 17R16G17R 1R24R22G32G31G 1R23R 9G22G 8
                                G21R 8G10G 3R 7
  23437679.898   125199888.493                    97377707.934    23437682.598  
  23437679.578  
  24391718.109   128179340.282    24391725.523    99880041.5244   24391725.457  
                
  21503708.359   114949666.331                    89405296.826    21503714.598  
  21503707.742  
  21573718.875   115364399.962                    89727863.594    21573723.715  
  21573718.152  
  22039909.742   117650526.052                    91505983.037    22039913.535  
  22039907.609  
  22128693.297   116287101.636    22128702.633    90613382.0154   22128702.820  
                
  22196745.398   116644717.697    22196753.008    90892046.1754   22196753.141  
                
  20379759.195   107096395.427    20379769.469    83451779.3384   20379768.992  
                
  19569244.125   104682280.093                                                  
  19569242.645  
  22860585.500   122074248.439                    94946641.142    22860589.348  
  22860584.488  
  21205821.102   111437375.388    21205825.559    86834350.1144                 
                
  24384816.648   128143031.306    24384828.008    99851759.0824   24384828.801  
                
  20914497.016   109906448.065    20914502.648    85641423.8124                 
                
  19555628.664   104719537.020                    81448543.193    19555631.297  
  19555627.828  
  24589459.109   129218479.817    24589470.074   100689773.6614   24589469.652  
                
  22193480.641   116627548.034    22193489.910    90878662.6344   22193490.160  
                
  21201313.234   113492333.675                    88271813.153    21201318.641  
  21201311.789  
 21  8 16 12 34 50.0000000  0 18G 4R16G17R 1R24R22G32G31G 1R23R 9G22
                                G 8G21R 8G10G 3R 7
  24753514.414   130080596.916    24753524.562   101361543.0674   24753524.609  
                
  23439722.469   125210799.450                    97386194.229    23439725.145  
  23439722.082  
  24388376.016   128161777.464    24388383.402    99866356.1794   24388383.332  
                
  21498851.086   114923701.386                    89385101.866    21498857.316  
  21498850.488  
  21567781.188   115332648.652                    89703168.143    21567786.051  
  21567780.406  
  22047885.766   117693103.286                    91539098.659    22047889.633  
  22047883.773  
  22133596.125   116312866.194    22133605.469    90633458.2814   22133605.648  
                
  22192160.750   116620625.359    22192168.352    90873272.9444   22192168.480  
                
  20377527.289   107084666.723    20377537.578    83442640.0914   20377537.102  
                
  19569144.422   104681746.795                                                  
  19569142.930  
  22856828.445   122054186.169                    94931037.190    22856832.320  
  22856827.410  
  21203094.000   111423044.373    21203098.477    86823183.0884                 
                
  24391166.812   128176401.553    24391178.180    99877761.8544   24391178.977  
                
  20914735.508   109907701.284    20914741.133    85642400.3454                 
                
  19555705.406   104719948.003                    81448862.842    19555708.035  
  19555704.562  
  24594932.711   129247243.815    24594943.668   100712187.1604   24594943.242  
                
  22188930.109   116603634.889    22188939.383    90860029.0234   22188939.637  
                
  21206517.984   113520195.101                    88293483.149    21206523.395  
  21206516.555  
 21  8 16 12 35  0.0000000  0 18G 4R16G17R 1R24R22G32G31G 1R23R 9G22
                                G 8G21R 8G10G 3R 7
  24746765.469   130045130.456    24746775.531   101333906.8824   24746775.473  
                
  23441780.164   125221791.333                    97394743.465    23441782.867  
  23441779.750  
  24385043.547   128144265.277    24385050.871    99852710.3014   24385050.805  
                
  21493999.930   114897769.262                    89364932.447    21494006.180  
  21493999.328  
  21561854.383   115300955.469                    89678517.896    21561859.246  
  21561853.555  
  22055868.102   117735713.869                    91572240.217    22055871.949  
  22055866.152  
  22138504.492   116338659.843    22138513.836    90653557.2204   22138514.004  
                
  22187585.500   116596582.381    22187593.098    90854538.1604   22187593.227  
                
  20375306.484   107072996.320    20375316.785    83433546.2694   20375316.305  
                
  19569062.336   104681307.664                                                  
  19569060.848  
  22853083.578   122034188.874                    94915483.777    22853087.480  
  22853082.516  
  21200371.992   111408740.124    21200376.484    86812036.9224                 
                
  24397517.758   128209775.760    24397529.133    99903767.6864   24397529.910  
                
  20914983.375   109909003.839    20914988.996    85643415.3234                 
                
  19555790.758   104720405.042                    81449218.320    19555793.379  
  19555789.906  
  24600407.922   129276016.286    24600418.879   100734607.2384   24600418.453  
                
  22184383.242   116579740.993    22184392.539    90841410.4164   22184392.770  
                
  21211726.023   113548074.194                    88315166.883    21211731.430  
  21211724.625  
 21  8 16 12 35 10.0000000  0 18G 4R16G17R 1R24R22G32G31G 1R23R 9G22
                                G 8G21R 8G10G 3R 7
  24740018.828   130009676.487    24740028.812   101306280.4344   24740028.770  
                
  23443852.961   125232863.783                    97403355.384    23443855.715  
  23443852.512  
  24381720.688   128126803.632    24381728.008    99839103.8114   24381727.930  
                
  21489154.914   114871869.955                    89344788.565    21489161.203  
  21489154.324  
  21555938.453   115269320.350                    89653912.798    21555943.289  
  21555937.641  
  22063856.742   117778357.778                    91605407.668    22063860.613  
  22063854.781  
  22143418.375   116364482.433    22143427.715    90673678.7044   22143427.863  
                
  22183019.656   116572588.793    22183027.246    90835841.8774   22183027.379  
                
  20373096.773   107061384.214    20373107.090    83424497.8774   20373106.613  
                
  19568997.844   104680962.621                                                  
  19568996.359  
  22849350.875   122014256.641                    94899980.957    22849354.828  
  22849349.770  
  21197655.070   111394462.595    21197659.582    86800911.5774                 
                
  24403869.391   128243153.687    24403880.785    99929776.4204   24403881.566  
                
  20915240.641   109910355.711    20915246.254    85644468.7284                 
                
  19555884.648   104720907.818                    81449609.378    19555887.273  
  19555883.805  
  24605884.742   129304797.147    24605895.699   100757033.8524   24605895.289  
                
  22179840.047   116555866.302    22179849.355    90822806.7644   22179849.570  
                
  21216937.406   113575971.116                    88336864.479    21216942.805  
  21216936.000  
 21  8 16 12 35 20.0000000  0 18G 4R16G17R 1R24R22G32G31G 1R23R 9G22
                                G 8G21R 8G10G 3R 7
  24733274.523   129974235.059    24733284.539   101278663.8114   24733284.488  
                
  23445940.891   125244017.114                    97412030.185    23445943.664  
  23445940.438  
  24378407.492   128109392.752    24378414.852    99825536.8864   24378414.750  
                
  21484316.047   114846003.513                    89324670.243    21484322.391  
  21484315.453  
  21550033.438   115237743.608                    89629353.121    21550038.266  
  21550032.633  
  22071851.320   117821034.691                    91638600.786    22071855.449  
  22071849.570  
  22148337.750   116390333.885    22148347.055    90693822.6874   22148347.207  
                
  22178463.227   116548644.709    22178470.824    90817184.1464   22178470.953  
                
  20370898.164   107049830.468    20370908.496    83415494.9604   20370908.008  
                
  19568950.945   104680711.719                                                  
  19568949.484  
  22845630.398   121994389.612                    94884528.843    22845634.383  
  22845629.293  
  21194943.258   111380211.928    21194947.785    86789807.1664                 
                
