     2.11           OBSERVATION DATA    M (MIXED)           RINEX VERSION / TYPE
EFT-CORS.RU                             20210817 150718 UTC PGM / RUN BY / DATE 
MDNG                                                        MARKER NAME         
                                                            MARKER NUMBER       
MDNG                EFT-CORS.RU                             OBSERVER / AGENCY   
0                   TRIMBLE BD970       2.0                 REC # / TYPE / VERS 
0                   UNKNOWN EXT NONE                        ANT # / TYPE        
  3463911.2830  3030468.2400  4402179.3760                  APPROX POSITION XYZ 
        0.0000        0.0000        0.0000                  ANTENNA: DELTA H/E/N
     1     1                                                WAVELENGTH FACT L1/2
     6    C1    L1    P2    L2    C2    P1                  # / TYPES OF OBSERV 
    10.000                                                  INTERVAL            
  2021     8    14    22    30    0.0000000     GPS         TIME OF FIRST OBS   
  2021     8    14    23    30    0.0000000     GPS         TIME OF LAST OBS    
     0                                                      RCV CLOCK OFFS APPL 
                                                            END OF HEADER       
 21  8 14 22 30  0.0000000  0 17G17G15R21R 3G14G 1R14G13R23G24R13R 4
                                G30R 2R22R12G19
  20934463.156   110011355.099    20934469.301    85723164.5174   20934469.211  
                
  21451960.367   112730826.069    21451966.855    87842235.2684   21451966.555  
                
  23331107.594   124849484.039                    97105156.172    23331110.973  
  23331105.605  
  20929320.539   112036315.019                    87139354.439    20929324.715  
  20929319.367  
  20938791.234   110034112.986    20938797.824    85740913.9914   20938797.695  
                
  24019461.789   126223145.428    24019470.652    98355722.3944   24019470.367  
                
  22878173.070   121953541.475                    94852744.356    22878177.641  
  22878172.707  
  20686542.742   108708528.160    20686548.555    84707978.8964                 
                
  22498319.641   120350844.968                                                  
  22498317.973  
  23252612.078   122193313.566    23252620.961    95215597.8664   23252620.957  
                
  19807844.430   105772830.043                    82267760.942    19807847.129  
  19807842.578  
  21854975.617   117032411.980                    91025204.281    21854978.773  
  21854974.895  
  22440121.000   117923674.556    22440129.656    91888630.8904   22440129.973  
                
  23066222.922   123085801.238                    95733397.574    23066226.582  
  23066221.000  
  21053866.508   112386988.347                    87412115.903    21053868.820  
  21053864.887  
  20897887.398   111632789.093                    86825495.976    20897891.035  
  20897886.891  
  21753075.398   114313193.597    21753079.816    89075231.1194                 
                
 21  8 14 22 30 10.0000000  0 17G17G15R21R 3G14G 1R14G13R23G24R13R 4
                                G30R 2R22R12G19
  20933140.188   110004402.865    20933146.348    85717747.1904   20933146.246  
                
  21452208.219   112732128.592    21452214.676    87843250.2234   21452214.383  
                
  23336670.203   124879250.567                    97128307.908    23336673.551  
  23336668.262  
  20933301.695   112057626.516                    87155930.051    20933305.859  
  20933300.520  
  20942125.438   110051634.331    20942131.988    85754566.9874   20942131.875  
                
  24017538.234   126213037.146    24017547.254    98347845.8464   24017546.902  
                
  22872719.977   121924473.281                    94830135.747    22872724.484  
  22872719.629  
  20689154.773   108722254.460    20689160.625    84718674.7144                 
                
  22490502.914   120309030.162                                                  
  22490501.188  
  23246583.320   122161632.296    23246592.180    95190911.1664   23246592.199  
                
  19806514.344   105765727.529                    82262236.779    19806517.051  
  19806512.512  
  21851883.445   117015853.624                    91012325.576    21851886.629  
  21851882.691  
  22444979.539   117949206.313    22444988.215    91908525.7634   22444988.527  
                
  23074454.672   123129727.084                    95767562.134    23074458.289  
  23074452.688  
  21053374.844   112384363.870                    87410074.640    21053377.152  
  21053373.215  
  20901846.055   111653935.499                    86841943.158    20901849.691  
  20901845.578  
  21747461.852   114283694.279    21747466.316    89052244.6424                 
                
 21  8 14 22 30 20.0000000  0 17G17G15R21R 3G14G 1R14G13R23G24R13R 4
                                G30R 2R22R12G19
  20931829.125   109997513.187    20931835.305    85712378.6104   20931835.207  
                
  21452469.047   112733499.241    21452475.469    87844318.2674   21452475.184  
                
  23342244.562   124909079.988                    97151508.560    23342247.883  
  23342242.648  
  20937297.211   112079014.807                    87172565.376    20937301.387  
  20937296.031  
  20945465.625   110069187.119    20945472.137    85768244.4814   20945472.043  
                
  24015626.266   126202989.660    24015635.418    98340016.6514   24015635.047  
                
  22867268.609   121895414.218                    94807534.262    22867273.090  
  22867268.242  
  20691778.789   108736043.711    20691784.668    84729419.5784                 
                
  22482691.195   120267241.785                                                  
  22482689.367  
  23240557.047   122129964.070    23240565.855    95166234.6224   23240565.895  
                
  19805190.461   105758658.026                    82256738.252    19805193.156  
  19805188.621  
  21848806.828   116999378.526                    90999511.593    21848810.000  
  21848806.051  
  22449843.539   117974766.797    22449852.250    91928443.0254   22449852.551  
                
  23082687.883   123173661.441                    95801733.309    23082691.609  
  23082685.922  
  21052900.844   112381833.642                    87408106.684    21052903.199  
  21052899.191  
  20905808.836   111675103.897                    86858407.469    20905812.484  
  20905808.383  
  21741856.688   114254238.914    21741861.195    89029292.4114                 
                
 21  8 14 22 30 30.0000000  0 17G17G15R21R 3G14G 1R14G13R23G24R13R 4
                                G30R 2R22R12G19
  20930530.016   109990686.338    20930536.223    85707058.9964   20930536.117  
                
  21452742.875   112734938.243    21452749.258    87845439.5574   21452748.977  
                
  23347830.680   124938972.431                    97174758.249    23347834.020  
  23347828.789  
  20941307.125   112100480.165                    87189260.651    20941311.309  
  20941305.941  
  20948811.836   110086771.558    20948818.316    85781946.6484   20948818.246  
                
  24013725.930   126193003.322    24013735.152    98332235.1044   24013734.785  
                
  22861818.984   121866364.552                    94784940.063    22861823.410  
  22861818.590  
  20694414.820   108749896.137    20694420.727    84740213.6744                 
                
  22474884.531   120225480.424                                                  
  22474882.594  
  23234533.344   122098309.244    23234542.121    95141568.5204   23234542.152  
                
  19803872.844   105751622.021                    82251265.822    19803875.562  
  19803870.996  
  21845745.852   116982987.110                    90986762.725    21845749.020  
  21845745.078  
  22454713.055   118000356.326    22454721.816    91948382.9094   22454722.094  
                
  23090922.617   123217604.418                    95835911.183    23090926.516  
  23090920.758  
  21052444.547   112379397.947                    87406212.270    21052446.902  
  21052442.898  
  20909775.781   111696294.550                    86874889.098    20909779.445  
  20909775.320  
  21736259.977   114224827.955    21736264.504    89006374.7724                 
                
 21  8 14 22 30 40.0000000  0 17G17G15R21R 3G14G 1R14G13R23G24R13R 4
                                G30R 2R22R12G19
  20929242.922   109983922.583    20929249.152    85701788.5384   20929249.043  
                
  21453029.766   112736445.839    21453036.117    87846614.3134   21453035.852  
                
  23353428.609   124968928.073                    97198057.086    23353431.953  
  23353426.727  
  20945331.438   112122022.630                    87206015.899    20945335.598  
  20945330.270  
  20952164.109   110104387.867    20952170.574    85795673.6374   20952170.520  
                
  24011837.289   126183078.455    24011846.578    98324501.4474   24011846.184  
                
  22856371.156   121837324.494                    94762353.389    22856375.613  
  22856370.750  
  20697062.914   108763811.918    20697068.832    84751057.1404                 
                
  22467082.922   120183746.379                                                  
  22467080.910  
  23228512.250   122066668.140    23228521.004    95116913.1174   23228521.043  
                
  19802561.547   105744619.763                    82245819.620    19802564.258  
  19802559.703  
  21842700.555   116966679.675                    90974079.146    21842703.711  
  21842699.785  
  22459588.141   118025975.089    22459596.918    91968345.5764   22459597.195  
                
  23099159.273   123261556.635                    95870096.258    23099163.117  
  23099157.309  
  21052006.000   112377057.023                    87404391.564    21052008.324  
  21052004.324  
  20913746.938   111717507.769                    86891388.257    20913750.602  
  20913746.477  
  21730671.781   114195461.723    21730676.320    88983491.9984                 
                
 21  8 14 22 30 50.0000000  0 17G17G15R21R 3G14G 1R14G13R23G24R13R 4
                                G30R 2R22R12G19
  20927967.688   109977221.227    20927973.930    85696566.7064   20927973.812  
                
  21453329.547   112738021.213    21453335.875    87847841.8754   21453335.617  
                
  23359038.172   124998945.867                    97221404.280    23359041.496  
  23359036.293  
  20949370.016   112143641.423                    87222830.515    20949374.133  
  20949368.863  
  20955522.289   110122035.244    20955528.734    85809424.8334   20955528.684  
                
  24009960.211   126173214.382    24009969.574    98316815.1694   24009969.129  
                
  22850925.023   121808293.511                    94739773.718    22850929.449  
  22850924.625  
  20699722.914   108777790.318    20699728.836    84761949.3944                 
                
  22459286.188   120142039.050                                                  
  22459284.180  
  23222493.602   122035040.036    23222502.340    95092267.8554   23222502.430  
                
  19801256.422   105737650.469                    82240399.056    19801259.129  
  19801254.594  
  21839670.828   116950455.559                    90961460.396    21839673.973  
  21839670.094  
  22464468.641   118051622.340    22464477.422    91988330.4404   22464477.719  
                
  23107397.328   123305516.634                    95904287.407    23107401.188  
  23107395.352  
  21051585.070   112374810.137                    87402643.984    21051587.359  
  21051583.375  
  20917722.148   111738742.665                    86907904.284    20917725.812  
  20917721.684  
  21725091.961   114166139.564    21725096.492    88960643.5634                 
                
 21  8 14 22 31  0.0000000  0 17G17G15R21R 3G14G 1R14G13R23G24R13R 4
                                G30R 2R22R12G19
  20926704.398   109970582.598    20926710.645    85691393.7464   20926710.535  
                
  21453642.289   112739664.665    21453648.617    87849122.4924   21453648.379  
                
  23364659.398   125029026.122                    97244800.041    23364662.742  
  23364657.500  
  20953422.883   112165336.672                    87239704.619    20953426.969  
  20953421.727  
  20958886.422   110139713.893    20958892.859    85823200.4064   20958892.812  
                
  24008094.773   126163411.446    24008104.117    98309176.5224   24008103.660  
                
  22845480.594   121779271.700                    94717201.209    22845485.020  
  22845480.203  
  20702394.875   108791831.554    20702400.793    84772890.6184                 
                
  22451494.484   120100358.893                                                  
  22451492.465  
  23216477.500   122003425.291    23216486.266    95067632.9994   23216486.355  
                
  19799957.562   105730714.671                    82235004.555    19799960.254  
  19799955.742  
  21836656.703   116934315.015                    90948906.643    21836659.828  
  21836656.020  
  22469354.617   118077298.300    22469363.441    92008337.6824   22469363.730  
                
  23115636.930   123349485.046                    95938485.074    23115640.855  
  23115635.012  
  21051181.820   112372657.600                    87400969.798    21051184.043  
  21051180.121  
  20921701.477   111759999.537                    86924437.382    20921705.148  
  20921701.020  
  21719520.602   114136861.837    21719525.121    88937829.7504                 
                
 21  8 14 22 31 10.0000000  0 17G17G15R21R 3G14G 1R14G13R23G24R13R 4
                                G30R 2R22R12G19
  20925453.047   109964006.677    20925459.297    85686269.6544   20925459.184  
                
  21453968.039   112741376.492    21453974.391    87850456.3834   21453974.156  
                
  23370292.273   125059168.768                    97268244.292    23370295.637  
  23370290.387  
  20957490.016   112187108.323                    87256638.115    20957494.102  
  20957488.836  
  20962256.523   110157423.904    20962262.957    85837000.4084   20962262.918  
                
  24006241.000   126153669.808    24006250.312    98301585.6224   24006249.875  
                
  22840037.953   121750259.364                    94694636.043    22840042.359  
  22840037.551  
  20705078.812   108805935.683    20705084.730    84783880.8444                 
                
  22443707.789   120058706.284                                                  
  22443705.898  
  23210463.977   121971824.087    23210472.789    95043008.6714   23210472.863  
                
  19798664.922   105723812.002                    82229635.802    19798667.605  
  19798663.125  
  21833658.250   116918258.371                    90936418.130    21833661.355  
  21833657.570  
  22474246.070   118103003.070    22474254.969    92028367.3684   22474255.246  
                
  23123877.945   123393461.259                    95972688.795    23123882.004  
  23123876.156  
  21050796.266   112370599.536                    87399369.058    21050798.461  
  21050794.578  
  20925684.930   111781278.413                    86940987.613    20925688.609  
  20925684.453  
  21713957.750   114107628.764    21713962.277    88915050.7344                 
                
 21  8 14 22 31 20.0000000  0 17G17G15R21R 3G14G 1R14G13R23G24R13R 4
                                G30R 2R22R12G19
  20924213.641   109957493.568    20924219.879    85681194.5064   20924219.770  
                
  21454306.758   112743156.418    21454313.152    87851843.3384   21454312.895  
                
  23375936.758   125089373.556                    97291736.895    23375940.148  
  23375934.895  
  20961571.398   112208956.244                    87273630.938    20961575.484  
  20961570.215  
  20965632.570   110175165.151    20965639.008    85850824.7594   20965638.969  
                
  24004398.875   126143989.468    24004408.184    98294042.5204   24004407.762  
                
  22834597.039   121721256.310                    94672078.132    22834601.492  
  22834596.660  
  20707774.695   108820102.606    20707780.621    84794920.0024                 
                
  22435926.430   120017081.277                                                  
  22435924.551  
  23204453.016   121940236.389    23204461.883    95018394.9204   23204461.980  
                
  19797378.531   105716942.770                    82224293.060    19797381.203  
  19797376.734  
  21830675.469   116902285.616                    90923994.884    21830678.578  
  21830674.789  
  22479143.008   118128736.629    22479151.977    92048419.4824   22479152.227  
                
  23132120.547   123437445.684                    96006898.917    23132124.668  
  23132118.816  
  21050428.461   112368636.103                    87397841.953    21050430.625  
  21050426.789  
  20929672.516   111802579.368                    86957555.028    20929676.207  
  20929672.047  
  21708403.391   114078440.366    21708407.922    88892306.5264                 
                
 21  8 14 22 31 30.0000000  0 17G17G15R21R 3G14G 1R14G13R23G24R13R 4
                                G30R 2R22R12G19
  20922986.164   109951043.127    20922992.398    85676168.1884   20922992.297  
                
  21454658.398   112745004.322    21454664.832    87853283.2594   21454664.562  
                
  23381592.820   125119640.273                    97315277.689    23381596.234  
  23381590.996  
  20965666.977   112230880.149                    87290682.852    20965671.055  
  20965665.809  
  20969014.523   110192937.467    20969020.980    85864673.3104   20969020.938  
                
  24002568.430   126134370.414    24002577.762    98286547.1754   24002577.309  
                
  22829157.812   121692262.390                    94649527.337    22829162.324  
  22829157.438  
  20710482.492   108834332.204    20710488.430    84806007.9964                 
                
  22428150.305   119975484.048                                                  
  22428148.371  
  23198444.617   121908662.191    23198453.488    94993791.6574   23198453.625  
                
  19796098.414   105710107.015                    82218976.357    19796101.062  
  19796096.605  
  21827708.328   116886396.801                    90911636.926    21827711.477  
  21827707.645  
  22484045.375   118154498.778    22484054.410    92068493.8784   22484054.617  
                
  23140364.609   123481437.735                    96041114.952    23140368.730  
  23140362.891  
  21050078.289   112366766.920                    87396388.156    21050080.488  
  21050076.598  
  20933664.195   111823902.256                    86974139.467    20933667.879  
  20933663.707  
  21702857.539   114049296.679    21702862.043    88869597.1504                 
                
 21  8 14 22 31 40.0000000  0 17G17G15R21R 3G14G 1R14G13R23G24R13R 4
                                G30R 2R22R12G19
  20921770.648   109944655.541    20921776.891    85671190.8484   20921776.793  
                
  21455023.008   112746920.364    21455029.477    87854776.2804   21455029.207  
                
  23387260.461   125149968.971                    97338866.676    23387263.898  
  23387258.660  
  20969776.766   112252880.142                    87307793.977    20969780.863  
  20969775.586  
  20972402.422   110210740.985    20972408.898    85878546.1764   20972408.855  
                
  24000749.672   126124812.900    24000759.020    98279099.7574   24000758.574  
                
  22823720.430   121663278.040                    94626983.950    22823724.914  
  22823720.039  
  20713202.258   108848624.645    20713208.184    84817144.9594                 
                
  22420379.320   119933914.834                                                  
  22420377.434  
  23192438.852   121877101.755    23192447.637    94969199.0964   23192447.809  
                
  19794824.555   105703304.656                    82213685.621    19794827.180  
  19794822.734  
  21824756.906   116870592.065                    90899344.336    21824760.059  
  21824756.215  
  22488953.227   118180289.696    22488962.293    92088590.6924   22488962.496  
                
  23148610.219   123525437.551                    96075337.072    23148614.246  
  23148608.422  
  21049745.836   112364992.285                    87395007.865    21049747.996  
  21049744.156  
  20937660.008   111845247.148                    86990741.051    20937663.699  
  20937659.535  
  21697320.227   114020197.933    21697324.719    88846922.8084                 
                
 21  8 14 22 31 50.0000000  0 17G17G15R21R 3G14G 1R14G13R23G24R13R 4
                                G30R 2R22R12G19
  20920567.211   109938331.395    20920573.457    85666262.9494   20920573.355  
                
  21455400.703   112748905.113    21455407.211    87856322.8434   21455406.949  
                
  23392939.773   125180360.066                    97362504.202    23392943.207  
  23392937.984  
  20973900.852   112274956.658                    87324964.589    20973904.949  
  20973899.645  
  20975796.352   110228576.211    20975802.852    85892443.7484   20975802.797  
                
  23998942.758   126115317.511    23998952.090    98271700.7814   23998951.684  
                
  22818284.883   121634303.673                    94604448.349    22818289.383  
  22818284.492  
  20715934.070   108862980.378    20715939.984    84828331.2474                 
                
  22412613.641   119892374.357                                                  
  22412611.875  
  23186435.828   121845555.627    23186444.484    94944617.6994   23186444.715  
                
  19793557.039   105696536.160                    82208421.241    19793559.637  
  19793555.234  
  21821821.320   116854872.135                    90887117.717    21821824.457  
  21821820.594  
  22493866.664   118206109.908    22493875.738    92108710.3334   22493875.949  
                
  23156857.195   123569445.414                    96109565.446    23156861.238  
  23156855.441  
  21049431.211   112363312.792                    87393701.600    21049433.352  
  21049429.508  
  20941660.070   111866614.732                    87007360.283    20941663.770  
  20941659.609  
  21691791.625   113991144.882    21691796.148    88824284.0774                 
                
 21  8 14 22 32  0.0000000  0 17G17G15R21R 3G14G 1R14G13R23G24R13R 4
                                G30R 2R22R12G19
  20919375.531   109932069.094    20919381.770    85661383.2344   20919381.668  
                
  21455791.164   112750956.994    21455797.723    87857921.7044   21455797.445  
                
  23398630.398   125210811.747                    97386188.832    23398633.789  
  23398628.617  
  20978038.875   112297107.818                    87342193.268    20978042.988  
  20978037.680  
  20979196.000   110246441.461    20979202.516    85906364.7214   20979202.461  
                
  23997147.375   126105882.758    23997156.707    98264349.0124   23997156.320  
                
  22812850.898   121605337.577                    94581919.168    22812855.387  
  22812850.520  
  20718677.609   108877397.762    20718683.512    84839565.5744                 
                
  22404853.172   119850861.220                                                  
  22404851.434  
  23180435.234   121814022.294    23180443.816    94920046.2534   23180444.066  
                
  19792295.555   105689799.932                    82203181.952    19792298.148  
  19792293.758  
  21818901.273   116839235.385                    90874955.826    21818904.395  
  21818900.531  
  22498785.352   118231957.783    22498794.434    92128851.5314   22498794.641  
                
  23165105.117   123613459.265                    96143798.439    23165109.359  
  23165103.582  
  21049134.141   112361727.028                    87392468.227    21049136.266  
  21049132.426  
  20945664.039   111888003.206                    87023995.757    20945667.742  
  20945663.574  
  21686271.406   113962135.932    21686275.961    88801679.7044                 
                
 21  8 14 22 32 10.0000000  0 17G17G15R21R 3G14G 1R14G13R23G24R13R 4
                                G30R 2R22R12G19
  20918195.820   109925869.695    20918202.059    85656552.5394   20918201.949  
                
  21456194.594   112753077.082    21456201.211    87859573.7194   21456200.902  
                
  23404332.555   125241325.115                    97409921.452    23404335.906  
  23404330.777  
  20982191.078   112319334.855                    87359480.953    20982195.195  
  20982189.875  
  20982601.555   110264337.804    20982608.074    85920309.9214   20982608.016  
                
  23995363.742   126096509.783    23995373.109    98257045.4204   23995372.711  
                
  22807418.719   121576381.083                    94559397.479    22807423.230  
  22807418.359  
  20721433.086   108891877.896    20721438.965    84850848.7874                 
                
  22397098.055   119809376.705                                                  
  22397096.301  
  23174437.289   121782502.901    23174445.863    94895485.6964   23174446.125  
                
  19791040.406   105683097.488                    82197968.942    19791043.004  
  19791038.621  
  21815996.969   116823682.994                    90862859.517    21816000.074  
  21815996.238  
  22503709.500   118257834.408    22503718.594    92149015.1224   22503718.797  
                
  23173354.656   123657480.632                    96178037.283    23173358.891  
  23173353.148  
  21048854.781   112360235.871                    87391308.447    21048856.918  
  21048853.047  
  20949672.141   111909413.777                    87040648.403    20949675.852  
  20949671.672  
  21680759.797   113933172.280    21680764.363    88779110.6224                 
                
 21  8 14 22 32 20.0000000  0 17G17G15R21R 3G14G 1R14G13R23G24R13R 4
                                G30R 2R22R12G19
  20917028.055   109919732.993    20917034.301    85651770.7024   20917034.191  
                
  21456611.000   112755265.289    21456617.668    87861278.8114   21456617.348  
                
  23410046.180   125271899.806                    97433701.773    23410049.500  
  23410044.398  
  20986357.383   112341637.381                    87376827.366    20986361.508  
  20986356.168  
  20986013.023   110282265.163    20986019.543    85934279.2904   20986019.496  
                
  23993591.898   126087198.630    23993601.273    98249789.9804   23993600.863  
                
  22801988.359   121547434.150                    94536883.179    22801992.875  
  22801987.996  
  20724200.484   108906420.620    20724206.336    84862180.7784                 
                
  22389348.305   119767920.993                                                  
  22389346.574  
  23168442.031   121750997.515    23168450.625    94870936.0504   23168450.875  
                
  19789791.516   105676428.493                    82192781.939    19789794.148  
  19789789.738  
  21813108.469   116808215.095                    90850828.916    21813111.543  
  21813107.762  
  22508639.125   118283739.730    22508648.215    92169201.0824   22508648.410  
                
  23181605.688   123701509.210                    96212281.759    23181609.785  
  23181604.125  
  21048593.188   112358839.462                    87390222.371    21048595.336  
  21048591.461  
  20953684.383   111930846.410                    87057318.228    20953688.090  
  20953683.918  
  21675256.844   113904254.026    21675261.422    88756576.9254                 
                
 21  8 14 22 32 30.0000000  0 17G17G15R21R 3G14G 1R14G13R23G24R13R 4
                                G30R 2R22R12G19
  20915872.258   109913659.245    20915878.520    85647037.9134   20915878.402  
                
  21457040.352   112757521.584    21457047.047    87863036.9594   21457046.723  
                
  23415771.234   125302535.745                    97457529.725    23415774.531  
  23415769.484  
  20990537.758   112364015.301                    87394232.409    20990541.875  
  20990536.523  
  20989430.367   110300223.426    20989436.895    85948272.7334   20989436.855  
                
  23991831.812   126077949.341    23991841.203    98242582.7124   23991840.781  
                
  22796559.758   121518496.607                    94514376.240    22796564.285  
  22796559.398  
  20726979.781   108921025.913    20726985.605    84873561.5244                 
                
  22381603.992   119726494.107                                                  
  22381602.258  
  23162449.445   121719506.088    23162458.043    94846397.2874   23162458.301  
                
  19788548.898   105669792.940                    82187620.957    19788551.559  
  19788547.113  
  21810235.727   116792831.654                    90838864.042    21810238.797  
  21810235.020  
  22513574.195   118309673.656    22513583.285    92189409.3324   22513583.477  
                
  23189858.016   123745544.435                    96246531.399    23189861.934  
  23189856.320  
  21048349.297   112357537.612                    87389209.808    21048351.395  
  21048347.590  
  20957700.711   111952300.887                    87074005.048    20957704.445  
  20957700.242  
  21669762.516   113875381.167    21669767.090    88734078.6014                 
                
 21  8 14 22 32 40.0000000  0 17G17G15R21R 3G14G 1R14G13R23G24R13R 4
                                G30R 2R22R12G19
  20914728.438   109907648.452    20914734.707    85642354.1734   20914734.582  
                
  21457482.633   112759845.845    21457489.324    87864848.0704   21457489.004  
                
  23421507.711   125333232.744                    97481405.142    23421510.980  
  23421505.957  
  20994732.180   112386468.476                    87411696.000    20994736.312  
  20994730.961  
  20992853.570   110318212.464    20992860.113    85962290.1664   20992860.066  
                
  23990083.453   126068761.839    23990092.914    98235423.6164   23990092.492  
                
  22791132.906   121489568.521                    94491876.581    22791137.371  
  22791132.551  
  20729770.953   108935693.616    20729776.742    84884990.9014                 
                
  22373865.234   119685096.197                                                  
  22373863.375  
  23156459.508   121688028.682    23156468.102    94821869.4414   23156468.367  
                
  19787312.539   105663190.857                    82182485.991    19787315.227  
  19787310.766  
  21807378.758   116777532.684                    90826964.838    21807381.801  
  21807378.047  
  22518514.688   118335636.117    22518523.773    92209639.8154   22518523.953  
                
  23198111.477   123789586.428                    96280786.314    23198115.367  
  23198109.766  
  21048123.133   112356330.369                    87388270.852    21048125.262  
  21048121.410  
  20961721.125   111973777.175                    87090708.823    20961724.879  
  20961720.652  
  21664276.812   113846553.645    21664281.344    88711615.5974                 
                
 21  8 14 22 32 50.0000000  0 17G17G15R21R 3G14G 1R14G13R23G24R13R 4
                                G30R 2R22R12G19
  20913596.625   109901700.693    20913602.906    85637719.5564   20913602.777  
                
  21457937.891   112762238.217    21457944.562    87866712.2554   21457944.262  
                
  23427255.594   125363990.685                    97505327.986    23427258.828  
  23427253.828  
  20998940.672   112408996.858                    87429218.089    20998944.805  
  20998939.434  
  20996282.641   110336232.337    20996289.203    85976331.6204   20996289.145  
                
  23988346.859   126059636.319    23988356.434    98228312.8304   23988355.992  
                
  22785707.828   121460649.878                    94469384.341    22785712.281  
  22785707.449  
  20732574.023   108950423.820    20732579.777    84896468.9824                 
                
  22366131.906   119643727.500                                                  
  22366129.949  
  23150472.242   121656565.394    23150480.840    94797352.6034   23150481.090  
                
  19786082.461   105656622.279                    82177377.108    19786085.160  
  19786080.695  
  21804537.609   116762318.397                    90815131.502    21804540.602  
  21804536.895  
  22523460.625   118361627.182    22523469.691    92229892.5944   22523469.879  
                
  23206366.172   123833634.903                    96315046.246    23206370.031  
  23206364.441  
  21047914.727   112355217.864                    87387405.576    21047916.848  
  21047912.980  
  20965745.672   111995275.588                    87107429.782    20965749.453  
  20965745.199  
  21658799.828   113817771.873    21658804.320    88689188.2344                 
                
 21  8 14 22 33  0.0000000  0 17G17G15R21R 3G14G 1R14G13R23G24R13R 4
                                G30R 2R22R12G19
  20912476.773   109895815.879    20912483.078    85633133.9934   20912482.949  
                
  21458406.094   112764698.664    21458412.734    87868629.4904   21458412.445  
                
  23433014.836   125394809.445                    97529298.164    23433018.020  
  23433013.086  
  21003163.156   112431600.228                    87446798.482    21003167.312  
  21003161.867  
  20999717.547   110354282.901    20999724.133    85990396.9934   20999724.047  
                
  23986622.094   126050572.801    23986631.770    98221250.3444   23986631.312  
                
  22780284.531   121431740.850                    94446899.529    22780288.977  
  22780284.121  
  20735388.977   108965216.471    20735394.707    84907995.7244                 
                
  22358403.977   119602388.131                                                  
  22358401.973  
  23144487.625   121625116.249    23144496.250    94772846.7874   23144496.512  
                
  19784858.594   105650086.932                    82172294.056    19784861.281  
  19784856.824  
  21801712.250   116747188.714                    90803363.992    21801715.234  
  21801711.535  
  22528411.984   118387646.731    22528421.035    92250167.5684   22528421.227  
                
  23214622.094   123877690.055                    96349311.386    23214625.961  
  23214620.328  
  21047724.008   112354199.848                    87386613.785    21047726.105  
  21047722.254  
  20969774.297   112016795.792                    87124167.722    20969778.086  
  20969773.836  
  21653331.539   113789035.841    21653336.039    88666796.5244                 
                
 21  8 14 22 33 10.0000000  0 17G17G15R21R 3G14G 1R14G13R23G24R13R 4
                                G30R 2R22R12G19
  20911368.883   109889993.903    20911375.211    85628597.3874   20911375.070  
                
  21458887.250   112767227.162    21458893.863    87870599.7504   21458893.586  
                
  23438785.398   125425688.835                    97553315.475    23438788.586  
  23438783.625  
  21007399.625   112454278.469                    87464437.113    21007403.793  
  21007398.309  
  21003158.305   110372364.208    21003164.918    86004486.3134   21003164.816  
                
  23984909.148   126041571.403    23984918.914    98214236.3004   23984918.449  
                
  22774863.023   121402841.266                    94424422.107    22774867.469  
  22774862.613  
  20738215.805   108980071.534    20738221.512    84919571.0914                 
                
  22350681.547   119561078.478                                                  
  22350679.582  
  23138505.719   121593681.362    23138514.320    94748352.0684   23138514.625  
                
  19783641.039   105643585.237                    82167237.176    19783643.727  
  19783639.277  
  21798902.734   116732143.914                    90791662.454    21798905.715  
  21798902.016  
  22533368.781   118413694.866    22533377.859    92270464.8064   22533378.023  
                
  23222879.195   123921751.195                    96383581.181    23222883.004  
  23222877.336  
  21047551.062   112353276.705                    87385895.801    21047553.195  
  21047549.297  
  20973807.055   112038337.993                    87140922.751    20973810.848  
  20973806.570  
  21647871.984   113760345.706    21647876.488    88644440.5804                 
                
 21  8 14 22 33 20.0000000  0 17G17G15R21R 3G14G 1R14G13R23G24R13R 4
                                G30R 2R22R12G19
  20910272.984   109884234.906    20910279.328    85624109.8614   20910279.180  
                
  21459381.344   112769823.576    21459387.926    87872622.9284   21459387.664  
                
  23444567.289   125456628.810                    97577379.904    23444570.453  
  23444565.512  
  21011650.094   112477031.554                    87482133.939    21011654.258  
  21011648.777  
  21006604.883   110390476.090    21006611.516    86018599.4674   21006611.391  
                
  23983208.078   126032632.105    23983217.844    98207270.6574   23983217.398  
                
  22769443.312   121373951.145                    94401952.017    22769447.711  
  22769442.895  
  20741054.484   108994988.900    20741060.172    84931195.0154                 
                
  22342964.555   119519798.439                                                  
  22342962.723  
  23132526.555   121562260.735    23132535.074    94723868.4754   23132535.402  
                
  19782429.758   105637117.054                    82162206.375    19782432.461  
  19782428.012  
  21796109.039   116717183.836                    90780026.843    21796112.012  
  21796108.312  
  22538330.977   118439771.449    22538340.062    92290784.2094   22538340.227  
                
  23231137.461   123965818.859                    96417856.050    23231141.273  
  23231135.555  
  21047395.883   112352448.312                    87385251.490    21047398.062  
  21047394.086  
  20977843.891   112059901.996                    87157694.756    20977847.684  
  20977843.414  
  21642421.156   113731701.437    21642425.652    88622120.3714                 
                
 21  8 14 22 33 30.0000000  0 17G17G15R21R 3G14G 1R14G13R23G24R13R 4
                                G30R 2R22R12G19
  20909189.062   109878538.901    20909195.410    85619671.4174   20909195.254  
                
  21459888.344   112772487.888    21459894.910    87874699.0184   21459894.652  
                
  23450360.430   125487629.075                    97601491.231    23450363.605  
  23450358.680  
  21015914.477   112499859.022                    87499888.649    21015918.633  
  21015913.184  
  21010057.266   110408618.466    21010063.906    86032736.3814   21010063.773  
                
  23981518.852   126023754.988    23981528.598    98200353.4404   23981528.137  
                
  22764025.383   121345070.562                    94379489.320    22764029.715  
  22764024.934  
  20743904.984   109009968.388    20743910.652    84942867.3424                 
                
  22335253.188   119478548.244                                                  
  22335251.441  
  23126550.125   121530854.356    23126558.559    94699395.9794   23126558.930  
                
  19781224.766   105630682.443                    82157201.672    19781227.465  
  19781223.023  
  21793331.203   116702308.634                    90768457.251    21793334.172  
  21793330.461  
  22543298.586   118465876.429    22543307.648    92311125.7534   22543307.836  
                
  23239396.734   124009892.016                    96452135.177    23239400.562  
  23239394.797  
  21047258.414   112351714.503                    87384680.753    21047260.645  
  21047256.609  
  20981884.797   112081487.721                    87174483.639    20981888.598  
  20981884.340  
  21636979.094   113703103.216    21636983.582    88599836.0424                 
                
 21  8 14 22 33 40.0000000  0 17G17G15R21R 3G14G 1R14G13R23G24R13R 4
                                G30R 2R22R12G19
  20908117.133   109872905.852    20908123.488    85615282.0284   20908123.332  
                
  21460408.297   112775220.223    21460414.859    87876828.1104   21460414.609  
                
  23456164.844   125518689.610                    97625649.433    23456168.043  
  23456163.105  
  21020192.789   112522761.113                    87517701.385    21020196.961  
  21020191.496  
  21013515.461   110426791.357    21013522.102    86046897.0744   21013521.965  
                
  23979841.500   126014940.113    23979851.172    98193484.7174   23979850.723  
                
  22758609.219   121316199.460                    94357034.029    22758613.594  
  22758608.793  
  20746767.328   109025010.079    20746772.988    84954588.1404                 
                
  22327547.391   119437328.054                                                  
  22327545.727  
  23120576.422   121499462.382    23120584.879    94674934.6944   23120585.223  
                
  19780026.016   105624281.170                    82152222.907    19780028.730  
  19780024.277  
  21790569.227   116687518.394                    90756953.726    21790572.203  
  21790568.488  
  22548271.609   118492009.826    22548280.672    92331489.4304   22548280.852  
                
  23247657.125   124053971.009                    96486418.840    23247660.938  
  23247655.164  
  21047138.680   112351075.339                    87384183.643    21047140.949  
  21047136.875  
  20985929.781   112103095.213                    87191289.454    20985933.590  
  20985929.355  
  21631545.812   113674551.122    21631550.289    88577587.6684                 
                
 21  8 14 22 33 50.0000000  0 17G17G15R21R 3G14G 1R14G13R23G24R13R 4
                                G30R 2R22R12G19
  20907057.133   109867335.556    20907063.508    85610941.5414   20907063.336  
                
  21460941.125   112778020.239    21460947.699    87879009.9384   21460947.445  
                
  23461980.422   125549809.917                    97649854.093    23461983.621  
  23461978.605  
  21024484.922   112545737.229                    87535571.689    21024489.086  
  21024483.621  
  21016979.398   110444994.462    21016986.035    86061081.3114   21016985.891  
                
  23978175.945   126006187.381    23978185.543    98186664.3864   23978185.117  
                
  22753194.797   121287337.674                    94334585.992    22753199.168  
  22753194.383  
  20749641.445   109040113.655    20749647.105    84966357.1584                 
                
  22319847.320   119396138.032                                                  
  22319845.637  
  23114605.414   121468084.642    23114613.961    94650484.5084   23114614.258  
                
  19778833.461   105617913.054                    82147269.922    19778836.199  
  19778831.727  
  21787823.102   116672813.025                    90745516.202    21787826.059  
  21787822.387  
  22553249.977   118518171.375    22553259.062    92351875.0564   22553259.230  
                
  23255918.445   124098055.107                    96520706.479    23255922.277  
  23255916.484  
  21047036.664   112350530.774                    87383760.107    21047038.930  
  21047034.883  
  20989978.812   112124724.364                    87208112.123    20989982.621  
  20989978.387  
  21626121.266   113646044.989    21626125.711    88555375.0984                 
                
 21  8 14 22 34  0.0000000  0 17G17G15R21R 3G14G 1R14G13R23G24R13R 4
                                G30R 2R22R12G19
  20906009.148   109861828.412    20906015.555    85606650.2594   20906015.371  
                
  21461486.906   112780888.305    21461493.508    87881244.7884   21461493.230  
                
  23467807.250   125580990.391                    97674105.580    23467810.441  
  23467805.391  
  21028790.969   112568787.801                    87553499.908    21028795.137  
  21028789.656  
  21020449.148   110463228.080    21020455.773    86075289.3254   21020455.625  
                
  23976522.250   125997497.107    23976531.801    98179892.7424   23976531.398  
                
  22747782.195   121258485.537                    94312145.459    22747786.527  
  22747781.762  
  20752527.391   109055279.384    20752533.039    84978174.6034                 
                
  22312152.969   119354978.500                                                  
  22312151.266  
  23108637.203   121436721.501    23108645.789    94626045.7064   23108646.074  
                
  19777647.242   105611578.706                    82142343.199    19777649.984  
  19777645.516  
  21785092.891   116658192.836                    90734144.943    21785095.820  
  21785092.176  
  22558233.766   118544361.423    22558242.895    92372282.8824   22558243.070  
                
  23264180.805   124142144.920                    96554998.569    23264184.691  
  23264178.875  
  21046952.414   112350081.045                    87383410.300    21046954.672  
  21046950.645  
  20994031.945   112146375.407                    87224951.817    20994035.766  
  20994031.531  
  21620705.570   113617585.270    21620709.961    88533198.6954                 
                
 21  8 14 22 34 10.0000000  0 17G17G15R21R 3G14G 1R14G13R23G24R13R 4
                                G30R 2R22R12G19
  20904973.070   109856383.850    20904979.500    85602407.7484   20904979.305  
                
  21462045.594   112783824.241    21462052.215    87883532.5294   21462051.918  
                
  23473645.219   125612230.580                    97698403.479    23473648.430  
  23473643.336  
  21033110.805   112591912.281                    87571485.629    21033114.980  
  21033109.492  
  21023924.641   110481491.921    21023931.258    86089520.8884   21023931.094  
                
  23974880.422   125988869.171    23974889.918    98173169.6764   23974889.559  
                
  22742371.344   121229642.793                    94289712.218    22742375.621  
  22742370.887  
  20755425.109   109070507.015    20755430.742    84990040.2934                 
                
  22304464.273   119313849.359                                                  
  22304462.566  
  23102671.719   121405372.780    23102680.309    94601618.1504   23102680.598  
                
  19776467.250   105605277.643                    82137442.370    19776469.988  
  19776465.516  
  21782378.562   116643657.698                    90722839.825    21782381.457  
  21782377.836  
  22563222.930   118570579.710    22563232.094    92392712.7054   22563232.254  
                
  23272444.242   124186240.196                    96589294.913    23272448.117  
  23272442.301  
  21046885.844   112349725.793                    87383134.005    21046888.164  
  21046884.074  
  20998089.133   112168048.162                    87241808.393    20998092.953  
  20998088.723  
  21615298.656   113589171.821    21615303.016    88511058.3464                 
                
 21  8 14 22 34 20.0000000  0 17G17G15R21R 3G14G 1R14G13R23G24R13R 4
                                G30R 2R22R12G19
  20903949.023   109851002.423    20903955.465    85598214.4264   20903955.254  
                
  21462617.203   112786828.080    21462623.840    87885873.1754   21462623.535  
                
  23479494.328   125643530.308                    97722747.704    23479497.523  
  23479492.445  
  21037444.469   112615110.709                    87589528.827    21037448.645  
  21037443.145  
  21027405.914   110499786.088    21027412.508    86103776.0774   21027412.332  
                
  23973250.492   125980303.784    23973259.988    98166495.3484   23973259.660  
                
  22736962.344   121200809.703                    94267286.475    22736966.602  
  22736961.875  
  20758334.633   109085796.662    20758340.250    85001954.3024                 
                
  22296781.336   119272751.003                                                  
  22296779.684  
  23096709.062   121374038.763    23096717.621    94577202.0274   23096717.918  
                
  19775293.562   105599010.172                    82132567.680    19775296.293  
  19775291.836  
  21779680.164   116629207.856                    90711601.077    21779683.047  
  21779679.422  
  22568217.508   118596826.316    22568226.688    92413164.6074   22568226.832  
                
  23280708.586   124230340.529                    96623595.195    23280712.492  
  23280706.688  
  21046837.102   112349465.544                    87382931.594    21046839.402  
  21046835.352  
  21002150.398   112189742.636                    87258681.870    21002154.219  
  21002150.000  
  21609900.609   113560804.878    21609904.953    88488954.2434                 
                
 21  8 14 22 34 30.0000000  0 17G17G15R21R 3G14G 1R14G13R23G24R13R 4
                                G30R 2R22R12G19
  20902936.969   109845684.095    20902943.422    85594070.2754   20902943.215  
                
  21463201.711   112789899.684    21463208.355    87888266.6284   21463208.027  
                
  23485354.586   125674889.683                    97747138.310    23485357.742  
  23485352.648  
  21041791.914   112638382.936                    87607629.459    21041796.094  
  21041790.582  
  21030892.930   110518110.440    21030899.484    86118054.7974   21030899.316  
                
  23971632.430   125971800.921    23971641.988    98159869.7454   23971641.629  
                
  22731555.117   121171986.211                    94244868.181    22731559.363  
  22731554.672  
  20761255.938   109101148.194    20761261.555    85013916.5314                 
                
  22289104.289   119231683.504                                                  
  22289102.578  
  23090749.188   121342719.365    23090757.750    94552797.3054   23090758.043  
                
  19774126.125   105592776.096                    82127718.956    19774128.844  
  19774124.379  
  21776997.672   116614843.313                    90700428.642    21777000.559  
  21776996.941  
  22573217.469   118623101.214    22573226.676    92433638.5664   22573226.797  
                
  23288973.867   124274445.765                    96657899.288    23288977.770  
  23288971.988  
  21046806.086   112349299.989                    87382802.819    21046808.477  
  21046804.336  
  21006215.719   112211458.807                    87275572.224    21006219.527  
  21006215.312  
  21604511.422   113532484.545    21604515.727    88466886.4444                 
                
 21  8 14 22 34 40.0000000  0 17G17G15R21R 3G14G 1R14G13R23G24R13R 4
                                G30R 2R22R12G19
  20901936.914   109840428.825    20901943.379    85589975.2654   20901943.164  
                
  21463799.133   112793039.139    21463805.781    87890712.9544   21463805.453  
                
  23491225.914   125706308.262                    97771574.983    23491229.062  
  23491223.992  
  21046153.133   112661728.872                    87625787.406    21046157.309  
  21046151.809  
  21034385.680   110536464.965    21034392.176    86132357.0124   21034392.035  
                
  23970026.305   125963360.670    23970035.855    98153292.9264   23970035.504  
                
  22726149.727   121143172.375                    94222457.444    22726154.027  
  22726149.328  
  20764189.016   109116561.584    20764194.633    85025926.9664                 
                
  22281433.086   119190647.118                                                  
  22281431.297  
  23084792.117   121311414.743    23084800.719    94528404.1004   23084800.988  
                
  19772964.992   105586575.764                    82122896.454    19772967.676  
  19772963.246  
  21774331.141   116600564.158                    90689322.641    21774334.031  
  21774330.410  
  22578222.781   118649404.361    22578232.027    92454134.5124   22578232.125  
                
  23297240.062   124318555.797                    96692207.094    23297243.961  
  23297238.160  
  21046792.820   112349229.169                    87382747.736    21046795.266  
  21046791.078  
  21010285.109   112233196.705                    87292479.465    21010288.918  
  21010284.707  
  21599131.125   113504210.903    21599135.375    88444855.0254                 
                
 21  8 14 22 34 50.0000000  0 17G17G15R21R 3G14G 1R14G13R23G24R13R 4
                                G30R 2R22R12G19
  20900948.859   109835236.621    20900955.328    85585929.3994   20900955.121  
                
  21464409.453   112796246.414    21464416.098    87893212.1254   21464415.777  
                
  23497108.320   125737786.175                    97796057.802    23497111.453  
  23497106.414  
  21050528.117   112685148.464                    87644002.629    21050532.281  
  21050526.824  
  21037884.156   110554849.571    21037890.609    86146682.6834   21037890.500  
                
  23968432.086   125954983.026    23968441.660    98146764.9104   23968441.340  
                
  22720746.125   121114368.149                    94200054.172    22720750.469  
  22720745.746  
  20767133.852   109132036.827    20767139.465    85037985.5924                 
                
  22273767.641   119149641.951                                                  
  22273765.844  
  23078837.844   121280124.851    23078846.504    94504022.3764   23078846.746  
                
  19771810.156   105580409.037                    82118100.113    19771812.840  
  19771808.402  
  21771680.562   116586370.454                    90678283.087    21771683.465  
  21771679.809  
  22583233.461   118675735.732    22583242.711    92474652.4584   22583242.801  
                
  23305507.078   124362670.599                    96726518.614    23305511.039  
  23305505.234  
  21046797.266   112349252.936                    87382766.228    21046799.645  
  21046795.504  
  21014358.555   112254956.278                    87309403.572    21014362.367  
  21014358.152  
  21593759.719   113475984.019    21593763.941    88422860.0534                 
                
 21  8 14 22 35  0.0000000  0 17G17G15R21R 3G14G 1R14G13R23G24R13R 4
                                G30R 2R22R12G19
  20899972.836   109830107.563    20899979.297    85581932.7344   20899979.094  
                
  21465032.703   112799521.585    21465039.332    87895764.2044   21465039.012  
                
  23503001.773   125769323.182                    97820586.597    23503004.875  
  23502999.871  
  21054916.844   112708641.518                    87662275.004    21054921.000  
  21054915.562  
  21041388.375   110573264.336    21041394.789    86161031.8444   21041394.691  
                
  23966849.844   125946668.259    23966859.480    98140285.8794   23966859.180  
                
  22715344.344   121085573.575                    94177658.417    22715348.688  
  22715343.961  
  20770090.477   109147573.937    20770096.078    85050092.4274                 
                
  22266108.062   119108668.325                                                  
  22266106.262  
  23072886.422   121248849.920    23072895.109    94479652.3014   23072895.336  
                
  19770661.680   105574276.164                    82113330.109    19770664.348  
  19770659.945  
  21769045.992   116572262.397                    90667310.156    21769048.914  
  21769045.191  
  22588249.531   118702095.368    22588258.777    92495192.4404   22588258.863  
                
  23313775.070   124406789.992                    96760833.709    23313778.973  
  23313773.215  
  21046819.531   112349371.789                    87382858.653    21046821.891  
  21046817.785  
  21018436.070   112276737.584                    87326344.587    21018439.883  
  21018435.676  
  21588397.258   113447804.127    21588401.492    88400901.7004                 
                
 21  8 14 22 35 10.0000000  0 17G17G15R21R 3G14G 1R14G13R23G24R13R 4
                                G30R 2R22R12G19
  20899008.766   109825041.381    20899015.211    85577985.0614   20899015.004  
                
  21465668.805   112802864.358    21465675.402    87898368.9574   21465675.090  
                
  23508906.203   125800918.927                    97845161.067    23508909.258  
  23508904.277  
  21059319.211   112732207.712                    87680604.261    21059323.355  
  21059317.949  
  21044898.266   110591708.925    21044904.660    86175404.2514   21044904.566  
                
  23965279.555   125938416.111    23965289.172    98133855.6624   23965288.852  
                
  22709944.328   121056788.519                    94155270.032    22709948.648  
  22709944.008  
  20773058.812   109163172.610    20773064.402    85062247.2494                 
                
  22258454.250   119067726.186                                                  
  22258452.535  
  23066937.805   121217589.732    23066946.531    94455293.7324   23066946.723  
                
  19769519.406   105568176.457                    82108585.891    19769522.066  
  19769517.672  
  21766427.336   116558239.692                    90656403.605    21766430.277  
  21766426.559  
  22593270.930   118728483.042    22593280.156    92515754.2654   22593280.242  
                
  23322043.820   124450913.502                    96795152.015    23322047.707  
  23322041.957  
  21046859.508   112349585.212                    87383024.666    21046861.887  
  21046857.758  
  21022517.617   112298540.411                    87343302.331    21022521.438  
  21022517.242  
  21583043.711   113419671.051    21583047.973    88378979.8284                 
                
 21  8 14 22 35 20.0000000  0 17G17G15R21R 3G14G 1R14G13R23G24R13R 4
                                G30R 2R22R12G19
  20898056.688   109820038.251    20898063.117    85574086.5194   20898062.910  
                
  21466317.812   112806274.934    21466324.371    87901026.5444   21466324.086  
                
  23514821.641   125832573.577                    97869781.351    23514824.672  
  23514819.734  
  21063735.250   112755847.086                    87698990.444    21063739.379  
  21063733.977  
  21048413.867   110610183.535    21048420.238    86189800.0504   21048420.152  
                
  23963721.258   125930226.940    23963730.801    98127474.4744   23963730.477  
                
  22704546.156   121028013.108                    94132889.155    22704550.449  
  22704545.840  
  20776038.883   109178833.018    20776044.457    85074450.1584                 
                
  22250806.477   119026815.879                                                  
  22250804.777  
  23060992.047   121186344.593    23061000.828    94430946.8834   23061000.988  
                
  19768383.445   105562110.504                    82103867.924    19768386.113  
  19768381.703  
  21763824.719   116544302.827                    90645563.804    21763827.660  
  21763823.977  
  22598297.695   118754898.964    22598306.938    92536338.0794   22598307.027  
                
  23330313.383   124495041.185                    96829473.575    23330317.172  
  23330311.508  
  21046917.266   112349893.572                    87383264.500    21046919.609  
  21046915.531  
