     2.11           OBSERVATION DATA    M (MIXED)           RINEX VERSION / TYPE
EFT-CORS.RU                             20210817 145303 UTC PGM / RUN BY / DATE 
MDNG                                                        MARKER NAME         
                                                            MARKER NUMBER       
MDNG                EFT-CORS.RU                             OBSERVER / AGENCY   
0                   TRIMBLE BD970       2.0                 REC # / TYPE / VERS 
0                   UNKNOWN EXT NONE                        ANT # / TYPE        
  3463911.2830  3030468.2400  4402179.3760                  APPROX POSITION XYZ 
        0.0000        0.0000        0.0000                  ANTENNA: DELTA H/E/N
     1     1                                                WAVELENGTH FACT L1/2
     6    C1    L1    P2    L2    C2    P1                  # / TYPES OF OBSERV 
    10.000                                                  INTERVAL            
  2021     8    15    13    30    0.0000000     GPS         TIME OF FIRST OBS   
  2021     8    15    14    30    0.0000000     GPS         TIME OF LAST OBS    
     0                                                      RCV CLOCK OFFS APPL 
                                                            END OF HEADER       
 21  8 15 13 30  0.0000000  0 16G 4G17R23R 8G31G 1G22G21R 7R16G32R22
                                G19R 6G 3R 9
  22843691.930   120044446.706    22843700.605    93541184.7914   22843700.590  
                
  23857318.562   125371073.008    23857326.207    97691782.8524   23857326.250  
                
  20767566.547   111092511.754                                                  
  20767565.172  
  20703475.375   110866218.862                    86229291.997    20703478.242  
  20703474.320  
  21313362.883   112002538.148    21313369.461    87274764.7204   21313369.617  
                
  20257592.680   106454420.543    20257602.527    82951548.3554   20257602.238  
                
  20630191.398   108412439.662    20630195.391    84477207.7974                 
                
  21435069.047   112642094.108    21435075.520    87773101.5454                 
                
  19832424.391   106164581.847                    82572472.060    19832429.082  
  19832423.055  
  22156932.070   118358376.133                    92056545.679    22156934.066  
  22156931.406  
  23830059.234   125227835.197    23830069.312    97580184.7994   23830069.551  
                
  20895976.742   111544185.289                    86756606.990    20895980.094  
  20895975.012  
  24331135.391   127860980.672    24331141.719    99631958.1904                 
                
  22599741.906   120596581.372                                                  
  22599739.477  
  20990357.938   110305136.675    20990366.867    85952106.6874   20990367.203  
                
  22211476.445   118608071.261                    92250724.213    22211480.066  
  22211475.398  
 21  8 15 13 30 10.0000000  0 16G 4G17R23R 8G31G 1G22G21R 7R16G32R22
                                G19R 6G 3R 9
  22838134.883   120015244.314    22838143.520    93518429.7044   22838143.520  
                
  23857268.023   125370807.435    23857275.703    97691575.8974   23857275.727  
                
  20764539.711   111076320.247                                                  
  20764538.316  
  20700085.516   110848066.317                    86215173.344    20700088.359  
  20700084.453  
  21312431.070   111997641.435    21312437.645    87270949.1014   21312437.789  
                
  20259123.477   106462464.858    20259133.344    82957816.6524   20259133.043  
                
  20629268.219   108407588.274    20629272.223    84473427.4964                 
                
  21438201.672   112658556.093    21438208.117    87785929.0614                 
                
  19834354.609   106174914.356                    82580508.464    19834359.281  
  19834353.285  
  22157565.336   118361758.918                    92059176.721    22157567.336  
  22157564.676  
  23836014.562   125259130.541    23836024.539    97604570.7864   23836024.820  
                
  20902341.406   111578160.145                    86783031.861    20902344.777  
  20902339.676  
  24328427.602   127846751.245    24328433.988    99620870.3314                 
                
  22605461.414   120627101.345                                                  
  22605458.926  
  20987211.852   110288603.845    20987220.766    85939223.9634   20987221.113  
                
  22206049.445   118579091.465                    92228184.389    22206053.109  
  22206048.418  
 21  8 15 13 30 20.0000000  0 16G 4G17R23R 8G31G 1G22G21R 7R16G32R22
                                G19R 6G 3R 9
  22832583.023   119986069.135    22832591.621    93495695.8084   22832591.629  
                
  23857228.516   125370599.775    23857236.273    97691414.0944   23857236.234  
                
  20761529.164   111060215.859                                                  
  20761527.734  
  20696701.562   110829945.416                    86201079.314    20696704.391  
  20696700.523  
  21311512.828   111992816.030    21311519.398    87267189.0454   21311519.543  
                
  20260666.828   106470575.237    20260676.719    82964136.4204   20260676.402  
                
  20628351.656   108402771.723    20628355.676    84469674.3344                 
                
  21441343.133   112675064.562    21441349.547    87798792.7894                 
                
  19836291.000   106185280.006                    82588570.629    19836295.672  
  19836289.680  
  22158214.992   118365229.209                    92061875.847    22158216.973  
  22158214.355  
  23841971.391   125290433.725    23841981.305    97628962.8704   23841981.617  
                
  20908717.172   111612194.438                    86809502.970    20908720.566  
  20908715.465  
  24325731.844   127832584.999    24325738.262    99609831.7084                 
                
  22611181.875   120657626.821                                                  
  22611179.383  
  20984071.312   110272100.211    20984080.215    85926363.9914   20984080.566  
                
  22200632.289   118550164.391                    92205685.577    22200636.000  
  22200631.270  
 21  8 15 13 30 30.0000000  0 16G 4G17R23R 8G31G 1G22G21R 7R16G32R22
                                G19R 6G 3R 9
  22827036.305   119956921.080    22827044.879    93472983.0624   22827044.926  
                
  23857199.992   125370449.938    23857207.832    97691297.3504   23857207.742  
                
  20758534.891   111044198.531                                                  
  20758533.453  
  20693323.438   110811855.716                    86187009.559    20693326.258  
  20693322.402  
  21310608.125   111988061.809    21310614.699    87263484.4684   21310614.836  
                
  20262222.727   106478751.546    20262232.637    82970507.5704   20262232.312  
                
  20627441.711   108397989.929    20627445.746    84465948.2644                 
                
  21444493.398   112691619.292    21444499.812    87811692.5744                 
                
  19838233.578   106195678.760                    82596658.547    19838238.238  
  19838232.250  
  22158881.062   118368787.171                    92064643.144    22158883.004  
  22158880.441  
  23847929.656   125321744.562    23847939.570    97653360.9014   23847939.859  
                
  20915104.031   111646287.947                    86836020.113    20915107.477  
  20915102.285  
  24323048.086   127818481.850    24323054.508    99598842.2394                 
                
  22616903.312   120688157.496                                                  
  22616900.789  
  20980936.305   110255625.684    20980945.199    85913526.7004   20980945.551  
                
  22195225.023   118521290.044                    92183227.767    22195228.734  
  22195224.016  
 21  8 15 13 30 40.0000000  0 16G 4G17R23R 8G31G 1G22G21R 7R16G32R22
                                G19R 6G 3R 9
  22821494.773   119927800.307    22821503.340    93450291.5734   22821503.375  
                
  23857182.508   125370358.025    23857190.383    97691225.7244   23857190.270  
                
  20755556.938   111028268.526                                                  
  20755555.504  
  20689951.188   110793797.472                    86172964.262    20689954.008  
  20689950.156  
  21309716.992   111983378.860    21309723.574    87259835.4164   21309723.715  
                
  20263791.188   106486993.875    20263801.109    82976930.1604   20263800.770  
                
  20626538.406   108393243.038    20626542.457    84462249.3914                 
                
  21447652.492   112708220.442    21447658.906    87824628.5224                 
                
  19840182.320   106206110.521                    82604772.141    19840186.988  
  19840181.008  
  22159563.492   118372432.683                    92067478.526    22159565.453  
  22159562.883  
  23853889.383   125353063.123    23853899.301    97677764.9424   23853899.582  
                
  20921501.914   111680440.246                    86862583.006    20921505.410  
  20921500.164  
  24320376.383   127804441.965    24320382.754    99587902.1104                 
                
  22622625.766   120718693.681                                                  
  22622623.207  
  20977806.875   110239180.399    20977815.762    85900712.2034   20977816.117  
                
  22189827.664   118492468.594                    92160811.091    22189831.383  
  22189826.641  
 21  8 15 13 30 50.0000000  0 16G 4G17R23R 8G31G 1G22G21R 7R16G32R22
                                G19R 6G 3R 9
  22815958.586   119898707.581    22815967.156    93427621.9314   22815967.180  
                
  23857176.180   125370324.765    23857184.055    97691199.8204   23857183.898  
                
  20752595.477   111012426.701                                                  
  20752594.043  
  20686584.945   110775771.438                    86158944.030    20686587.773  
  20686583.926  
  21308839.578   111978768.017    21308846.172    87256242.5574   21308846.305  
                
  20265372.359   106495302.958    20265382.285    82983404.7654   20265381.953  
                
  20625641.883   108388531.759    20625645.953    84458578.2704                 
                
  21450820.539   112724868.617    21450826.930    87837601.1164                 
                
  19842137.344   106216575.905                    82612911.889    19842142.000  
  19842136.012  
  22160262.469   118376166.460                    92070382.578    22160264.473  
  22160261.855  
  23859850.711   125384390.050    23859860.582    97702175.5274   23859860.875  
                
  20927911.023   111714652.448                    86889192.499    20927914.504  
  20927909.266  
  24317716.859   127790466.197    24317723.152    99577011.9094                 
                
  22628349.312   120749235.648                                                  
  22628346.766  
  20974683.156   110222765.183    20974692.035    85887921.1304   20974692.406  
                
  22184440.375   118463701.006                    92138436.328    22184444.148  
  22184439.336  
 21  8 15 13 31  0.0000000  0 16G 4G17R23R 8G31G 1G22G21R 7R16G32R22
                                G19R 6G 3R 9
  22810427.664   119869642.554    22810436.250    93404973.8724   22810436.250  
                
  23857180.922   125370349.653    23857188.750    97691219.2354   23857188.590  
                
  20749650.414   110996672.603                                                  
  20749648.973  
  20683224.703   110757777.507                    86144948.751    20683227.523  
  20683223.699  
  21307975.812   111974228.908    21307982.430    87252705.5884   21307982.547  
                
  20266966.141   106503678.340    20266976.086    82989931.0364   20266975.750  
                
  20624752.078   108383855.805    20624756.164    84454934.6684                 
                
  21453997.469   112741563.448    21454003.844    87850610.0804                 
                
  19844098.602   106227074.655                    82621077.575    19844103.258  
  19844097.262  
  22160977.945   118379988.323                    92073355.129    22160979.988  
  22160977.348  
  23865813.562   125415724.902    23865823.328    97726592.2974   23865823.668  
                
  20934331.180   111748923.747                    86915847.936    20934334.652  
  20934329.449  
  24315069.484   127776554.194    24315075.723    99566171.3924                 
                
  22634073.875   120779783.418                                                  
  22634071.371  
  20971565.094   110206379.638    20971573.973    85875153.1764   20971574.344  
                
  22179063.133   118434986.976                    92116103.217    22179066.949  
  22179062.105  
 21  8 15 13 31 10.0000000  0 16G 4G17R23R 8G31G 1G22G21R 7R16G32R22
                                G19R 6G 3R 9
  22804901.992   119840605.119    22804910.570    93382347.3244   22804910.582  
                
  23857196.711   125370432.655    23857204.535    97691283.9044   23857204.363  
                
  20746721.758   110981006.288                                                  
  20746720.301  
  20679870.328   110739815.040                    86130977.956    20679873.168  
  20679869.316  
  21307125.641   111969761.292    21307132.285    87249224.3384   21307132.387  
                
  20268572.516   106512119.897    20268582.480    82996508.8654   20268582.141  
                
  20623868.969   108379215.051    20623873.074    84451318.4964                 
                
  21457183.234   112758304.704    21457189.578    87863655.2054                 
                
  19846066.008   106237606.347                    82629268.900    19846070.656  
  19846064.664  
  22161709.797   118383897.673                    92076395.759    22161711.820  
  22161709.199  
  23871777.867   125447067.509    23871787.582    97751015.1024   23871787.949  
                
  20940762.383   111783253.926                    86942549.181    20940765.883  
  20940760.652  
  24312434.172   127762705.817    24312440.391    99555380.4184                 
                
  22639799.508   120810336.536                                                  
  22639797.016  
  20968452.648   110190023.682    20968461.539    85862408.2864   20968461.898  
                
  22173695.969   118406326.604                    92093811.830    22173699.805  
  22173694.930  
 21  8 15 13 31 20.0000000  0 16G 4G17R23R 8G31G 1G22G21R 7R16G32R22
                                G19R 6G 3R 9
  22799381.625   119811595.454    22799390.238    93359742.4114   22799390.238  
                
  23857223.570   125370573.766    23857231.414    97691393.8564   23857231.203  
                
  20743809.562   110965428.033                                                  
  20743808.090  
  20676521.930   110721884.507                    86117031.999    20676524.789  
  20676520.922  
  21306289.125   111965365.377    21306295.785    87245798.9634   21306295.875  
                
  20270191.516   106520627.748    20270201.504    83003138.3644   20270201.152  
                
  20622992.594   108374609.632    20622996.715    84447729.8644                 
                
  21460377.852   112775092.480    21460384.160    87876736.5854                 
                
  19848039.656   106248171.409                    82637486.173    19848044.309  
  19848038.312  
  22162458.148   118387895.236                    92079504.950    22162460.137  
  22162457.523  
  23877743.672   125478417.963    23877753.375    97775444.0054   23877753.738  
                
  20947204.578   111817642.849                    86969296.104    20947208.152  
  20947202.840  
  24309811.023   127748921.285    24309817.273    99544639.2314                 
                
  22645526.328   120840895.679                                                  
  22645523.801  
  20965345.883   110173697.482    20965354.785    85849686.5754   20965355.137  
                
  22168338.875   118377720.111                    92071562.364    22168342.746  
  22168337.887  
 21  8 15 13 31 30.0000000  0 17G 4G17R23R 8G31G 1G22G21R 7R16G32R24
                                R22G19R 6G 3R 9
  22793866.492   119782613.386    22793875.184    93337159.0014   22793875.160  
                
  23857261.438   125370772.754    23857269.227    97691548.8974   23857269.062  
                
  20740913.781   110949937.645                                                  
  20740912.301  
  20673179.422   110703985.594                    86103110.611    20673182.301  
  20673178.418  
  21305466.234   111961041.126    21305472.887    87242429.4144   21305472.980  
                
  20271823.070   106529201.668    20271833.074    83009819.3264   20271832.707  
                
  20622122.898   108370039.412    20622127.035    84444168.6544                 
                
  21463581.266   112791926.506    21463587.551    87889854.0074                 
                
  19850019.398   106258769.165                    82645728.866    19850024.039  
  19850018.047  
  22163222.891   118391980.456                    92082682.327    22163224.863  
  22163222.219  
  23883710.898   125509775.956    23883720.570    97799878.7814   23883720.930  
                
  23616593.180   126288531.125                    98224404.440    23616597.773  
  23616592.363  
  20953657.719   111852090.209                    86996088.483    20953661.301  
  20953655.934  
  24307200.055   127735200.398    24307206.344    99533947.6454                 
                
  22651254.078   120871459.933                                                  
  22651251.520  
  20962244.727   110157400.863    20962253.645    85836987.9154   20962253.980  
                
  22162991.906   118349167.552                    92049354.815    22162995.754  
  22162990.969  
 21  8 15 13 31 40.0000000  0 17G 4G17R23R 8G31G 1G22G21R 7R16G32R24
                                R22G19R 6G 3R 9
  22788356.734   119753659.457    22788365.484    93314597.5254   22788365.430  
                
  23857310.414   125371030.109    23857318.102    97691749.4354   23857318.074  
                
  20738034.570   110934535.780                                                  
  20738033.070  
  20669842.898   110686118.752                    86089214.203    20669845.816  
  20669841.883  
  21304657.055   111956788.850    21304663.688    87239115.9674   21304663.801  
                
  20273467.305   106537842.119    20273477.340    83016552.1504   20273476.965  
                
  20621260.008   108365504.868    20621264.152    84440635.2354                 
                
  21466793.586   112808807.326    21466799.852    87903007.8904                 
                
  19852005.422   106269400.561                    82653997.742    19852010.074  
  19852004.055  
  22164004.141   118396153.794                    92085928.270    22164006.109  
  22164003.457  
  23889679.656   125541141.969    23889689.273    97824319.8154   23889689.652  
                
  23609458.148   126250377.655                    98194729.534    23609462.805  
  23609457.363  
  20960121.906   111886596.476                    87022926.677    20960125.523  
  20960120.129  
  24304601.289   127721543.666    24304607.613    99523306.0524                 
                
  22656982.922   120902029.936                                                  
  22656980.320  
  20959149.320   110141134.395    20959158.258    85824312.7444   20959158.582  
                
  22157655.172   118320669.517                    92027189.687    22157659.012  
  22157654.281  
 21  8 15 13 31 50.0000000  0 17G 4G17R23R 8G31G 1G22G21R 7R16G32R24
                                R22G19R 6G 3R 9
  22782852.227   119724732.994    22782861.004    93292057.4484   22782860.934  
                
  23857370.367   125371345.166    23857377.965    97691994.9494   23857378.059  
                
  20735171.766   110919221.695                                                  
  20735170.219  
  20666512.250   110668283.295                    86075342.192    20666515.191  
  20666511.207  
  21303861.461   111952607.935    21303868.062    87235858.1124   21303868.191  
                
  20275124.055   106546548.374    20275134.125    83023336.2444   20275133.734  
                
  20620403.781   108361005.344    20620407.934    84437129.1174                 
                
  21470014.672   112825734.202    21470020.945    87916197.6544                 
                
  19853997.547   106280064.544                    82662291.946    19854002.191  
  19853996.172  
  22164801.797   118400414.708                    92089242.317    22164803.797  
  22164801.117  
  23895649.820   125572515.217    23895659.383    97848766.4954   23895659.785  
                
  23602330.453   126212263.574                    98165085.279    23602335.270  
  23602329.801  
  20966596.953   111921160.678                    87049809.936    20966600.602  
  20966595.199  
  24302014.578   127707950.426    24302020.938    99512713.9294                 
                
  22662712.703   120932605.137                                                  
  22662710.133  
  20956059.531   110124897.370    20956068.484    85811660.5284   20956068.797  
                
  22152328.531   118292225.475                    92005066.569    22152332.406  
  22152327.645  
 21  8 15 13 32  0.0000000  0 17G 4G17R23R 8G31G 1G22G21R 7R16G32R24
                                R22G19R 6G 3R 9
  22777352.953   119695834.162    22777361.750    93269538.8874   22777361.676  
                
  23857441.336   125371718.122    23857448.871    97692285.5434   23857449.066  
                
  20732325.398   110903995.657                                                  
  20732323.867  
  20663187.484   110650479.441                    86061494.749    20663190.453  
  20663186.438  
  21303079.453   111948498.524    21303086.039    87232655.9794   21303086.180  
                
  20276793.344   106555320.556    20276803.445    83030171.7044   20276803.031  
                
  20619554.234   108356540.982    20619558.379    84433650.3914                 
                
  21473244.531   112842707.237    21473250.844    87929423.3884                 
                
  19855995.789   106290761.332                    82670611.670    19856000.438  
  19855994.395  
  22165615.820   118404763.161                    92092624.467    22165617.812  
  22165615.152  
  23901621.375   125603895.783    23901630.902    97873218.8734   23901631.305  
                
  23595210.406   126174189.442                    98135472.076    23595215.219  
  23595209.809  
  20973082.836   111955782.797                    87076738.242    20973086.480  
  20973081.070  
  24299439.961   127694420.939    24299446.371    99502171.4764                 
                
  22668443.398   120963185.684                                                  
  22668440.824  
  20952975.359   110108689.998    20952984.340    85799031.4084   20952984.641  
                
  22147012.039   118263835.663                    91982985.619    22147015.938  
  22147011.176  
 21  8 15 13 32 10.0000000  0 17G 4G17R23R 8G31G 1G22G21R 7R16G32R24
                                R22G19R 6G 3R 9
  22771858.969   119666963.074    22771867.801    93247041.9484   22771867.695  
                
  23857523.320   125372148.963    23857530.887    97692621.2654   23857531.082  
                
  20729495.523   110888857.807                                                  
  20729493.996  
  20659868.617   110632707.163                    86047671.881    20659871.625  
  20659867.578  
  21302311.102   111944460.829    21302317.680    87229509.7254   21302317.828  
                
  20278475.203   106564158.747    20278485.344    83037058.6074   20278484.902  
                
  20618711.414   108352111.960    20618715.551    84430199.2164                 
                
  21476483.188   112859726.452    21476489.551    87942685.1084                 
                
  19858000.141   106301490.806                    82678956.818    19858004.789  
  19857998.746  
  22166446.289   118409199.446                    92096074.889    22166448.262  
  22166445.566  
  23907594.312   125635283.692    23907603.816    97897676.9784   23907604.230  
                
  23588097.820   126136155.223                    98105889.927    23588102.645  
  23588097.203  
  20979579.578   111990462.682                    87103711.479    20979583.242  
  20979577.793  
  24296877.500   127680955.333    24296883.973    99491678.8174                 
                
  22674175.109   120993771.175                                                  
  22674172.492  
  20949896.852   110092512.367    20949905.863    85786425.4674   20949906.152  
                
  22141705.742   118235500.345                    91960947.061    22141709.652  
  22141704.879  
 21  8 15 13 32 20.0000000  0 17G 4G17R23R 8G31G 1G22G21R 7R16G32R24
                                R22G19R 6G 3R 9
  22766370.289   119638119.940    22766379.176    93224566.8064   22766379.047  
                
  23857616.367   125372637.880    23857624.047    97693002.2374   23857624.145  
                
  20726682.227   110873808.540                                                  
  20726680.684  
  20656555.727   110614966.824                    86033873.854    20656558.738  
  20656554.703  
  21301556.414   111940494.961    21301562.969    87226419.4424   21301563.125  
                
  20280169.656   106573063.092    20280179.828    83043997.0494   20280179.363  
                
  20617875.359   108347718.429    20617879.480    84426775.6864                 
                
  21479730.648   112876791.935    21479737.047    87955982.8774                 
                
  19860010.656   106312253.240                    82687327.607    19860015.301  
  19860009.254  
  22167293.203   118413723.549                    92099593.662    22167295.160  
  22167292.410  
  23913568.672   125666679.089    23913578.160    97922140.9024   23913578.598  
                
  23580992.797   126098161.209                    98076339.049    23580997.621  
  23580992.152  
  20986087.133   112025200.523                    87130729.774    20986090.812  
  20986085.336  
  24294327.234   127667553.835    24294333.723    99481236.0954                 
                
  22679907.773   121024362.195                                                  
  22679905.219  
  20946824.062   110076364.727    20946833.098    85773842.8914   20946833.375  
                
  22136409.672   118207219.827                    91938951.120    22136413.594  
  22136408.832  
 21  8 15 13 32 30.0000000  0 17G 4G17R23R 8G31G 1G22G21R 7R16G32R24
                                R22G19R 6G 3R 9
  22760886.867   119609304.448    22760895.777    93202113.2034   22760895.656  
                
  23857720.375   125373184.470    23857728.180    97693428.1574   23857728.203  
                
  20723885.414   110858847.491                                                  
  20723883.840  
  20653248.695   110597257.832                    86020100.200    20653251.695  
  20653247.691  
  21300815.336   111936600.589    21300821.871    87223384.8654   21300822.043  
                
  20281876.602   106582033.176    20281886.809    83050986.7284   20281886.328  
                
  20617045.984   108343360.055    20617050.090    84423379.5504                 
                
  21482986.836   112893903.323    21482993.273    87969316.4204                 
                
  19862027.258   106323048.324                    82695723.790    19862031.891  
  19862025.836  
  22168156.453   118418334.909                    92103180.287    22168158.363  
  22168155.570  
  23919544.398   125698081.516    23919553.855    97946610.3164   23919554.316  
                
  23573895.211   126060207.421                    98046819.465    23573900.125  
  23573894.582  
  20992605.469   112059995.727                    87157792.686    20992609.109  
  20992603.633  
  24291789.164   127654216.141    24291795.641    99470843.0854                 
                
  22685641.430   121054958.147                                                  
  22685638.895  
  20943756.898   110060246.723    20943765.953    85761283.4144   20943766.219  
                
  22131123.844   118178993.878                    91916997.602    22131127.742  
  22131122.992  
 21  8 15 13 32 40.0000000  0 17G 4G17R23R 8G31G 1G22G21R 7R16G32R24
                                R22G19R 6G 3R 9
  22755408.789   119580517.000    22755417.699    93179681.4394   22755417.566  
                
  23857835.430   125373789.089    23857843.285    97693899.2774   23857843.285  
                
  20721105.156   110843975.048                                                  
  20721103.574  
  20649947.562   110579580.452                    86006351.138    20649950.566  
  20649946.559  
  21300087.930   111932778.098    21300094.453    87220406.3144   21300094.637  
                
  20283596.141   106591069.383    20283606.379    83058027.9264   20283605.887  
                
  20616223.383   108339037.270    20616227.484    84420011.1494                 
                
  21486251.820   112911060.904    21486258.293    87982685.9594                 
                
  19864049.977   106333876.128                    82704145.407    19864054.613  
  19864048.535  
  22169036.148   118423034.182                    92106835.290    22169038.000  
  22169035.242  
  23925521.516   125729491.318    23925530.949    97971085.4794   23925531.414  
                
  23566805.258   126022294.292                    98017331.484    23566810.188  
  23566804.672  
  20999134.562   112094848.456                    87184900.374    20999138.203  
  20999132.746  
  24289263.289   127640942.564    24289269.762    99460500.0574                 
                
  22691376.156   121085559.421                                                  
  22691373.566  
  20940695.461   110044158.779    20940704.520    85748747.3554   20940704.789  
                
  22125848.328   118150823.059                    91895086.980    22125852.188  
  22125847.465  
 21  8 15 13 32 50.0000000  0 17G 4G17R23R 8G31G 1G22G21R 7R16G32R24
                                R22G19R 6G 3R 9
  22749936.070   119551757.739    22749944.973    93157271.6374   22749944.824  
                
  23857961.539   125374451.726    23857969.387    97694415.6124   23857969.383  
                
  20718341.516   110829191.458                                                  
  20718339.934  
  20646652.406   110561935.116                    85992626.999    20646655.410  
  20646651.398  
  21299374.234   111929027.595    21299380.746    87217483.8524   21299380.922  
                
  20285328.273   106600171.779    20285338.531    83065120.6984   20285338.027  
                
  20615407.570   108334750.169    20615411.672    84416670.5524                 
                
  21489525.617   112928264.781    21489532.117    87996091.5714                 
                
  19866078.859   106344736.890                    82712592.663    19866083.496  
  19866077.387  
  22169932.336   118427821.536                    92110558.799    22169934.164  
  22169931.375  
  23931500.016   125760908.529    23931509.473    97995566.4094   23931509.922  
                
  23559722.969   125984422.148                    97987875.372    23559727.875  
  23559722.426  
  21005674.453   112129758.726                    87212052.803    21005678.043  
  21005672.648  
  24286749.648   127627733.313    24286756.133    99450207.1514                 
                
  22697111.883   121116166.288                                                  
  22697109.262  
  20937639.766   110028101.033    20937648.840    85736234.8304   20937649.109  
                
  22120583.164   118122707.561                    91873219.382    22120587.000  
  22120582.301  
 21  8 15 13 33  0.0000000  0 17G 4G17R23R 8G31G 1G22G21R 7R16G32R24
                                R22G19R 6G 3R 9
  22744468.656   119523026.408    22744477.562    93134883.6044   22744477.379  
                
  23858098.641   125375172.155    23858106.469    97694976.9804   23858106.438  
                
  20715594.469   110814496.534                                                  
  20715592.895  
  20643363.180   110544321.474                    85978927.503    20643366.172  
  20643362.164  
  21298674.195   111925348.872    21298680.691    87214617.3064   21298680.871  
                
  20287072.953   106609340.076    20287083.234    83072264.8204   20287082.719  
                
  20614598.508   108330498.507    20614602.617    84413357.5694                 
                
  21492808.148   112945514.560    21492814.676    88009532.9514                 
                
  19868113.836   106355630.306                    82721065.320    19868118.473  
  19868112.340  
  22170844.922   118432696.452                    92114350.415    22170846.719  
  22170843.973  
  23937479.867   125792332.840    23937489.348    98020052.8674   23937489.820  
                
  23552648.258   125946590.476                    97958450.757    23552653.160  
  23552647.758  
  21012225.039   112164726.007                    87239249.569    21012228.566  
  21012223.211  
  24284248.234   127614588.158    24284254.680    99439964.1704                 
                
  22702848.625   121146778.145                                                  
  22702845.898  
  20934589.789   110012073.247    20934598.871    85723745.6484   20934599.137  
                
  22115328.383   118094647.405                    91851394.834    22115332.207  
  22115327.520  
 21  8 15 13 33 10.0000000  0 17G 4G17R23R 8G31G 1G22G21R 7R16G32R24
                                R22G19R 6G 3R 9
  22739006.562   119494323.040    22739015.477    93112517.3674   22739015.277  
                
  23858246.742   125375950.411    23858254.547    97695583.4244   23858254.469  
                
  20712863.992   110799890.376                                                  
  20712862.445  
  20640079.820   110526739.261                    85965252.446    20640082.801  
  20640078.824  
  21297987.805   111921741.938    21297994.305    87211806.7184   21297994.484  
                
  20288830.148   106618574.225    20288840.465    83079460.2534   20288839.930  
                
  20613796.180   108326282.276    20613800.293    84410072.1964                 
                
  21496099.398   112962810.205    21496105.941    88023010.0644                 
                
  19870154.898   106366556.324                    82729563.326    19870159.551  
  19870153.398  
  22171773.914   118437659.019                    92118210.185    22171775.637  
  22171772.945  
  23943461.055   125823764.153    23943470.539    98044544.7764   23943471.039  
                
  23545581.266   125908799.940                    97929058.130    23545586.148  
  23545580.785  
  21018786.266   112199750.244                    87266490.630    21018789.762  
  21018784.461  
  24281758.969   127601507.063    24281765.410    99429771.1204                 
                
  22708586.203   121177395.016                                                  
  22708583.488  
  20931545.492   109996075.437    20931554.578    85711279.8264   20931554.848  
                
  22110083.961   118066642.708                    91829613.430    22110087.797  
  22110083.047  
 21  8 15 13 33 20.0000000  0 17G 4G17R23R 8G31G 1G22G21R 7R16G32R24
                                R22G19R 6G 3R 9
  22733549.812   119465647.714    22733558.750    93090172.9754   22733558.527  
                
  23858405.836   125376786.423    23858413.645    97696234.8584   23858413.492  
                
  20710150.133   110785373.058                                                  
  20710148.586  
  20636802.375   110509188.764                    85951602.080    20636805.344  
  20636801.367  
  21297315.094   111918206.820    21297321.598    87209052.0874   21297321.766  
                
  20290599.883   106627874.245    20290610.246    83086707.0254   20290609.688  
                
  20613000.617   108322101.563    20613004.738    84406814.4924                 
                
  21499399.383   112980151.740    21499405.926    88036522.9424                 
                
  19872202.039   106377514.838                    82738086.622    19872206.695  
  19872200.535  
  22172719.289   118442709.060                    92122137.986    22172720.961  
  22172718.328  
  23949443.578   125855202.463    23949453.090    98069042.1554   23949453.613  
                
  23538521.945   125871050.384                    97899697.388    23538526.816  
  23538521.488  
  21025358.148   112234831.388                    87293775.952    21025361.637  
  21025356.309  
  24279281.914   127588490.167    24279288.336    99419628.0814                 
                
  22714324.797   121208017.114                                                  
  22714322.105  
  20928506.930   109980107.706    20928516.031    85698837.4414   20928516.297  
                
  22104849.969   118038693.661                    91807875.284    22104853.824  
  22104849.062  
 21  8 15 13 33 30.0000000  0 17G 4G17R23R 8G31G 1G22G21R 7R16G32R24
                                R22G19R 6G 3R 9
  22728098.438   119437000.619    22728107.363    93067850.5764   22728107.121  
                
  23858575.930   125377680.289    23858583.742    97696931.3794   23858583.555  
                
  20707452.938   110770944.856                                                  
  20707451.406  
  20633530.828   110491669.824                    85937976.244    20633533.770  
  20633529.832  
  21296656.070   111914743.651    21296662.559    87206353.5104   21296662.730  
                
  20292382.188   106637240.292    20292392.598    83094005.2334   20292391.996  
                
  20612211.852   108317956.543    20612215.977    84403584.6064                 
                
  21502708.133   112997539.326    21502714.668    88050071.6984                 
                
  19874255.312   106388506.185                    82746635.450    19874259.961  
  19874253.820  
  22173681.133   118447847.017                    92126134.167    22173682.773  
  22173680.203  
  23955427.453   125886647.875    23955437.055    98093545.0534   23955437.574  
                
  23531470.336   125833342.165                    97870368.799    23531475.234  
  23531469.887  
  21031940.648   112269969.180                    87321105.353    21031944.125  
  21031938.801  
  24276817.125   127575537.689    24276823.555    99409535.2484                 
                
  22720064.312   121238644.427                                                  
  22720061.672  
  20925474.133   109964170.234    20925483.250    85686418.6394   20925483.504  
                
  22099626.453   118010800.401                    91786180.556    22099630.285  
  22099625.547  
 21  8 15 13 33 40.0000000  0 17G 4G17R23R 8G31G 1G22G21R 7R16G32R24
                                R22G19R 6G 3R 9
  22722652.414   119408381.616    22722661.301    93045550.0624   22722661.055  
                
  23858757.008   125378631.884    23858764.727    97697672.8614   23858764.582  
                
  20704772.359   110756605.562                                                  
  20704770.816  
  20630265.211   110474182.623                    85924375.072    20630268.137  
  20630264.227  
  21296010.688   111911352.217    21296017.164    87203710.8454   21296017.352  
                
  20294177.008   106646672.130    20294187.445    83101354.7134   20294186.820  
                
  20611429.844   108313847.093    20611433.977    84400382.4404                 
                
  21506025.602   113014972.697    21506032.121    88063656.1424                 
                
  19876314.602   106399529.754                    82755209.336    19876319.246  
  19876313.098  
  22174659.344   118453072.461                    92130198.407    22174660.957  
  22174658.418  
  23961412.617   125918100.155    23961422.355    98118053.2904   23961422.852  
                
  23524426.500   125795675.499                    97841072.545    23524431.402  
  23524426.055  
  21038533.711   112305163.401                    87348478.617    21038537.180  
  21038531.840  
  24274364.570   127562649.540    24274371.066    99399492.5444                 
                
  22725804.781   121269276.641                                                  
  22725802.133  
  20922447.055   109948262.869    20922456.184    85674023.2934   20922456.430  
                
  22094413.398   117982963.013                    91764529.257    22094417.184  
  22094412.484  
 21  8 15 13 33 50.0000000  0 17G 4G17R23R 8G31G 1G22G21R 7R16G32R24
                                R22G19R 6G 3R 9
  22717211.758   119379790.793    22717220.621    93023271.5144   22717220.387  
                
  23858949.078   125379641.247    23858956.648    97698459.3944   23858956.621  
                
  20702108.453   110742355.457                                                  
  20702106.898  
  20627005.523   110456727.162                    85910798.616    20627008.426  
  20627004.547  
  21295379.000   111908032.666    21295385.457    87201124.1834   21295385.652  
                
  20295984.352   106656169.822    20295994.809    83108755.5034   20295994.180  
                
  20610654.625   108309773.284    20610658.770    84397208.0434                 
                
  21509351.797   113032451.959    21509358.312    88077276.3434                 
                
  19878379.992   106410585.982                    82763808.619    19878384.633  
  19878378.473  
  22175653.961   118458385.455                    92134330.719    22175655.562  
  22175653.094  
  23967399.094   125949559.318    23967408.938    98142566.8944   23967409.426  
                
  23517390.414   125758050.317                    97811808.529    23517395.289  
  23517389.969  
  21045137.328   112340413.995                    87375895.726    21045140.793  
  21045135.449  
  24271924.281   127549825.801    24271930.840    99389500.0074                 
                
  22731546.430   121299913.958                                                  
  22731543.656  
  20919425.727   109932385.745    20919434.863    85661651.5114   20919435.113  
                
  22089210.836   117955181.730                    91742921.576    22089214.586  
  22089209.910  
 21  8 15 13 34  0.0000000  0 17G 4G17R23R 8G31G 1G22G21R 7R16G32R24
                                R22G19R 6G 3R 9
  22711776.477   119351228.270    22711785.344    93001015.0284   22711785.121  
                
  23859152.156   125380708.367    23859159.605    97699290.9414   23859159.707  
                
  20699461.234   110728194.671                                                  
  20699459.695  
  20623751.750   110439303.401                    85897246.840    20623754.660  
  20623750.777  
  21294761.008   111904785.160    21294767.457    87198593.6654   21294767.660  
                
  20297804.250   106665733.420    20297814.715    83116207.6554   20297814.078  
                
  20609886.219   108305735.301    20609890.371    84394061.5644                 
                
  21512686.711   113049977.013    21512693.238    88090932.2224                 
                
  19880451.445   106421674.695                    82772433.169    19880456.070  
  19880449.918  
  22176665.016   118463786.249                    92138531.331    22176666.621  
  22176664.168  
  23973386.914   125981025.372    23973396.809    98167085.8774   23973397.289  
                
  23510362.156   125720466.930                    97782577.014    23510366.984  
  23510361.711  
  21051751.484   112375720.869                    87403356.618    21051754.898  
  21051749.629  
  24269496.273   127537066.503    24269502.883    99379557.7214                 
                
  22737288.898   121330556.442                                                  
  22737286.117  
  20916410.180   109916538.954    20916419.320    85649303.3704   20916419.574  
                
  22084018.797   117927456.706                    91721357.665    22084022.512  
  22084017.867  
 21  8 15 13 34 10.0000000  0 17G 4G17R23R 8G31G 1G22G21R 7R16G32R24
                                R22G19R 6G 3R 9
  22706346.570   119322693.967    22706355.453    92978780.5274   22706355.238  
                
  23859366.195   125381833.178    23859373.621    97700167.4224   23859373.758  
                
  20696830.711   110714123.120                                                  
  20696829.168  
  20620503.891   110421911.289                    85883719.657    20620506.789  
  20620502.902  
  21294156.719   111901609.556    21294163.160    87196119.1774   21294163.355  
                
  20299636.656   106675362.758    20299647.125    83123711.0354   20299646.496  
                
  20609124.594   108301732.903    20609128.750    84390942.8124                 
                
  21516030.320   113067547.725    21516036.863    88104623.6794                 
                
  19882528.945   106432795.691                    82781082.831    19882533.566  
  19882527.414  
  22177692.445   118469274.535                    92142800.002    22177694.051  
  22177691.648  
  23979376.016   126012498.144    23979385.957    98191610.1024   23979386.430  
                
  23503341.688   125682925.344                    97753378.046    23503346.527  
  23503341.250  
  21058376.141   112411083.745                    87430861.050    21058379.559  
  21058374.324  
  24267080.508   127524371.593    24267087.145    99369665.5964                 
                
  22743032.133   121361203.824                                                  
  22743029.453  
  20913400.391   109900722.415    20913409.527    85636978.7964   20913409.793  
                
  22078837.305   117899788.067                    91699837.632    22078841.027  
  22078836.340  
 21  8 15 13 34 20.0000000  0 17G 4G17R23R 8G31G 1G22G21R 7R16G32R24
                                R22G19R 6G 3R 9
  22700922.031   119294187.943    22700930.945    92956568.0584   22700930.707  
                
  23859591.203   125383015.708    23859598.691    97701088.8354   23859598.793  
                
  20694216.906   110700141.026                                                  
  20694215.355  
  20617261.930   110404550.780                    85870217.018    20617264.824  
  20617260.930  
  21293566.109   111898505.914    21293572.543    87193700.7474   21293572.734  
                
  20301481.570   106685057.871    20301492.035    83131265.6654   20301491.414  
                
  20608369.742   108297766.164    20608373.895    84387851.8494                 
                
  21519382.617   113085164.151    21519389.164    88118350.7614                 
                
  19884612.508   106443949.174                    82789757.756    19884617.129  
  19884610.988  
  22178736.289   118474850.553                    92147136.887    22178737.941  
  22178735.500  
  23985366.383   126043977.603    23985376.379    98216139.5294   23985376.828  
                
  23496329.094   125645425.954                    97724211.873    23496333.941  
  23496328.621  
  21065011.266   112446502.476                    87458408.942    21065014.723  
  21065009.469  
  24264677.016   127511741.229    24264683.629    99359823.7294                 
                
  22748776.352   121391856.071                                                  
  22748773.684  
  20910396.367   109884936.215    20910405.504    85624677.8724   20910405.773  
                
  22073666.422   117872176.033                    91678361.625    22073670.125  
  22073665.453  
 21  8 15 13 34 30.0000000  0 17G 4G17R23R 8G31G 1G22G21R 7R16G32R24
                                R22G19R 6G 3R 9
  22695502.906   119265710.296    22695511.836    92934377.7144   22695511.578  
                
  23859827.195   125384255.975    23859834.738    97702055.2764   23859834.836  
                
  20691619.820   110686248.349                                                  
  20691618.266  
  20614025.875   110387221.920                    85856739.029    20614028.773  
  20614024.875  
  21292989.211   111895474.337    21292995.645    87191338.4834   21292995.844  
                
  20303339.008   106694818.787    20303349.469    83138871.5704   20303348.859  
                
  20607621.727   108293835.327    20607625.875    84384788.8584                 
                
  21522743.617   113102826.254    21522750.168    88132113.4344                 
                
  19886702.109   106455134.945                    82798457.804    19886706.727  
  19886700.613  
  22179796.547   118480514.248                    92151541.985    22179798.203  
  22179795.777  
  23991358.031   126075463.805    23991368.066    98240674.2134   23991368.480  
                
  23489324.422   125607968.777                    97695078.529    23489329.262  
  23489323.883  
  21071656.875   112481977.154                    87486000.350    21071660.395  
  21071655.125  
  24262285.805   127499175.364    24262292.363    99350032.1614                 
                
  22754521.484   121422513.264                                                  
  22754518.836  
  20907398.148   109869180.456    20907407.285    85612400.6604   20907407.547  
                
  22068506.219   117844620.813                    91656929.783    22068509.930  
  22068505.258  
 21  8 15 13 34 40.0000000  0 17G 4G17R23R 8G31G 1G22G21R 7R16G32R24
                                R22G19R 6G 3R 9
  22690089.188   119237261.055    22690098.113    92912209.4854   22690097.867  
                
  23860074.156   125385553.816    23860081.711    97703066.6034   23860081.840  
                
  20689039.484   110672445.313                                                  
  20689037.957  
  20610795.758   110369924.771                    85843285.707    20610798.664  
  20610794.781  
  21292426.008   111892514.727    21292432.453    87189032.2904   21292432.668  
                
  20305208.969   106704645.486    20305219.410    83146528.7304   20305218.824  
                
  20606880.516   108289940.216    20606884.648    84381753.7094                 
                
  21526113.281   113120533.940    21526119.840    88145911.6294                 
                
  19888797.734   106466352.990                    82807182.956    19888802.355  
  19888796.246  
  22180873.203   118486265.535                    92156015.221    22180874.906  
  22180872.430  
  23997350.938   126106956.656    23997361.016    98265214.0764   23997361.398  
                
  23482327.633   125570553.860                    97665978.066    23482332.480  
  23482327.016  
  21078312.883   112517507.358                    87513634.931    21078316.434  
  21078311.141  
  24259906.906   127486674.179    24259913.363    99340290.9874                 
                
  22760267.516   121453175.629                                                  
  22760264.887  
  20904405.719   109853455.165    20904414.852    85600147.1904   20904415.125  
                
  22063356.594   117817122.310                    91635542.085    22063360.367  
  22063355.652  
 21  8 15 13 34 50.0000000  0 17G 4G17R23R 8G31G 1G22G21R 7R16G32R24
                                R22G19R 6G 3R 9
  22684680.875   119208840.188    22684689.805    92890063.3754   22684689.559  
                
  23860332.062   125386909.218    23860339.676    97704122.7754   23860339.766  
                
  20686475.875   110658731.814                                                  
  20686474.359  
  20607571.547   110352659.322                    85829857.022    20607574.441  
  20607570.578  
  21291876.492   111889627.024    21291882.965    87186782.1454   21291883.176  
                
  20307091.422   106714537.861    20307101.844    83154237.0734   20307101.273  
                
  20606146.109   108286080.892    20606150.223    84378746.4404                 
                
  21529491.602   113138287.188    21529498.141    88159745.3184                 
                
  19890899.383   106477603.263                    82815933.157    19890903.992  
  19890897.902  
  22181966.195   118492104.132                    92160556.358    22181967.973  
  22181965.438  
  24003345.078   126138456.015    24003355.207    98289759.0144   24003355.559  
                
  23475338.773   125533181.509                    97636910.723    23475343.684  
  23475338.090  
  21084979.312   112553093.065                    87541312.694    21084982.859  
  21084977.559  
  24257540.289   127474237.612    24257546.613    99330600.1724                 
                
  22766014.453   121483842.759                                                  
  22766011.836  
  20901419.078   109837760.300    20901428.199    85587917.4264   20901428.477  
                
  22058217.633   117789680.747                    91614198.671    22058221.453  
  22058216.699  
 21  8 15 13 35  0.0000000  0 17G 4G17R23R 8G31G 1G22G21R 7R16G32R24
                                R22G19R 6G 3R 9
  22679277.984   119180447.815    22679286.945    92867939.4704   22679286.680  
                
  23860600.969   125388322.298    23860608.676    97705223.8544   23860608.711  
                
  20683929.094   110645108.228                                                  
  20683927.590  
  20604353.203   110335425.275                    85816452.783    20604356.109  
  20604352.242  
  21291340.688   111886811.356    21291347.199    87184588.1194   21291347.371  
                
  20308986.398   106724495.991    20308996.797    83161996.6514   20308996.242  
                
  20605418.531   108282257.448    20605422.617    84375767.1404                 
                
  21532878.609   113156085.989    21532885.109    88173614.5024                 
                
  19893007.070   106488885.816                    82824708.484    19893011.660  
  19893005.613  
  22183075.625   118498030.480                    92165165.716    22183077.434  
  22183074.867  
  24009340.477   126169961.942    24009350.664    98314309.0744   24009350.977  
                
  23468357.852   125495851.822                    97607876.569    23468362.867  
  23468357.145  
  21091656.102   112588734.085                    87569033.470    21091659.629  
  21091654.340  
  24255186.031   127461865.851    24255192.262    99320959.8734                 
                
  22771762.297   121514514.775                                                  
  22771759.770  
  20898438.258   109822096.001    20898447.371    85575711.4904   20898447.656  
                
  22053089.430   117762296.532                    91592899.846    22053093.266  
  22053088.496  
 21  8 15 13 35 10.0000000  0 17G 4G17R23R 8G31G 1G22G21R 7R16G32R24
                                R22G19R 6G 3R 9
  22673880.516   119152083.879    22673889.477    92845837.7204   22673889.176  
                
  23860880.820   125389792.941    23860888.621    97706369.7974   23860888.613  
                
  20681399.062   110631574.249                                                  
  20681397.582  
  20601140.805   110318223.076                    85803073.297    20601143.715  
  20601139.844  
  21290818.570   111884067.665    21290825.117    87182450.1774   21290825.258  
                
  20310893.852   106734519.730    20310904.219    83169807.3474   20310903.688  
                
  20604697.766   108278469.786    20604701.828    84372815.7124                 
                
  21536274.273   113173930.346    21536280.738    88187519.1924                 
                
  19895120.758   106500200.494                    82833508.778    19895125.340  
  19895119.305  
  22184201.398   118504044.126                    92169843.020    22184203.230  
  22184200.660  
  24015337.086   126201474.295    24015347.297    98338864.1304   24015347.586  
                
  23461384.969   125458565.002                    97578875.739    23461390.035  
  23461384.176  
  21098343.203   112624430.207                    87596797.103    21098346.754  
  21098341.453  
  24252844.078   127449558.772    24252850.316    99311369.9464                 
                
  22777511.125   121545191.599                                                  
  22777508.672  
  20895463.242   109806462.216    20895472.340    85563529.3214   20895472.641  
                
  22047971.922   117734969.405                    91571645.446    22047975.785  
  22047970.957  
 21  8 15 13 35 20.0000000  0 17G 4G17R23R 8G31G 1G22G21R 7R16G32R24
                                R22G19R 6G 3R 9
  22668488.477   119123748.462    22668497.426    92823758.1864   22668497.109  
                
  23861171.609   125391321.107    23861179.496    97707560.5764   23861179.426  
                
  20678885.828   110618130.132                                                  
  20678884.363  
  20597934.328   110301052.603                    85789718.497    20597937.227  
  20597933.355  
  21290310.180   111881396.038    21290316.754    87180368.3984   21290316.883  
                
  20312813.789   106744609.094    20312824.129    83177669.1844   20312823.625  
                
  20603983.820   108274717.993    20603987.863    84369892.2374                 
                
  21539678.586   113191820.087    21539685.043    88201459.2474                 
                
  19897240.430   106511547.248                    82842334.043    19897245.000  
  19897238.969  
  22185343.555   118510145.334                    92174588.404    22185345.414  
  22185342.828  
  24021334.914   126232993.035    24021345.125    98363424.1654   24021345.402  
                
  23454420.102   125421321.117                    97549908.311    23454425.266  
  23454419.242  
  21105040.617   112660181.308                    87624603.516    21105044.152  
  21105038.867  
  24250514.445   127437316.489    24250520.754    99301830.5094                 
                
  22783260.992   121575873.157                                                  
  22783258.469  
  20892494.055   109790859.010    20892503.133    85551370.9814   20892503.430  
                
  22042865.141   117707699.669                    91550435.679    22042869.023  
  22042864.188  
 21  8 15 13 35 30.0000000  0 17G 4G17R23R 8G31G 1G22G21R 7R16G32R24
                                R22G19R 6G 3R 9
  22663101.867   119095441.608    22663110.797    92801700.9074   22663110.500  
                
  23861473.359   125392906.800    23861481.316    97708796.1814   23861481.199  
                
  20676389.414   110604776.001                                                  
  20676387.969  
  20594733.781   110283913.838                    85776388.360    20594736.680  
  20594732.805  
  21289815.492   111878796.462    21289822.090    87178342.7484   21289822.203  
                
  20314746.219   106754764.090    20314756.531    83185582.1674   20314756.051  
                
