     2.11           OBSERVATION DATA    M (MIXED)           RINEX VERSION / TYPE
EFT-CORS.RU                             20210817 144911 UTC PGM / RUN BY / DATE 
MDNG                                                        MARKER NAME         
                                                            MARKER NUMBER       
MDNG                EFT-CORS.RU                             OBSERVER / AGENCY   
0                   TRIMBLE BD970       2.0                 REC # / TYPE / VERS 
0                   UNKNOWN EXT NONE                        ANT # / TYPE        
  3463911.2830  3030468.2400  4402179.3760                  APPROX POSITION XYZ 
        0.0000        0.0000        0.0000                  ANTENNA: DELTA H/E/N
     1     1                                                WAVELENGTH FACT L1/2
     6    C1    L1    P2    L2    C2    P1                  # / TYPES OF OBSERV 
    10.000                                                  INTERVAL            
  2021     8    16    16    30    0.0000000     GPS         TIME OF FIRST OBS   
  2021     8    16    17    30    0.0000000     GPS         TIME OF LAST OBS    
     0                                                      RCV CLOCK OFFS APPL 
                                                            END OF HEADER       
 21  8 16 16 30  0.0000000  0 14G 4G16R 1G26G 9R18G 6G22R12G 7G 2R 3
                                G 3R 2
  20617203.148   108344181.561    20617211.152    84424088.4084   20617210.848  
                
  22279860.008   117081488.285    22279867.074    91232371.9554                 
                
  21115036.375   112871992.360                    87789328.004    21115042.645  
  21115035.801  
  23201838.930   121926555.757    23201849.012    95007729.4524   23201848.918  
                
  20821307.883   109416747.723    20821316.352    85259857.4204   20821316.121  
                
  22883497.219   122153667.071                    95008399.998    22883501.551  
  22883495.715  
  22737128.633   119484403.681    22737138.168    93104790.0434   22737138.629  
                
  24106463.078   126680317.938    24106469.738    98711959.1934                 
                
  19678142.938   105117142.909                    81757778.388    19678146.836  
  19678142.328  
  22382799.438   117622430.572    22382806.840    91653890.9084   22382806.781  
                
  24910995.648   130908173.698    24911000.750   102006381.4854                 
                
  22889294.812   122528192.711                    95299709.396    22889299.707  
  22889293.496  
  22305626.984   117216871.172    22305637.039    91337872.7064   22305637.535  
                
  19528833.188   104209613.112                    81051926.425    19528836.066  
  19528831.262  
 21  8 16 16 30 10.0000000  0 14G 4G16R 1G26G 9R18G 6G22R12G 7G 2R 3
                                G 3R 2
  20618801.938   108352583.257    20618809.922    84430635.1814   20618809.629  
                
  22277897.031   117071172.877    22277904.086    91224333.9874                 
                
  21119696.141   112896901.450                    87808701.732    21119702.441  
  21119695.574  
  23204737.938   121941790.180    23204748.055    95019600.4234   23204747.953  
                
  20818847.922   109403820.589    20818856.363    85249784.3314   20818856.160  
                
  22886450.953   122169434.109                    95020663.242    22886455.246  
  22886449.480  
  22738383.930   119491000.308    22738393.441    93109930.2704   22738393.926  
                
  24113048.859   126714926.725    24113055.551    98738927.0504                 
                
  19674317.883   105096710.166                    81741886.265    19674321.793  
  19674317.281  
  22377858.156   117596464.065    22377865.551    91633657.2934   22377865.488  
                
  24908735.562   130896296.904    24908740.711   101997126.8664                 
                
  22882871.781   122493809.685                    95272967.059    22882876.684  
  22882870.438  
  22311486.609   117247663.596    22311496.688    91361866.7894   22311497.164  
                
  19526338.195   104196299.389                    81041571.314    19526341.082  
  19526336.242  
 21  8 16 16 30 20.0000000  0 14G 4G16R 1G26G 9R18G 6G22R12G 7G 2R 3
                                G 3R 2
  20620406.805   108361016.901    20620414.758    84437206.8514   20620414.477  
                
  22275947.070   117060925.863    22275954.102    91216349.2954                 
                
  21124363.148   112921849.251                    87828105.572    21124369.461  
  21124362.582  
  23207648.398   121957084.798    23207658.531    95031518.3074   23207658.430  
                
  20816393.750   109390923.866    20816402.164    85239734.9374   20816401.977  
                
  22889418.734   122185276.268                    95032984.880    22889423.008  
  22889417.277  
  22739651.305   119497660.387    22739660.809    93115119.9364   22739661.336  
                
  24119637.727   126749551.454    24119644.422    98765907.3514                 
                
  19670507.883   105076357.833                    81726056.696    19670511.809  
  19670507.281  
  22372922.695   117570528.138    22372930.090    91613447.4964   22372930.039  
                
  24906485.062   130884470.464    24906490.301   101987911.4284                 
                
  22876448.953   122459427.874                    95246225.650    22876453.867  
  22876447.629  
  22317352.734   117278490.238    22317362.863    91385887.5374   22317363.316  
                
  19523850.836   104183026.430                    81031247.897    19523853.719  
  19523848.875  
 21  8 16 16 30 30.0000000  0 14G 4G16R 1G26G 9R18G 6G22R12G 7G 2R 3
                                G 3R 2
  20622017.852   108369483.034    20622025.777    84443803.8344   20622025.508  
                
  22274010.258   117050747.954    22274017.305    91208418.4814                 
                
  21129037.516   112946836.434                    87847540.038    21129043.836  
  21129036.941  
  23210570.406   121972440.127    23210580.520    95043483.4994   23210580.426  
                
  20813945.477   109378058.128    20813953.879    85229709.6914   20813953.707  
                
  22892400.656   122201193.894                    95045365.336    22892404.891  
  22892399.234  
  22740930.836   119504384.374    22740940.363    93120359.4004   22740940.914  
                
  24126229.742   126784192.681    24126236.453    98792900.5164                 
                
  19666713.047   105056086.546                    81710290.147    19666716.973  
  19666712.441  
  22367993.164   117544623.344    22368000.555    91593261.9594   22368000.508  
                
  24904244.258   130872695.008    24904249.562   101978735.7354                 
                
  22870026.430   122425047.810                    95219485.616    22870031.371  
  22870025.102  
  22323225.445   117309351.517    22323235.617    91409935.2664   22323236.055  
                
  19521371.352   104169795.410                    81020957.102    19521374.234  
  19521369.387  
 21  8 16 16 30 40.0000000  0 14G 4G16R 1G26G 9R18G 6G22R12G 7G 2R 3
                                G 3R 2
  20623634.672   108377979.478    20623642.559    84450424.4344   20623642.293  
                
  22272086.188   117040636.940    22272093.234    91200539.7844                 
                
  21133718.773   112971860.450                    87867003.133    21133725.098  
  21133718.180  
  23213503.547   121987853.940    23213513.617    95055494.2614   23213513.531  
                
  20811502.688   109365221.217    20811511.078    85219706.9044   20811510.918  
                
  22895396.328   122217184.876                    95057802.735    22895400.453  
  22895394.926  
  22742222.117   119511170.087    22742231.691    93125646.9674   22742232.234  
                
  24132824.508   126818848.187    24132831.188    98819904.7904                 
                
  19662932.984   105035894.113                    81694584.939    19662936.945  
  19662932.383  
  22363069.141   117518747.489    22363076.500    91573098.9684   22363076.473  
                
  24902012.750   130860968.357    24902018.113   101969598.0844                 
                
  22863603.867   122390667.462                    95192745.338    22863608.809  
  22863602.508  
  22329104.336   117340245.255    22329114.531    91434008.2954   22329114.957  
                
  19518899.273   104156603.929                    81010697.069    19518902.129  
  19518897.289  
 21  8 16 16 30 50.0000000  0 14G 4G16R 1G26G 9R18G 6G22R12G 7G 2R 3
                                G 3R 2
  20625257.750   108386508.805    20625265.594    84457070.6664   20625265.352  
                
  22270175.297   117030595.246    22270182.352    91192715.1014                 
                
  21138407.500   112996924.336                    87886497.272    21138413.812  
  21138406.902  
  23216448.289   122003328.756    23216458.336    95067552.5574   23216458.246  
                
  20809065.883   109352415.748    20809074.270    85209728.6204   20809074.113  
                
  22898406.141   122233251.414                    95070298.936    22898410.176  
  22898404.758  
  22743525.633   119518020.055    22743535.246    93130984.5874   22743535.781  
                
  24139422.469   126853520.344    24139429.078    98846922.0444                 
                
  19659168.195   105015783.365                    81678943.274    19659172.184  
  19659167.586  
  22358151.109   117492903.099    22358158.441    91552960.4954   22358158.430  
                
  24899791.023   130849293.167    24899796.457   101960500.5284                 
                
  22857181.734   122356289.375                    95166006.865    22857186.652  
  22857180.359  
  22334989.867   117371173.930    22335000.094    91458108.5484   22335000.504  
                
  19516435.117   104143454.743                    81000469.927    19516437.957  
  19516433.129  
 21  8 16 16 31  0.0000000  0 14G 4G16R 1G26G 9R18G 6G22R12G 7G 2R 3
                                G 3R 2
  20626887.016   108395070.630    20626894.816    84463742.2114   20626894.594  
                
  22268277.609   117020622.845    22268284.660    91184944.4044                 
                
  21143103.555   113022027.407                    87906021.857    21143109.855  
  21143102.953  
  23219404.562   122018864.153    23219414.594    95079658.0644   23219414.484  
                
  20806635.000   109339641.349    20806643.387    85199774.5504   20806643.234  
                
  22901430.086   122249393.286                    95082853.711    22901434.039  
  22901428.715  
  22744841.305   119524933.835    22744850.926    93136371.9444   22744851.465  
                
  24146023.562   126888208.822    24146030.070    98873952.0164                 
                
  19655418.617   104995753.840                    81663364.764    19655422.617  
  19655418.000  
  22353239.039   117467090.001    22353246.371    91532846.4124   22353246.355  
                
  24897579.023   130837669.049    24897584.512   101951442.7764                 
                
  22850760.023   122321913.417                    95139270.025    22850764.887  
  22850758.633  
  22340881.984   117402137.132    22340892.227    91482235.6944   22340892.625  
                
  19513978.836   104130347.517                    80990275.410    19513981.660  
  19513976.855  
 21  8 16 16 31 10.0000000  0 14G 4G16R 1G26G 9R18G 6G22R12G 7G 2R 3
                                G 3R 2
  20628522.336   108403664.281    20628530.094    84470438.5614   20628529.887  
                
  22266392.992   117010719.191    22266400.020    91177227.2814                 
                
  21147806.836   113047169.056                    87925576.463    21147813.121  
  21147806.238  
  23222372.219   122034459.413    23222382.246    95091810.2024   23222382.129  
                
  20804209.898   109326897.406    20804218.289    85189844.2054   20804218.141  
                
  22904467.930   122265609.480                    95095466.328    22904471.809  
  22904466.531  
  22746168.977   119531910.744    22746178.594    93141808.4994   22746179.133  
                
  24152627.617   126922912.819    24152633.984    98900994.0734                 
                
  19651684.148   104975805.022                    81647849.029    19651688.160  
  19651683.500  
  22348332.805   117441307.598    22348340.145    91512756.2384   22348340.125  
                
  24895376.617   130826095.388    24895382.137   101942424.3514                 
                
  22844338.500   122287538.741                    95112534.134    22844343.367  
  22844337.121  
  22346780.523   117433134.094    22346790.734    91506389.1694   22346791.145  
                
  19511530.273   104117281.537                    80980112.993    19511533.086  
  19511528.289  
 21  8 16 16 31 20.0000000  0 14G 4G16R 1G26G 9R18G 6G22R12G 7G 2R 3
                                G 3R 2
  20630163.711   108412289.777    20630171.422    84477159.7254   20630171.242  
                
  22264521.453   117000884.284    22264528.418    91169563.7354                 
                
  21152517.297   113072349.160                    87945160.970    21152523.547  
  21152516.703  
  23225351.258   122050114.470    23225361.289    95104008.9484   23225361.180  
                
  20801790.602   109314183.933    20801798.996    85179937.6054   20801798.848  
                
  22907519.711   122281900.158                    95108136.847    22907523.570  
  22907518.305  
  22747508.656   119538950.759    22747518.289    93147294.2224   22747518.820  
                
  24159234.641   126957632.287    24159240.852    98928048.1834                 
                
  19647964.805   104955937.062                    81632396.189    19647968.828  
  19647964.137  
  22343432.422   117415555.899    22343439.762    91492689.9964   22343439.754  
                
  24893183.805   130814572.199    24893189.328   101933445.2474                 
                
  22837917.211   122253165.573                    95085799.481    22837922.172  
  22837915.836  
  22352685.484   117464164.795    22352695.664    91530568.9454   22352696.086  
                
  19509089.461   104104256.865                    80969982.687    19509092.258  
  19509087.477  
 21  8 16 16 31 30.0000000  0 14G 4G16R 1G26G 9R18G 6G22R12G 7G 2R 3
                                G 3R 2
  20631811.211   108420947.432    20631818.867    84483905.9554   20631818.711  
                
  22262663.078   116991118.523    22262669.953    91161954.0614                 
                
  21157235.094   113097568.363                    87964775.899    21157241.324  
  21157234.531  
  23228341.719   122065829.607    23228351.773    95116254.5234   23228351.660  
                
  20799377.172   109301501.284    20799385.582    85170055.0284   20799385.422  
                
  22910585.477   122298265.399                    95120865.350    22910589.336  
  22910584.047  
  22748860.398   119546054.135    22748870.070    93152829.3184   22748870.562  
                
  24165844.688   126992367.477    24165850.734    98955114.5624                 
                
  19644260.672   104936150.265                    81617006.474    19644264.695  
  19644259.996  
  22338537.961   117389835.303    22338545.266    91472647.9844   22338545.289  
                
  24891000.672   130803099.879    24891006.172   101924505.7834                 
                
  22831496.352   122218794.265                    95059066.243    22831501.340  
  22831494.965  
  22358596.922   117495229.475    22358607.098    91554775.1814   22358607.520  
                
  19506656.539   104091274.312                    80959885.147    19506659.324  
  19506654.555  
 21  8 16 16 31 40.0000000  0 14G 4G16R 1G26G 9R18G 6G22R12G 7G 2R 3
                                G 3R 2
  20633464.805   108429637.127    20633472.406    84490677.1484   20633472.277  
                
  22260817.836   116981421.836    22260824.680    91154398.2254                 
                
  21161960.102   113122826.142                    87984420.828    21161966.305  
  21161959.543  
  23231343.586   122081604.659    23231353.660    95128546.7674   23231353.535  
                
  20796969.586   109288849.357    20796978.023    85160196.3894   20796977.859  
                
  22913665.195   122314705.052                    95133651.762    22913669.055  
  22913663.734  
  22750224.156   119553220.722    22750233.875    93158413.6654   22750234.344  
                
  24172457.539   127027118.117    24172463.570    98982192.9594                 
                
  19640571.727   104916444.622                    81601679.873    19640575.730  
  19640571.059  
  22333649.375   117364145.689    22333656.641    91452630.1114   22333656.691  
                
  24888827.203   130791678.358    24888832.688   101915605.9304                 
                
  22825075.836   122184424.762                    95032334.422    22825080.855  
  22825074.477  
  22364514.773   117526327.972    22364524.984    91579007.7544   22364525.395  
                
  19504231.414   104078333.362                    80949819.963    19504234.176  
  19504229.438  
 21  8 16 16 31 50.0000000  0 14G 4G16R 1G26G 9R18G 6G22R12G 7G 2R 3
                                G 3R 2
  20635124.531   108438359.038    20635132.082    84497473.4474   20635131.980  
                
  22258985.797   116971794.468    22258992.602    91146896.4014                 
                
  21166692.406   113148122.918                    88004096.089    21166698.578  
  21166691.863  
  23234356.875   122097439.765    23234366.957    95140885.8134   23234366.832  
                
  20794567.883   109276228.386    20794576.348    85150361.8664   20794576.160  
                
  22916758.812   122331219.158                    95146496.010    22916762.773  
  22916757.293  
  22751599.977   119560450.661    22751609.723    93164047.3804   22751610.168  
                
  24179073.305   127061884.422    24179079.402    99009283.5664                 
                
  19636898.023   104896820.410                    81586416.598    19636902.000  
  19636897.355  
  22328766.703   117338487.204    22328773.938    91432636.5004   22328774.008  
                
  24886663.453   130780307.849    24886668.918   101906745.7884                 
                
  22818655.750   122150057.313                    95005604.203    22818660.742  
  22818654.430  
  22370439.086   117557460.410    22370449.355    91603266.7814   22370449.727  
                
  19501814.141   104065434.346                    80939787.406    19501816.895  
  19501812.172  
 21  8 16 16 32  0.0000000  0 14G 4G16R 1G26G 9R18G 6G22R12G 7G 2R 3
                                G 3R 2
  20636790.391   108447113.155    20636797.891    84504294.8414   20636797.832  
                
  22257166.953   116962236.452    22257173.703    91139448.6084                 
                
  21171431.969   113173458.499                    88023801.557    21171438.102  
  21171431.461  
  23237381.602   122113334.870    23237391.660    95153271.6144   23237391.543  
                
  20792172.086   109263638.392    20792180.574    85140551.4934   20792180.375  
                
  22919866.383   122347807.540                    95159398.105    22919870.395  
  22919864.887  
  22752987.844   119567743.941    22752997.586    93169730.4434   22752998.039  
                
  24185692.016   127096666.357    24185698.238    99036386.3544                 
                
  19633239.570   104877277.646                    81571216.691    19633243.523  
  19633238.898  
  22323889.992   117312859.974    22323897.207    91412667.2434   22323897.270  
                
  24884509.398   130768988.321    24884514.863   101897925.3964                 
                
  22812236.008   122115691.873                    94978875.533    22812240.988  
  22812234.691  
  22376369.859   117588626.703    22376380.188    91627552.2024   22376380.508  
                
  19499404.766   104052577.453                    80929787.604    19499407.512  
  19499402.793  
 21  8 16 16 32 10.0000000  0 14G 4G16R 1G26G 9R18G 6G22R12G 7G 2R 3
                                G 3R 2
  20638462.320   108455899.196    20638469.789    84511141.1114   20638469.750  
                
  22255361.242   116952747.480    22255367.961    91132054.6134                 
                
  21176178.742   113198832.668                    88043537.001    21176184.840  
  21176178.242  
  23240417.664   122129289.612    23240427.680    95165703.8844   23240427.578  
                
  20789782.133   109251079.112    20789790.633    85130765.0424   20789790.430  
                
  22922987.773   122364469.802                    95172357.623    22922991.797  
  22922986.195  
  22754387.680   119575100.186    22754397.402    93175462.5804   22754397.875  
                
  24192313.523   127131463.502    24192319.965    99063500.9924                 
                
  19629596.352   104857816.281                    81556080.087    19629600.277  
  19629595.680  
  22319019.172   117287263.728    22319026.371    91392722.1304   22319026.422  
                
  24882365.023   130757719.634    24882370.500   101889144.5734                 
                
  22805816.602   122081328.335                    94952148.327    22805821.555  
  22805815.328  
  22382307.016   117619826.527    22382317.375    91651863.7404   22382317.656  
                
  19497003.289   104039762.691                    80919820.556    19497006.020  
  19497001.305  
 21  8 16 16 32 20.0000000  0 14G 4G16R 1G26G 9R18G 6G22R12G 7G 2R 3
                                G 3R 2
  20640140.328   108464717.201    20640147.770    84518012.2844   20640147.770  
                
  22253568.695   116943327.677    22253575.434    91124714.5294                 
                
  21180932.766   113224245.636                    88063302.636    21180938.883  
  21180932.270  
  23243465.086   122145303.984    23243475.070    95178182.6414   23243474.980  
                
  20787398.031   109238550.618    20787406.535    85121002.5824   20787406.316  
                
  22926123.023   122381206.009                    95185374.636    22926127.062  
  22926121.355  
  22755799.508   119582519.410    22755809.211    93181243.7924   22755809.719  
                
  24198938.031   127166275.914    24198944.566    99090627.5164                 
                
  19625968.375   104838436.326                    81541006.792    19625972.273  
  19625967.707  
  22314154.258   117261698.573    22314161.438    91372801.2464   22314161.480  
                
  24880230.328   130746501.803    24880235.801   101880403.4154                 
                
  22799397.555   122046966.736                    94925422.689    22799402.477  
  22799396.270  
  22388250.531   117651059.850    22388260.871    91676201.3934   22388261.152  
                
  19494609.648   104026989.755                    80909886.055    19494612.387  
  19494607.656  
 21  8 16 16 32 30.0000000  0 15G 4G16R 1G26G 9R19R18G 6G22R12G 7G 2
                                R 3G 3R 2
  20641824.383   108473566.973    20641831.809    84524908.2074   20641831.812  
                
  22251789.273   116933976.847    22251795.996    91117428.1764                 
                
  21185693.977   113249696.980                    88083098.129    21185700.105  
  21185693.449  
  23246523.812   122161377.770    23246533.762    95190707.6614   23246533.684  
                
  20785019.758   109226052.710    20785028.266    85111263.9544   20785028.059  
                
  23649775.125   126510342.679                    98396955.264    23649778.828  
  23649772.625  
  22929272.078   122398015.975                    95198449.076    22929276.141  
  22929270.375  
  22757223.281   119590001.378    22757232.965    93187073.8874   22757233.484  
                
  24205565.430   127201103.368    24205572.031    99117765.7684                 
                
  19622355.625   104819137.662                    81525996.712    19622359.504  
  19622354.977  
  22309295.242   117236164.369    22309302.410    91352904.4874   22309302.453  
                
  24878105.328   130735334.754    24878110.781   101871701.8264                 
                
  22792978.883   122012606.991                    94898698.400    22792983.691  
  22792977.574  
  22394200.383   117682326.427    22394210.691    91700564.9534   22394211.012  
                
  19492223.906   104014259.020                    80899984.366    19492226.637  
  19492221.918  
 21  8 16 16 32 40.0000000  0 15G 4G16R 1G26G 9R19R18G 6G22R12G 7G 2
                                R 3G 3R 2
  20643514.438   108482448.323    20643521.859    84531828.7454   20643521.875  
                
  22250022.992   116924695.064    22250029.676    91110195.6224                 
                
  21190462.328   113275186.487                    88102923.289    21190468.457  
  21190461.820  
  23249593.805   122177510.715    23249603.734    95203278.7844   23249603.637  
                
  20782647.281   109213585.292    20782655.805    85101549.0874   20782655.598  
                
  23647333.414   126497282.671                    98386797.465    23647337.473  
  23647330.621  
  22932434.836   122414898.910                    95211580.234    22932438.914  
  22932433.172  
  22758658.945   119597545.855    22758668.641    93192952.7074   22758669.156  
                
  24212195.703   127235945.622    24212202.285    99144915.5674                 
                
  19618758.078   104799920.251                    81511049.851    19618761.930  
  19618757.434  
  22304442.117   117210661.099    22304449.273    91333031.8174   22304449.312  
                
  24875989.938   130724218.309    24875995.410   101863039.6634                 
                
  22786560.492   121978248.960                    94871975.486    22786565.258  
  22786559.195  
  22400156.508   117713626.019    22400166.816    91724954.2354   22400167.141  
                
  19489845.984   104001569.949                    80890115.098    19489848.711  
  19489843.996  
 21  8 16 16 32 50.0000000  0 15G 4G16R 1G26G 9R19R18G 6G22R12G 7G 2
                                R 3G 3R 2
  20645210.602   108491361.698    20645218.023    84538774.2304   20645218.051  
                
  22248269.930   116915482.708    22248276.578    91103017.1814                 
                
  21195237.891   113300714.551                    88122778.437    21195244.016  
  21195237.371  
  23252675.117   122193703.194    23252685.039    95215896.3104   23252684.945  
                
  20780280.695   109201148.810    20780289.238    85091858.3264   20780289.008  
                
  23644907.180   126484304.026                    98376702.957    23644911.273  
  23644904.402  
  22935611.398   122431855.669                    95224768.806    22935615.473  
  22935609.734  
  22760106.586   119605153.275    22760116.301    93198880.5574   22760116.812  
                
  24218828.922   127270802.999    24218835.410    99172077.1514                 
                
  19615175.836   104780784.540                    81496166.540    19615179.656  
  19615175.199  
  22299594.938   117185189.059    22299602.098    91313183.4804   22299602.137  
                
  24873884.289   130713152.975    24873889.785   101854417.3334                 
                
  22780142.531   121943893.125                    94845254.314    22780147.262  
  22780141.195  
  22406118.992   117744958.998    22406129.281    91749369.5274   22406129.602  
                
  19487475.953   103988923.007                    80880278.585    19487478.680  
  19487473.957  
 21  8 16 16 33  0.0000000  0 15G 4G16R 1G26G 9R19R18G 6G22R12G 7G 2
                                R 3G 3R 2
  20646912.828   108500306.996    20646920.266    84545744.5824   20646920.289  
                
  22246530.078   116906339.843    22246536.695    91095892.9014                 
                
  21200020.664   113326281.202                    88142663.593    21200026.809  
  21200020.145  
  23255767.734   122209955.103    23255777.645    95228560.1394   23255777.559  
                
  20777919.984   109188743.197    20777928.539    85082191.6204   20777928.305  
                
  23642496.273   126471407.078                    98366672.003    23642500.359  
  23642493.668  
  22938801.719   122448885.740                    95238014.440    22938805.801  
  22938800.086  
  22761566.172   119612823.475    22761575.891    93204857.3274   22761576.398  
                
  24225465.055   127305675.262    24225471.395    99199250.3514                 
                
  19611608.883   104761730.555                    81481346.776    19611612.680  
  19611608.250  
  22294753.688   117159748.188    22294760.855    91293359.4534   22294760.898  
                
  24871788.312   130702138.591    24871793.875   101845834.7154                 
                
  22773724.984   121909539.628                    94818534.927    22773729.723  
  22773723.637  
  22412087.797   117776325.207    22412098.016    91773810.7284   22412098.375  
                
  19485113.875   103976318.519                    80870475.090    19485116.582  
  19485111.887  
 21  8 16 16 33 10.0000000  0 15G 4G16R 1G26G 9R19R18G 6G22R12G 7G 2
                                R 3G 3R 2
  20648621.172   108509284.389    20648628.637    84552739.9484   20648628.648  
                
  22244803.516   116897266.711    22244810.113    91088822.9224                 
                
  21204810.672   113351886.493                    88162578.821    21204816.840  
  21204810.145  
  23258871.695   122226266.537    23258881.609    95241270.3354   23258881.512  
                
  20775565.180   109176368.634    20775573.738    85072549.1134   20775573.508  
                
  23640100.656   126458591.973                    98356704.677    23640104.734  
  23640098.113  
  22942005.812   122465989.483                    95251317.292    22942009.969  
  22942004.168  
  22763037.742   119620556.596    22763047.473    93210883.1314   22763047.988  
                
  24232103.938   127340562.545    24232110.254    99226435.2254                 
                
  19608057.305   104742758.634                    81466590.835    19608061.094  
  19608056.684  
  22289918.445   117134338.792    22289925.629    91273559.9314   22289925.656  
                
  24869702.102   130691175.458    24869707.703   101837292.0214                 
                
  22767307.930   121875188.502                    94791817.398    22767312.688  
  22767306.543  
  22418062.961   117807724.753    22418073.145    91798277.9104   22418073.516  
                
  19482759.789   103963756.658                    80860704.760    19482762.496  
  19482757.789  
 21  8 16 16 33 20.0000000  0 15G 4G16R 1G26G 9R19R18G 6G22R12G 7G 2
                                R 3G 3R 2
  20650335.562   108518293.633    20650343.059    84559760.1284   20650343.062  
                
  22243090.203   116888263.274    22243096.824    91081807.2814                 
                
  21209607.875   113377530.264                    88182523.955    21209614.070  
  21209607.305  
  23261986.922   122242637.206    23261996.832    95254026.6864   23261996.723  
                
  20773216.250   109164024.939    20773224.805    85062930.6514   20773224.574  
                
  23637720.180   126445858.555                    98346800.893    23637724.363  
  23637717.668  
  22945223.617   122483166.269                    95264677.067    22945227.789  
  22945222.008  
  22764521.211   119628352.349    22764530.984    93216957.7324   22764531.480  
                
  24238745.656   127375464.588    24238751.918    99253631.6144                 
                
  19604521.008   104723868.438                    81451898.477    19604524.801  
  19604520.402  
  22285089.141   117108960.653    22285096.336    91253784.7654   22285096.352  
                
  24867625.562   130680263.176    24867631.168   101828788.9464                 
                
  22760891.281   121840839.660                    94765101.640    22760896.051  
  22760889.918  
  22424044.398   117839157.393    22424054.602    91822770.8554   22424054.957  
                
  19480413.641   103951237.204                    80850967.398    19480416.348  
  19480411.629  
 21  8 16 16 33 30.0000000  0 15G 4G16R 1G26G 9R19R18G 6G22R12G 7G 2
                                R 3G 3R 2
  20652056.102   108527335.122    20652063.629    84566805.4434   20652063.609  
                
  22241390.211   116879329.811    22241396.855    91074846.1514                 
                
  21214412.328   113403212.857                    88202499.296    21214418.578  
  21214411.738  
  23265113.484   122259067.430    23265123.363    95266829.4724   23265123.254  
                
  20770873.266   109151712.531    20770881.805    85053336.5684   20770881.590  
                
  23635355.016   126433207.185                    98336960.955    23635359.305  
  23635352.574  
  22948455.148   122500416.450                    95278093.779    22948459.367  
  22948453.566  
  22766016.680   119636211.096    22766026.508    93223081.4184   22766026.988  
                
  24245390.180   127410381.681    24245396.453    99280839.7474                 
                
  19601000.141   104705060.607                    81437270.162    19601003.926  
  19600999.547  
  22280265.867   117083614.226    22280273.074    91234034.3104   22280273.086  
                
  24865558.812   130669402.368    24865564.395   101820325.9804                 
                
  22754475.148   121806493.445                    94738387.906    22754479.879  
  22754473.820  
  22430032.188   117870623.383    22430042.438    91847289.7904   22430042.742  
                
  19478075.492   103938760.405                    80841263.223    19478078.188  
  19478073.469  
 21  8 16 16 33 40.0000000  0 15G 4G16R 1G26G 9R19R18G 6G22R12G 7G 2
                                R 3G 3R 2
  20653782.719   108536408.575    20653790.285    84573875.6644   20653790.254  
                
  22239703.492   116870466.122    22239710.121    91067939.3974                 
                
  21219224.016   113428934.041                    88222504.644    21219230.305  
  21219223.406  
  23268251.336   122275556.896    23268261.164    95279678.4154   23268261.062  
                
  20768536.195   109139431.148    20768544.715    85043766.6674   20768544.516  
                
  23633005.180   126420637.683                    98327184.690    23633009.527  
  23633002.773  
  22951700.414   122517739.753                    95291567.487    22951704.676  
  22951698.883  
  22767524.070   119644132.485    22767533.926    93229253.9224   22767534.406  
                
  24252037.547   127445313.557    24252043.789    99308059.3724                 
                
  19597494.633   104686334.885                    81422705.732    19597498.445  
  19597494.039  
  22275448.562   117058299.225    22275455.777    91214308.3574   22275455.797  
                
  24863501.820   130658592.752    24863507.344   101811902.9184                 
                
  22748059.477   121772149.730                    94711676.153    22748064.207  
  22748058.113  
  22436026.273   117902122.415    22436036.531    91871834.4804   22436036.805  
                
  19475745.391   103926326.530                    80831592.442    19475748.098  
  19475743.367  
 21  8 16 16 33 50.0000000  0 15G 4G16R 1G26G 9R19R18G 6G22R12G 7G 2
                                R 3G 3R 2
  20655515.398   108545513.890    20655522.992    84580970.7114   20655522.949  
                
  22238030.047   116861672.143    22238036.629    91061086.9514                 
                
  21224042.875   113454693.608                    88242539.854    21224049.164  
  21224042.266  
  23271400.422   122292105.466    23271410.223    95292573.3954   23271410.129  
                
  20766205.016   109127180.726    20766213.527    85034220.8794   20766213.332  
                
  23630670.703   126408149.845                    98317471.906    23630675.012  
  23630668.324  
  22954959.281   122535135.748                    95305097.665    22954963.523  
  22954957.742  
  22769043.359   119652116.380    22769053.230    93235475.1484   22769053.711  
                
  24258687.688   127480260.071    24258693.891    99335290.4274                 
                
  19594004.484   104667691.137                    81408205.045    19594008.316  
  19594003.898  
  22270637.242   117033015.612    22270644.449    91194606.8544   22270644.477  
                
  24861454.570   130647834.314    24861460.000   101803519.7194                 
                
  22741644.266   121737808.567                    94684966.369    22741649.000  
  22741642.871  
  22442026.617   117933654.338    22442036.816    91896404.8074   22442037.102  
                
  19473423.320   103913935.509                    80821954.975    19473426.020  
  19473421.297  
 21  8 16 16 34  0.0000000  0 15G 4G16R 1G26G 9R19R18G 6G22R12G 7G 2
                                R 3G 3R 2
  20657254.102   108554650.786    20657261.707    84588090.3724   20657261.656  
                
  22236369.828   116852947.667    22236376.371    91054288.6684                 
                
  21228868.891   113480491.304                    88262604.741    21228875.172  
  21228868.281  
  23274560.695   122308712.766    23274570.512    95305514.1564   23274570.395  
                
  20763879.688   109114961.023    20763888.195    85024699.0404   20763888.004  
                
  23628351.539   126395743.750                    98307822.710    23628355.785  
  23628349.223  
  22958231.773   122552604.269                    95318684.320    22958236.020  
  22958230.297  
  22770574.484   119660162.471    22770584.375    93241744.8304   22770584.867  
                
  24265340.484   127515220.859    24265346.730    99362532.5884                 
                
  19590529.664   104649129.322                    81393768.102    19590533.516  
  19590529.059  
  22265831.828   117007763.072    22265839.039    91174929.5684   22265839.059  
                
  24859417.000   130637126.756    24859422.367   101795176.1914                 
                
  22735229.430   121703469.528                    94658258.242    22735234.164  
  22735228.047  
  22448033.141   117965218.790    22448043.262    91921000.4824   22448043.602  
                
  19471109.125   103901586.493                    80812350.190    19471111.828  
  19471107.105  
 21  8 16 16 34 10.0000000  0 15G 4G16R 1G26G 9R19R18G 6G22R12G 7G 2
                                R 3G 3R 2
  20658998.891   108563819.694    20659006.500    84595234.9764   20659006.445  
                
  22234722.922   116844293.168    22234729.402    91047544.9094                 
                
  21233702.109   113506327.570                    88282699.619    21233708.363  
  21233701.512  
  23277732.203   122325379.187    23277742.012    95318500.9864   23277741.883  
                
  20761560.273   109102772.464    20761568.789    85015201.4644   20761568.582  
                
  23626047.789   126383419.859                    98298237.481    23626051.984  
  23626045.465  
  22961517.852   122570145.516                    95332327.524    22961522.070  
  22961516.379  
  22772117.523   119668271.156    22772127.453    93248063.2734   22772127.934  
                
  24271995.977   127550196.265    24272002.348    99389786.1414                 
                
  19587070.273   104630649.938                    81379395.262    19587074.156  
  19587069.660  
  22261032.430   116982542.109    22261039.648    91155276.8834   22261039.656  
                
  24857389.211   130626470.592    24857394.562   101786872.7094                 
                
  22728815.148   121669133.311                    94631552.267    22728819.812  
  22728813.766  
  22454045.930   117996816.157    22454056.016    91945621.7954   22454056.359  
                
  19468803.039   103889280.793                    80802779.092    19468805.750  
  19468801.008  
 21  8 16 16 34 20.0000000  0 15G 4G16R 1G26G 9R19R18G 6G22R12G 7G 2
                                R 3G 3R 2
  20660749.727   108573020.393    20660757.332    84602404.3564   20660757.285  
                
  22233089.305   116835708.530    22233095.738    91040855.5944                 
                
  21238542.500   113532202.191                    88302824.295    21238548.750  
  21238541.930  
  23280914.914   122342104.464    23280924.715    95331533.6704   23280924.559  
                
  20759246.758   109090614.890    20759255.281    85005728.0384   20759255.066  
                
  23623759.297   126371177.895                    98288715.935    23623763.484  
  23623756.980  
  22964817.492   122587759.134                    95346026.996    22964821.723  
  22964816.055  
  22773672.414   119676442.111    22773682.387    93254430.2564   22773682.855  
                
  24278654.141   127585186.007    24278660.684    99417050.8534                 
                
  19583626.266   104612252.742                    81365086.341    19583630.172  
  19583625.648  
  22256239.008   116957352.579    22256246.230    91135648.6824   22256246.223  
                
  24855371.180   130615865.697    24855376.512   101778609.1504                 
                
  22722401.320   121634799.708                    94604848.375    22722405.945  
  22722399.996  
  22460064.930   118028446.130    22460074.996    91970268.5274   22460075.344  
                
  19466504.914   103877017.585                    80793241.046    19466507.641  
  19466502.855  
 21  8 16 16 34 30.0000000  0 15G 4G16R 1G26G 9R19R18G 6G22R12G 7G 2
                                R 3G 3R 2
  20662506.656   108582253.093    20662514.254    84609598.6664   20662514.211  
                
  22231469.031   116827193.965    22231475.453    91034220.8784                 
                
  21243390.086   113558115.259                    88322978.906    21243396.332  
  21243389.535  
  23284108.852   122358888.745    23284118.621    95344612.3384   23284118.480  
                
  20756939.188   109078488.534    20756947.711    84996278.9354   20756947.488  
                
  23621486.164   126359018.109                    98279258.308    23621490.348  
  23621483.773  
  22968130.750   122605445.471                    95359783.042    22968134.961  
  22968129.273  
  22775239.195   119684675.575    22775249.188    93260845.9414   22775249.656  
                
  24285315.070   127620190.236    24285321.758    99444326.8284                 
                
  19580197.719   104593938.125                    81350841.652    19580201.648  
  19580197.094  
  22251451.609   116932194.737    22251458.855    91116045.1954   22251458.832  
                
  24853362.930   130605312.197    24853368.254   101770385.6434                 
                
  22715988.039   121600468.915                    94578146.645    22715992.629  
  22715986.719  
  22466090.180   118060108.914    22466100.238    91994940.8224   22466100.590  
                
  19464214.938   103864797.858                    80783736.813    19464217.668  
  19464212.871  
 21  8 16 16 34 40.0000000  0 15G 4G16R 1G26G 9R19R18G 6G22R12G 7G 2
                                R 3G 3R 2
  20664269.617   108591517.519    20664277.215    84616817.7104   20664277.172  
                
  22229862.062   116818749.326    22229868.453    91027640.6424                 
                
  21248244.828   113584066.549                    88343163.220    21248251.070  
  21248244.281  
  23287313.969   122375731.714    23287323.715    95357736.7474   23287323.582  
                
  20754637.516   109066393.167    20754646.023    84986853.9754   20754645.805  
                
  23619228.398   126346940.448                    98269864.563    23619232.531  
  23619225.949  
  22971457.492   122623203.734                    95373594.993    22971461.691  
  22971455.996  
  22776817.812   119692971.229    22776827.812    93267310.0804   22776828.277  
                
  24291978.703   127655208.622    24291985.547    99471613.8524                 
                
  19576784.594   104575705.893                    81336661.041    19576788.539  
  19576783.953  
  22246670.203   116907068.358    22246677.480    91096466.2134   22246677.457  
                
  24851364.391   130594809.825    24851369.734   101762202.0004                 
                
  22709575.211   121566140.738                    94551446.950    22709579.816  
  22709573.895  
  22472121.602   118091804.135    22472131.680    92019638.3914   22472132.027  
                
  19461932.992   103852621.016                    80774265.934    19461935.742  
  19461930.918  
 21  8 16 16 34 50.0000000  0 15G 4G16R 1G26G 9R19R18G 6G22R12G 7G 2
                                R 3G 3R 2
  20666038.641   108600813.757    20666046.230    84624061.5264   20666046.188  
                
  22228268.406   116810374.675    22228274.754    91021114.9614                 
                
  21253106.719   113610056.121                    88363377.303    21253112.996  
  21253106.215  
  23290530.266   122392633.413    23290539.984    95370906.9084   23290539.855  
                
  20752341.758   109054328.887    20752350.238    84977453.2344   20752350.035  
                
  23616986.008   126334945.175                    98260534.902    23616990.133  
  23616983.605  
  22974797.766   122641034.306                    95387463.174    22974801.977  
  22974796.230  
  22778408.273   119701329.074    22778418.277    93273822.6824   22778418.734  
                
  24298645.133   127690241.218    24298652.027    99498911.9464                 
                
  19573386.906   104557556.085                    81322544.532    19573390.863  
  19573386.250  
  22241894.820   116881973.598    22241902.125    91076911.8754   22241902.094  
                
  24849375.625   130584358.765    24849381.016   101754058.3144                 
                
  22703162.953   121531815.495                    94524749.547    22703167.543  
  22703161.637  
  22478159.188   118123531.847    22478169.305    92044361.2654   22478169.637  
                
  19459659.125   103840487.219                    80764828.543    19459661.883  
  19459657.035  
 21  8 16 16 35  0.0000000  0 16G 4G16R 1G26G 9R19R13R18G 6G22R12G 7
                                G 2R 3G 3R 2
  20667813.766   108610142.080    20667821.359    84631330.3514   20667821.316  
                
  22226688.133   116802070.283    22226694.445    91014644.0144                 
                
  21257975.820   113636084.183                    88383621.364    21257982.148  
  21257975.305  
  23293757.773   122409594.059    23293767.469    95384122.9904   23293767.352  
                
  20750051.977   109042296.004    20750060.426    84968076.9664   20750060.250  
                
  23614759.055   126323032.374                    98251269.388    23614763.172  
  23614756.754  
  22763734.625   121557051.716                    94544405.568    22763739.539  
  22763732.828  
  22978151.531   122658936.912                    95401387.463    22978155.750  
  22978149.977  
  22780010.609   119709749.355    22780020.648    93280383.9284   22780021.109  
                
  24305314.430   127725288.138    24305321.277    99526221.2104                 
                
  19570004.711   104539489.049                    81308492.412    19570008.688  
  19570004.051  
  22237125.516   116856910.743    22237132.832    91057382.3824   22237132.793  
                
  24847396.680   130573959.327    24847402.090   101745954.8454                 
                
  22696751.281   121497493.303                    94498054.510    22696755.887  
  22696749.973  
  22484203.008   118155292.243    22484213.152    92069109.6154   22484213.457  
                
  19457393.477   103828397.275                    80755425.252    19457396.238  
  19457391.367  
 21  8 16 16 35 10.0000000  0 16G 4G16R 1G26G 9R19R13R18G 6G22R12G 7
                                G 2R 3G 3R 2
  20669594.969   108619502.371    20669602.566    84638624.0824   20669602.516  
                
  22225121.234   116793836.242    22225127.527    91008227.8934                 
                
  21262852.102   113662150.668                    88403895.279    21262858.461  
  21262851.555  
  23296996.445   122426613.429    23297006.133    95397384.8614   23297006.039  
                
  20747768.148   109030294.423    20747776.570    84958725.0944   20747776.410  
                
  23612547.688   126311201.924                    98242067.966    23612551.598  
  23612545.340  
  22755459.648   121512862.951                    94510036.553    22755464.312  
  22755457.945  
  22981518.828   122676911.794                    95415367.853    22981523.074  
  22981517.285  
  22781624.797   119718231.917    22781634.879    93286993.7044   22781635.309  
                
  24311986.352   127760349.189    24311993.215    99553541.4904                 
                
  19566638.039   104521504.927                    81294504.773    19566642.020  
  19566637.395  
  22232362.250   116831879.690    22232369.578    91037877.6734   22232369.535  
                
  24845427.523   130563611.374    24845432.898   101737891.5154                 
                
  22690340.148   121463174.303                    94471361.966    22690344.824  
  22690338.891  
  22490253.016   118187085.162    22490263.160    92093883.3124   22490263.461  
                
  19455135.883   103816350.378                    80746055.449    19455138.664  
  19455133.766  
 21  8 16 16 35 20.0000000  0 16G 4G16R 1G26G 9R19R13R18G 6G22R12G 7
                                G 2R 3G 3R 2
  20671382.195   108628894.277    20671389.801    84645942.4494   20671389.750  
                
  22223567.672   116785672.272    22223573.945    91001866.3674                 
                
  21267735.492   113688255.157                    88424198.751    21267741.832  
  21267734.934  
  23300246.234   122443691.167    23300255.887    95410692.2124   23300255.816  
                
  20745490.211   109018323.833    20745498.605    84949397.3614   20745498.461  
                
  23610351.453   126299453.546                    98232930.364    23610355.324  
  23610349.125  
  22747188.398   121468695.832                    94475684.378    22747193.086  
  22747186.605  
  22984899.547   122694958.249                    95429404.029    22984903.777  
  22984897.992  
  22783250.742   119726776.326    22783260.875    93293651.6934   22783261.289  
                
  24318661.008   127795424.055    24318667.781    99580872.5454                 
                
  19563286.812   104503603.300                    81280581.299    19563290.789  
  19563286.188  
  22227604.969   116806880.101    22227612.324    91018397.4914   22227612.254  
                
  24843468.117   130553314.660    24843473.430   101729868.1044                 
                
  22683929.555   121428858.012                    94444671.532    22683934.281  
  22683928.332  
  22496309.117   118218910.182    22496319.254    92118682.0154   22496319.543  
                
  19452886.406   103804346.769                    80736719.311    19452889.211  
  19452884.277  
 21  8 16 16 35 30.0000000  0 16G 4G16R 1G26G 9R19R13R18G 6G22R12G 7
                                G 2R 3G 3R 2
  20673175.445   108638317.901    20673183.066    84653285.5354   20673183.012  
                
  22222027.492   116777578.612    22222033.770    90995559.6344                 
                
  21272626.039   113714397.924                    88444531.990    21272632.395  
  21272625.473  
  23303507.148   122460827.327    23303516.777    95424045.0624   23303516.730  
                
  20743218.203   109006384.359    20743226.578    84940093.8794   20743226.441  
                
  23608170.539   126287787.599                    98223856.889    23608174.512  
  23608168.195  
  22738921.438   121424550.986                    94441349.526    22738926.215  
  22738919.496  
  22988293.664   122713076.383                    95443495.890    22988297.824  
  22988292.094  
  22784888.477   119735382.710    22784898.641    93300357.9524   22784899.035  
                
  24325338.242   127830512.768    24325344.992    99608214.4034                 
                
  19559951.078   104485784.451                    81266722.191    19559955.043  
  19559950.461  
  22222853.727   116781912.235    22222861.125    90998942.0384   22222861.027  
                
  24841518.484   130543069.287    24841523.715   101721884.6914                 
                
  22677519.586   121394544.763                    94417983.466    22677524.297  
  22677518.375  
  22502371.336   118250767.343    22502381.465    92143505.7624   22502381.738  
                
  19450645.039   103792386.438                    80727416.831    19450647.848  
  19450642.914  
 21  8 16 16 35 40.0000000  0 16G 4G16R 1G26G 9R19R13R18G 6G22R12G 7
                                G 2R 3G 3R 2
  20674974.836   108647773.721    20674982.465    84660653.7104   20674982.406  
                
  22220500.773   116769555.702    22220507.035    90989308.0364                 
                
  21277523.797   113740579.316                    88464895.282    21277530.199  
  21277523.199  
  23306779.250   122478022.307    23306788.852    95437443.7514   23306788.840  
                
  20740952.211   108994476.499    20740960.566    84930815.0314   20740960.445  
                
  23606005.070   126276204.504                    98214847.778    23606009.188  
  23606002.797  
  22730658.570   121380428.777                    94407032.302    22730663.660  
  22730656.629  
  22991701.266   122731266.356                    95457643.660    22991705.379  
  22991699.648  
  22786538.086   119744051.441    22786548.254    93307112.7974   22786548.629  
                
  24332018.188   127865615.729    24332024.863    99635567.3574                 
                
  19556630.922   104468048.734                    81252927.762    19556634.867  
  19556630.309  
  22218108.625   116756976.580    22218116.055    90979511.6794   22218115.934  
                
  24839578.727   130532875.766    24839583.910   101713941.6984                 
                
  22671110.258   121360235.021                    94391298.126    22671114.961  
  22671109.074  
  22508439.750   118282657.046    22508449.863    92168354.8794   22508450.145  
                
  19448411.938   103780470.181                    80718148.642    19448414.770  
  19448409.793  
 21  8 16 16 35 50.0000000  0 16G 4G16R 1G26G 9R19R13R18G 6G22R12G 7
                                G 2R 3G 3R 2
  20676780.188   108657260.944    20676787.824    84668046.3434   20676787.758  
                
  22218987.367   116761602.711    22218993.609    90983110.9164                 
                
  21282428.602   113766798.334                    88485287.840    21282434.992  
  21282427.977  
  23310062.375   122495275.253    23310071.945    95450887.6264   23310071.965  
                
  20738692.086   108982599.512    20738700.426    84921560.2374   20738700.309  
                
  23603855.148   126264703.708                    98205902.662    23603859.227  
  23603852.910  
  22722399.961   121336328.424                    94372732.084    22722405.211  
  22722397.828  
  22995122.188   122749527.496                    95471846.801    22995126.238  
  22995120.512  
  22788199.406   119752781.682    22788209.555    93313915.5884   22788209.926  
                
  24338700.688   127900732.131    24338707.250    99662930.7804                 
                
  19553326.219   104450395.659                    81239197.601    19553330.145  
  19553325.605  
  22213369.500   116732072.329    22213376.938    90960105.7814   22213376.805  
                
  24837648.695   130522733.400    24837653.883   101706038.5524                 
                
  22664701.414   121325928.086                    94364614.937    22664706.094  
  22664700.297  
  22514514.195   118314578.448    22514524.293    92193228.6984   22514524.578  
                
  19446186.867   103768596.862                    80708913.829    19446189.703  
  19446184.730  
 21  8 16 16 36  0.0000000  0 16G 4G16R 1G26G 9R19R13R18G 6G22R12G 7
                                G 2R 3G 3R 2
  20678591.617   108666780.074    20678599.270    84675463.8464   20678599.191  
                
  22217487.383   116753720.238    22217493.594    90976968.7414                 
                
  21287340.602   113793055.723                    88505710.237    21287346.965  
  21287339.969  
  23313356.641   122512586.644    23313366.211    95464377.0304   23313366.230  
                
  20736437.945   108970753.918    20736446.270    84912329.9094   20736446.148  
                
  23601720.656   126253285.435                    98197021.795    23601724.668  
  23601718.504  
  22714145.664   121292250.960                    94338449.655    22714150.996  
  22714143.516  
  22998556.477   122767860.033                    95486105.384    22998560.492  
  22998554.766  
  22789872.516   119761573.917    22789882.629    93320766.6764   22789883.004  
                
  24345385.789   127935862.319    24345392.262    99690304.9414                 
                
  19550037.094   104432825.710                    81225532.095    19550040.973  
  19550036.488  
  22208636.469   116707200.087    22208643.898    90940724.8314   22208643.762  
                
  24835728.492   130512642.707    24835733.707   101698175.6914                 
                
  22658293.211   121291624.557                    94337934.428    22658297.883  
  22658292.129  
  22520594.758   118346532.012    22520604.875    92218127.5674   22520605.156  
                
  19443970.070   103756767.632                    80699713.311    19443972.910  
  19443967.926  
 21  8 16 16 36 10.0000000  0 16G 4G16R 1G26G 9R19R13R18G 6G22R12G 7
                                G 2R 3G 3R 2
  20680409.094   108676330.974    20680416.770    84682906.1134   20680416.691  
                
  22216000.805   116745908.241    22216006.973    90970881.4804                 
                
  21292259.727   113819351.221                    88526162.267    21292266.062  
  21292259.109  
  23316661.977   122529956.254    23316671.543    95477911.8084   23316671.578  
                
  20734189.750   108958939.599    20734198.062    84903123.9474   20734197.945  
                
  23599601.695   126241949.933                    98188205.310    23599605.602  
  23599599.539  
  22705895.836   121248196.109                    94304184.807    22705900.941  
  22705893.543  
  23002004.102   122786263.724                    95500419.374    23002008.109  
  23002002.398  
  22791557.383   119770427.942    22791567.457    93327665.9154   22791567.840  
                
