     2.11           OBSERVATION DATA    M (MIXED)           RINEX VERSION / TYPE
EFT-CORS.RU                             20210817 144806 UTC PGM / RUN BY / DATE 
MDNG                                                        MARKER NAME         
                                                            MARKER NUMBER       
MDNG                EFT-CORS.RU                             OBSERVER / AGENCY   
0                   TRIMBLE BD970       2.0                 REC # / TYPE / VERS 
0                   UNKNOWN EXT NONE                        ANT # / TYPE        
  3463911.2830  3030468.2400  4402179.3760                  APPROX POSITION XYZ 
        0.0000        0.0000        0.0000                  ANTENNA: DELTA H/E/N
     1     1                                                WAVELENGTH FACT L1/2
     6    C1    L1    P2    L2    C2    P1                  # / TYPES OF OBSERV 
    10.000                                                  INTERVAL            
  2021     8    16     3    30    0.0000000     GPS         TIME OF FIRST OBS   
  2021     8    16     4    30    0.0000000     GPS         TIME OF LAST OBS    
     0                                                      RCV CLOCK OFFS APPL 
                                                            END OF HEADER       
 21  8 16  3 30  0.0000000  0 14G 6G20R16R19G29G12R15R18R 9R17G 5G31
                                G 2G25
  24219192.688   127272711.286    24219202.383    99173578.3434   24219202.730  
                
  22638837.078   118967875.363    22638843.047    92702284.7594                 
                
  19494548.102   104136384.893                    80994952.813    19494549.645  
  19494547.949  
  19777270.867   105795103.874                    82285067.503    19777273.781  
  19777268.594  
  21498248.961   112974073.639    21498255.312    88031774.2724   21498255.465  
                
  20710440.992   108834112.618    20710447.281    84805830.7944   20710447.262  
                
  23059364.180   123222252.039                    95839502.499    23059369.121  
  23059364.113  
  19774881.648   105559671.698                    82101965.065    19774884.621  
  19774880.211  
  20362067.852   108732300.692                    84569570.446    20362070.184  
  20362067.535  
  23200604.641   124151108.235                    96561969.411    23200608.051  
  23200602.734  
  23923521.930   125718956.948    23923529.027    97962861.5284   23923529.152  
                
  23472720.758   123349978.043    23472726.895    96116882.0564   23472726.949  
                
  22112031.758   116199521.604    22112036.074    90545102.2244                 
                
  20061282.164   105422775.395    20061291.074    82147647.5984   20061291.484  
                
 21  8 16  3 30 10.0000000  0 14G 6G20R16R19G29G12R15R18R 9R17G 5G31
                                G 2G25
  24225746.180   127307150.103    24225755.859    99200413.7654   24225756.191  
                
  22635498.062   118950328.697    22635503.992    92688612.0284                 
                
  19497519.477   104152257.490                    81007298.172    19497521.004  
  19497519.301  
  19774656.641   105781119.460                    82274190.746    19774659.520  
  19774654.375  
  21494755.445   112955715.109    21494761.816    88017468.9284   21494761.969  
                
  20713713.062   108851307.466    20713719.352    84819229.3744   20713719.336  
                
  23067451.469   123265468.322                    95873115.127    23067456.469  
  23067451.461  
  19778638.047   105579723.575                    82117560.972    19778641.020  
  19778636.605  
  20357321.719   108706956.578                    84549858.353    20357324.035  
  20357321.383  
  23207731.953   124189248.067                    96591633.699    23207735.414  
  23207730.027  
  23917280.078   125686155.900    23917287.152    97937302.2774   23917287.309  
                
  23469261.523   123331799.542    23469267.629    96102716.9844   23469267.695  
                
  22115974.273   116220239.646    22115978.578    90561246.1504                 
                
  20060584.422   105419108.740    20060593.336    82144790.4614   20060593.746  
                
 21  8 16  3 30 20.0000000  0 14G 6G20R16R19G29G12R15R18R 9R17G 5G31
                                G 2G25
  24232302.922   127341605.932    24232312.535    99227262.4654   24232312.871  
                
  22632168.297   118932830.685    22632174.141    92674977.2024                 
                
  19500505.750   104168209.632                    81019705.371    19500507.266  
  19500505.523  
  19772053.891   105767196.480                    82263361.756    19772056.730  
  19772051.625  
  21491267.500   112937385.862    21491273.902    88003186.4084   21491274.027  
                
  20716994.078   108868549.349    20717000.359    84832664.5964   20717000.352  
                
  23075542.758   123308705.891                    95906744.308    23075547.797  
  23075542.812  
  19782403.109   105599821.747                    82133192.869    19782406.066  
  19782401.680  
  20352587.469   108681675.956                    84530195.657    20352589.777  
  20352587.113  
  23214859.188   124227387.368                    96621297.588    23214862.676  
  23214857.277  
  23911040.773   125653368.625    23911047.934    97911753.7664   23911048.094  
                
  23465812.789   123313676.243    23465818.852    96088594.9334   23465818.930  
                
  22119923.734   116240994.192    22119928.012    90577418.5214                 
                
  20059896.961   105415496.107    20059905.883    82141975.4164   20059906.301  
                
 21  8 16  3 30 30.0000000  0 14G 6G20R16R19G29G12R15R18R 9R17G 5G31
                                G 2G25
  24238862.922   127376078.937    24238872.461    99254124.5434   24238872.824  
                
  22628847.844   118915381.615    22628853.594    92661380.5214                 
                
  19503506.977   104184241.697                    81032174.751    19503508.480  
  19503506.727  
  19769462.680   105753335.236                    82252580.780    19769465.496  
  19769460.410  
  21487785.156   112919086.053    21487791.582    87988926.8194   21487791.699  
                
  20720284.086   108885838.421    20720290.363    84846136.6004   20720290.359  
                
  23083637.992   123351964.606                    95940389.955    23083643.117  
  23083638.176  
  19786176.875   105619966.339                    82148860.891    19786179.820  
  19786175.453  
  20347865.188   108656459.208                    84510582.635    20347867.488  
  20347864.836  
  23221986.398   124265526.353                    96650961.230    23221989.906  
  23221984.445  
  23904804.109   125620595.418    23904811.414    97886216.2314   23904811.570  
                
  23462374.602   123295608.381    23462380.594    96074516.0694   23462380.707  
                
  22123880.156   116261785.335    22123884.391    90593619.4034                 
                
  20059219.836   105411937.769    20059228.773    82139202.6844   20059229.184  
                
 21  8 16  3 30 40.0000000  0 14G 6G20R16R19G29G12R15R18R 9R17G 5G31
                                G 2G25
  24245426.164   127410568.993    24245435.668    99280999.8834   24245436.059  
                
  22625536.703   118897981.514    22625542.352    92647821.9954                 
                
  19506523.148   104200353.564                    81044706.200    19506524.672  
  19506522.875  
  19766883.031   105739535.822                    82241847.910    19766885.809  
  19766880.793  
  21484308.398   112900815.590    21484314.820    87974690.0984   21484314.922  
                
  20723583.055   108903174.634    20723589.316    84859645.3314   20723589.312  
                
  23091737.297   123395244.443                    95974052.023    23091742.387  
  23091737.484  
  19789959.328   105640157.296                    82164564.964    19789962.258  
  19789957.918  
  20343154.867   108631306.357                    84491019.297    20343157.160  
  20343154.508  
  23229113.523   124303664.915                    96680624.528    23229116.996  
  23229111.520  
  23898570.180   125587836.408    23898577.570    97860689.7584   23898577.738  
                
  23458946.961   123277595.964    23458952.910    96060480.4014   23458953.023  
                
  22127843.531   116282613.020    22127847.711    90609848.7664                 
                
  20058553.023   105408433.671    20058561.980    82136472.2124   20058562.383  
                
 21  8 16  3 30 50.0000000  0 14G 6G20R16R19G29G12R15R18R 9R17G 5G31
                                G 2G25
  24251992.508   127445075.292    24252002.012    99307887.8804   24252002.395  
                
  22622234.797   118880629.853    22622240.348    92634301.2094                 
                
  19509554.148   104216544.654                    81057299.250    19509555.668  
  19509553.863  
  19764314.781   105725797.381                    82231162.452    19764317.508  
  19764312.574  
  21480837.102   112882573.799    21480843.488    87960475.7174   21480843.602  
                
  20726890.859   108920557.254    20726897.117    84873190.2174   20726897.125  
                
  23099840.312   123438544.580                    96007729.885    23099845.449  
  23099840.520  
  19793750.305   105660393.754                    82180304.430    19793753.227  
  19793748.898  
  20338456.422   108606216.902                    84471505.276    20338458.707  
  20338456.059  
  23236240.430   124341802.228                    96710286.888    23236243.875  
  23236238.449  
  23892338.812   125555091.025    23892346.312    97835173.8934   23892346.484  
                
  23455529.766   123259638.472    23455535.684    96046487.5494   23455535.809  
                
  22131813.703   116303476.380    22131817.844    90626105.9214                 
                
  20057896.422   105404983.227    20057905.402    82133783.5514   20057905.793  
                
 21  8 16  3 31  0.0000000  0 14G 6G20R16R19G29G12R15R18R 9R17G 5G31
                                G 2G25
  24258562.078   127479598.487    24258571.574    99334789.0544   24258571.953  
                
  22618942.234   118863327.387    22618947.770    92620818.7774                 
                
  19512600.094   104232815.522                    81069954.365    19512601.629  
  19512599.809  
  19761758.062   105712120.649                    82220524.989    19761760.773  
  19761755.871  
  21477371.414   112864361.487    21477377.762    87946284.3104   21477377.902  
                
  20730207.656   108937987.139    20730213.914    84886771.9414   20730213.922  
                
  23107947.219   123481865.733                    96041424.083    23107952.418  
  23107947.449  
  19797549.930   105680676.381                    82196079.804    19797552.855  
  19797548.516  
  20333770.008   108581191.708                    84452041.220    20333772.293  
  20333769.652  
  23243367.219   124379939.078                    96739948.861    23243370.656  
  23243365.285  
  23886110.211   125522360.192    23886117.848    97809669.3684   23886118.012  
                
  23452123.164   123241736.654    23452129.020    96032538.0864   23452129.184  
                
  22135790.797   116324376.129    22135794.898    90642391.4334                 
                
  20057250.180   105401587.175    20057259.176    82131137.2754   20057259.547  
                
 21  8 16  3 31 10.0000000  0 14G 6G20R16R19G29G12R15R18R 9R17G 5G31
                                G 2G25
  24265134.781   127514138.103    24265144.258    99361703.0314   24265144.648  
                
  22615658.984   118846073.831    22615664.582    92607374.4594                 
                
  19515660.891   104249165.729                    81082671.180    19515662.441  
  19515660.586  
  19759212.789   105698505.103                    82209935.115    19759215.457  
  19759210.609  
  21473911.242   112846178.101    21473917.570    87932115.4304   21473917.711  
                
  20733533.359   108955463.805    20733539.613    84900390.1134   20733539.621  
                
  23116057.953   123525207.338                    96075134.188    23116063.199  
  23116058.207  
  19801358.148   105701004.891                    82211890.850    19801361.062  
  19801356.723  
  20329095.555   108556230.374                    84432626.862    20329097.844  
  20329095.191  
  23250493.820   124418074.881                    96769610.026    23250497.273  
  23250491.906  
  23879884.398   125489643.608    23879892.133    97784175.9504   23879892.285  
                
  23448727.086   123223890.152    23448732.875    96018631.7194   23448733.082  
                
  22139774.727   116345311.804    22139778.781    90658704.9444                 
                
  20056614.219   105398245.186    20056623.227    82128533.1194   20056623.586  
                
 21  8 16  3 31 20.0000000  0 14G 6G20R16R19G29G12R15R18R 9R17G 5G31
                                G 2G25
  24271710.641   127548694.339    24271720.078    99388629.9554   24271720.477  
                
  22612385.109   118828869.579    22612390.777    92593968.5454                 
                
  19518736.594   104265595.594                    81095449.960    19518738.164  
  19518736.297  
  19756679.062   105684951.342                    82199393.309    19756681.707  
  19756676.895  
  21470456.641   112828024.083    21470462.980    87917969.4454   21470463.129  
                
  20736868.000   108972987.470    20736874.250    84914044.9144   20736874.262  
                
  23124172.594   123568569.452                    96108860.256    23124177.801  
  23124172.801  
  19805174.961   105721379.285                    82227737.603    19805177.871  
  19805173.527  
  20324433.180   108531333.595                    84413262.705    20324435.469  
  20324432.805  
  23257620.266   124456209.886                    96799270.548    23257623.746  
  23257618.301  
  23873661.422   125456941.715    23873669.176    97758693.9664   23873669.312  
                
  23445341.617   123206099.375    23445347.383    96004768.7704   23445347.598  
                
  22143765.523   116366283.581    22143769.547    90675046.5794                 
                
  20055988.602   105394957.573    20055997.625    82125971.3504   20055997.984  
                
 21  8 16  3 31 30.0000000  0 14G 6G20R16R19G29G12R15R18R 9R17G 5G31
                                G 2G25
  24278289.570   127583266.758    24278298.984    99415569.4804   24278299.375  
                
  22609120.570   118811714.358    22609126.289    92580600.8394                 
                
  19521827.102   104282104.486                    81108290.212    19521828.672  
  19521826.820  
  19754156.758   105671458.643                    82188898.995    19754159.398  
  19754154.641  
  21467007.578   112809899.137    21467013.941    87903846.1174   21467014.094  
                
  20740211.523   108990557.783    20740217.758    84927736.0594   20740217.777  
                
  23132291.070   123611951.682                    96142601.981    23132296.188  
  23132291.219  
  19809000.258   105741798.945                    82243619.556    19809003.176  
  19808998.828  
  20319782.812   108506500.909                    84393948.396    20319785.105  
  20319782.422  
  23264746.461   124494343.656                    96828930.111    23264749.988  
  23264744.484  
  23867441.172   125424254.286    23867448.988    97733223.2604   23867449.121  
                
  23441966.688   123188363.988    23441972.445    95990948.9824   23441972.676  
                
  22147763.133   116387291.138    22147767.137    90691416.1064                 
                
  20055373.273   105391723.999    20055382.309    82123451.6764   20055382.676  
                
 21  8 16  3 31 40.0000000  0 14G 6G20R16R19G29G12R15R18R 9R17G 5G31
                                G 2G25
  24284871.586   127617855.509    24284881.008    99442521.7334   24284881.371  
                
  22605865.383   118794608.298    22605871.164    92567271.4554                 
                
  19524932.477   104298692.852                    81121192.264    19524934.074  
  19524932.211  
  19751645.938   105658027.424                    82178452.492    19751648.602  
  19751643.844  
  21463564.102   112791803.533    21463570.484    87889745.6584   21463570.605  
                
  20743563.969   109008174.963    20743570.184    84941463.7314   20743570.215  
                
  23140413.219   123655354.228                    96176359.508    23140418.375  
  23140413.457  
  19812834.102   105762264.231                    82259536.997    19812837.027  
  19812832.680  
  20315144.547   108481732.863                    84374684.365    20315146.848  
  20315144.152  
  23271872.422   124532476.275                    96858588.786    23271876.027  
  23271870.426  
  23861223.797   125391581.617    23861231.594    97707764.0494   23861231.730  
                
  23438602.359   123170684.277    23438608.137    95977172.5974   23438608.379  
                
  22151767.594   116408334.631    22151771.590    90707813.6404                 
                
  20054768.289   105388544.768    20054777.340    82120974.3454   20054777.695  
                
 21  8 16  3 31 50.0000000  0 14G 6G20R16R19G29G12R15R18R 9R17G 5G31
                                G 2G25
  24291456.680   127652460.517    24291466.121    99469486.6414   24291466.480  
                
  22602619.625   118777551.769    22602625.480    92553980.6604                 
                
  19528052.734   104315360.644                    81134156.093    19528054.363  
  19528052.492  
  19749146.648   105644657.909                    82168053.978    19749149.328  
  19749144.566  
  21460126.203   112773737.245    21460132.578    87875668.0354   21460132.688  
                
  20746925.336   109025839.078    20746931.523    84955227.9624   20746931.570  
                
  23148539.227   123698776.867                    96210132.667    23148544.340  
  23148539.469  
  19816676.445   105782774.882                    82275489.727    19816679.371  
  19816675.031  
  20310518.398   108457029.473                    84355470.623    20310520.688  
  20310518.020  
  23278998.188   124570607.857                    96888246.655    23279001.867  
  23278996.203  
  23855009.227   125358923.857    23855017.000    97682316.4544   23855017.148  
                
  23435248.648   123153060.419    23435254.438    95963439.7194   23435254.699  
                
  22155778.859   116429413.939    22155782.855    90724239.0634                 
                
  20054173.648   105385419.920    20054182.719    82118539.3974   20054183.059  
                
 21  8 16  3 32  0.0000000  0 14G 6G20R16R19G29G12R15R18R 9R17G 5G31
                                G 2G25
  24298044.875   127687081.770    24298054.305    99496464.2124   24298054.664  
                
  22599383.328   118760544.913    22599389.250    92540728.5644                 
                
  19531187.852   104332107.838                    81147181.677    19531189.527  
  19531187.621  
  19746658.859   105631349.906                    82157703.304    19746661.531  
  19746656.754  
  21456693.898   112755700.339    21456700.238    87861613.3034   21456700.371  
                
  20750295.641   109043550.147    20750301.805    84969028.7864   20750301.871  
                
  23156669.023   123742219.538                    96243921.398    23156674.070  
  23156669.195  
  19820527.297   105803330.999                    82291477.810    19820530.227  
  19820525.887  
  20305904.391   108432390.911                    84336307.302    20305906.676  
  20305903.996  
  23286123.766   124608738.253                    96917903.599    23286127.473  
  23286121.738  
  23848797.562   125326281.164    23848805.254    97656880.6094   23848805.445  
                
  23431905.594   123135492.549    23431911.359    95949750.4604   23431911.613  
                
  22159796.945   116450529.079    22159800.945    90740692.4224                 
                
  20053589.375   105382349.532    20053598.473    82116146.8904   20053598.797  
                
 21  8 16  3 32 10.0000000  0 14G 6G20R16R19G29G12R15R18R 9R17G 5G31
                                G 2G25
  24304636.102   127721718.752    24304645.492    99523454.0694   24304645.879  
                
  22596156.406   118743587.319    22596162.359    92527514.8554                 
                
  19534337.734   104348933.887                    81160268.591    19534339.453  
  19534337.523  
  19744182.508   105618103.071                    82147400.218    19744185.168  
  19744180.422  
  21453267.117   112737692.475    21453273.418    87847581.1934   21453273.562  
                
  20753674.812   109061307.766    20753680.953    84982865.8884   20753681.031  
                
  23164802.438   123785682.014                    96277725.533    23164807.508  
  23164802.586  
  19824386.578   105823932.113                    82307500.903    19824389.496  
  19824385.180  
  20301302.500   108407817.086                    84317194.305    20301304.773  
  20301302.102  
  23293249.039   124646867.046                    96947559.310    23293252.785  
  23293246.949  
  23842588.703   125293653.255    23842596.336    97631456.2834   23842596.570  
                
  23428573.117   123117980.280    23428578.879    95936104.5424   23428579.113  
                
  22163821.758   116471679.619    22163825.754    90757173.3504                 
                
  20053015.414   105379333.329    20053024.535    82113796.5974   20053024.844  
                
 21  8 16  3 32 20.0000000  0 14G 6G20R16R19G29G12R15R18R 9R17G 5G31
                                G 2G25
  24311230.359   127756371.662    24311239.746    99550456.3324   24311240.145  
                
  22592938.922   118726679.338    22592944.879    92514339.8134                 
                
  19537502.414   104365838.941                    81173416.965    19537504.156  
  19537502.223  
  19741717.617   105604917.592                    82137144.843    19741720.293  
  19741715.512  
  21449845.898   112719713.809    21449852.180    87833571.8434   21449852.340  
                
  20757062.891   109079112.191    20757069.020    84996739.4624   20757069.105  
                
  23172939.469   123829164.159                    96311544.955    23172944.641  
  23172939.625  
  19828254.297   105844578.231                    82323558.993    19828257.195  
  19828252.906  
  20296712.781   108383308.275                    84298131.899    20296715.070  
  20296712.367  
  23300374.047   124684994.527                    96977214.016    23300377.809  
  23300372.000  
  23836382.820   125261040.627    23836390.332    97606043.8564   23836390.570  
                
  23425251.289   123100523.952    23425257.047    95922502.2114   23425257.285  
                
  22167853.344   116492865.676    22167857.340    90773681.9674                 
                
  20052451.812   105376371.565    20052460.953    82111488.7244   20052461.242  
                
 21  8 16  3 32 30.0000000  0 14G 6G20R16R19G29G12R15R18R 9R17G 5G31
                                G 2G25
  24317827.648   127791040.488    24317837.055    99577470.9994   24317837.449  
                
  22589730.930   118709821.247    22589736.875    92501203.6314                 
                
  19540681.938   104382823.314                    81186627.030    19540683.703  
  19540681.766  
  19739264.203   105591793.476                    82126937.192    19739266.898  
  19739262.070  
  21446430.258   112701764.505    21446436.562    87819585.3814   21446436.730  
                
  20760459.875   109096963.494    20760466.012    85010649.5624   20760466.094  
                
  23181080.242   123872666.040                    96345379.722    23181085.477  
  23181080.371  
  19832130.453   105865269.419                    82339652.139    19832133.336  
  19832129.074  
  20292135.305   108358864.821                    84279120.331    20292137.598  
  20292134.859  
  23307498.844   124723120.722                    97006867.718    23307502.562  
  23307496.801  
  23830179.898   125228443.459    23830187.230    97580643.4624   23830187.504  
                
  23421940.125   123083123.688    23421945.918    95908943.5604   23421946.145  
                
  22171891.680   116514087.284    22171895.668    90790218.2744                 
                
  20051898.594   105373464.379    20051907.746    82109223.3824   20051908.023  
                
 21  8 16  3 32 40.0000000  0 14G 6G20R16R19G29G12R15R18R 9R17G 5G31
                                G 2G25
  24324427.914   127825725.010    24324437.352    99604497.8934   24324437.742  
                
  22586532.391   118693012.817    22586538.375    92488106.1594                 
                
  19543876.203   104399886.479                    81199898.367    19543877.996  
  19543876.051  
  19736822.289   105578730.917                    82116777.434    19736825.027  
  19736820.152  
  21443020.148   112683844.286    21443026.508    87805621.5864   21443026.672  
                
  20763865.734   109114861.399    20763871.871    85024595.9704   20763871.957  
                
  23189224.586   123916187.461                    96379229.681    23189229.961  
  23189224.809  
  19836015.016   105886005.454                    82355780.164    19836017.879  
  19836013.625  
  20287570.023   108334486.480                    84260159.392    20287572.324  
  20287569.586  
  23314623.305   124761245.120                    97036520.029    23314627.012  
  23314621.266  
  23823979.914   125195861.837    23823987.082    97555255.1834   23823987.363  
                
  23418639.633   123065779.401    23418645.473    95895428.5444   23418645.668  
                
  22175936.750   116535344.239    22175940.727    90806782.1394                 
                
  20051355.734   105370611.622    20051364.895    82107000.4484   20051365.164  
                
 21  8 16  3 32 50.0000000  0 14G 6G20R16R19G29G12R15R18R 9R17G 5G31
                                G 2G25
  24331031.180   127860425.297    24331040.664    99631537.0734   24331041.047  
                
  22583343.375   118676254.410    22583349.438    92475047.6704                 
                
  19547085.312   104417028.925                    81213231.376    19547087.141  
  19547085.180  
  19734391.867   105565729.872                    82106665.524    19734394.672  
  19734389.738  
  21439615.641   112665953.477    21439622.062    87791680.7094   21439622.199  
                
  20767280.500   109132806.079    20767286.633    85038578.8384   20767286.711  
                
  23197372.641   123959728.337                    96413094.779    23197378.082  
  23197372.910  
  19839907.969   105906786.305                    82371943.039    19839910.832  
  19839906.566  
  20283017.023   108310173.694                    84241249.452    20283019.320  
  20283016.590  
  23321747.508   124799368.103                    97066171.232    23321751.199  
  23321745.445  
  23817782.852   125163295.868    23817789.902    97529879.1104   23817790.180  
                
  23415349.836   123048491.373    23415355.719    95881957.3534   23415355.898  
                
  22179988.547   116556636.540    22179992.508    90823373.5444                 
                
  20050823.273   105367813.505    20050832.430    82104820.0974   20050832.695  
                
 21  8 16  3 33  0.0000000  0 14G 6G20R16R19G29G12R15R18R 9R17G 5G31
                                G 2G25
  24337637.359   127895141.072    24337646.910    99658588.2824   24337647.297  
                
  22580163.859   118659545.904    22580169.945    92462028.0414                 
                
  19550309.188   104434250.247                    81226625.728    19550311.055  
  19550309.051  
  19731972.867   105552789.939                    82096601.136    19731975.730  
  19731970.723  
  21436216.688   112648091.889    21436223.141    87777762.5954   21436223.254  
                
  20770704.133   109150797.402    20770710.266    85052598.0394   20770710.352  
                
  23205524.398   124003288.521                    96446974.899    23205529.816  
  23205524.656  
  19843809.273   105927611.781                    82388140.617    19843812.137  
  19843807.863  
  20278476.297   108285926.515                    84222390.538    20278478.598  
  20278475.832  
  23328871.344   124837489.222                    97095820.991    23328875.043  
  23328869.254  
  23811588.789   125130745.542    23811595.711    97504515.2204   23811595.996  
                
  23412070.703   123031259.414    23412076.602    95868529.8544   23412076.773  
                
  22184047.031   116577964.035    22184050.980    90839992.3704                 
                
  20050301.180   105365069.886    20050310.336    82102682.2054   20050310.590  
                
 21  8 16  3 33 10.0000000  0 14G 6G20R16R19G29G12R15R18R 9R17G 5G31
                                G 2G25
  24344246.500   127929872.341    24344256.109    99685651.5894   24344256.480  
                
  22576993.875   118642887.468    22576999.973    92449047.4464                 
                
  19553547.836   104451550.447                    81240081.442    19553549.703  
  19553547.703  
  19729565.344   105539911.359                    82086584.464    19729568.250  
  19729563.164  
  21432823.344   112630259.738    21432829.793    87763867.4154   21432829.895  
                
  20774136.656   109168835.420    20774142.801    85066653.6364   20774142.879  
                
  23213679.797   124046867.857                    96480869.924    23213685.125  
  23213680.020  
  19847718.938   105948481.799                    82404372.862    19847721.797  
  19847717.535  
  20273947.875   108261745.022                    84203582.700    20273950.188  
  20273947.402  
  23335994.883   124875608.619                    97125469.411    23335998.543  
  23335992.742  
  23805397.719   125098211.128    23805404.578    97479163.7424   23805404.863  
                
  23408802.281   123014083.718    23408808.184    95855146.2044   23408808.332  
                
  22188112.211   116599326.719    22188116.156    90856638.6144                 
                
  20049789.484   105362380.875    20049798.637    82100586.8714   20049798.883  
                
 21  8 16  3 33 20.0000000  0 14G 6G20R16R19G29G12R15R18R 9R17G 5G31
                                G 2G25
  24350858.578   127964619.000    24350868.215    99712726.8784   24350868.590  
                
  22573833.438   118626279.248    22573839.559    92436105.9794                 
                
  19556801.203   104468929.352                    81253598.370    19556803.086  
  19556801.062  
  19727169.305   105527094.173                    82076615.536    19727172.242  
  19727167.109  
  21429435.586   112612456.954    21429442.000    87749995.1144   21429442.113  
                
  20777578.055   109186920.065    20777584.215    85080745.5574   20777584.297  
                
  23221838.719   124090466.344                    96514779.841    23221844.004  
  23221838.953  
  19851636.914   105969396.221                    82420639.625    19851639.770  
  19851635.504  
  20269431.812   108237629.490                    84184826.177    20269434.133  
  20269431.348  
  23343118.086   124913726.304                    97155116.465    23343121.738  
  23343115.922  
  23799209.625   125065692.717    23799216.551    97453824.7364   23799216.812  
                
  23405544.562   122996964.262    23405550.441    95841806.3704   23405550.602  
                
  22192184.070   116620724.464    22192188.008    90873312.1794                 
                
  20049288.203   105359746.573    20049297.355    82098534.1614   20049297.602  
                
 21  8 16  3 33 30.0000000  0 14G 6G20R16R19G29G12R15R18R 9R17G 5G31
                                G 2G25
  24357473.570   127999380.971    24357483.211    99739814.1264   24357483.586  
                
  22570682.547   118609721.256    22570688.719    92423203.6564                 
                
  19560069.336   104486387.120                    81267176.626    19560071.230  
  19560069.191  
  19724784.719   105514338.262                    82066694.271    19724787.676  
  19724782.531  
  21426053.414   112594683.536    21426059.781    87736145.6954   21426059.922  
                
  20781028.312   109205051.342    20781034.492    85094873.8194   20781034.574  
                
  23230001.141   124134083.807                    96548704.510    23230006.438  
  23230001.383  
  19855563.219   105990355.109                    82436940.981    19855566.074  
  19855561.805  
  20264928.070   108213579.756                    84166120.833    20264930.410  
  20264927.594  
  23350240.898   124951841.965                    97184761.948    23350244.590  
  23350238.711  
  23793024.617   125033190.307    23793031.566    97428498.1944   23793031.785  
                
  23402297.555   122979901.129    23402303.438    95828510.4064   23402303.613  
                
  22196262.586   116642157.203    22196266.523    90890013.0044                 
                
  20048797.312   105357166.913    20048806.465    82096524.0384   20048806.711  
                
 21  8 16  3 33 40.0000000  0 14G 6G20R16R19G29G12R15R18R 9R17G 5G31
                                G 2G25
  24364091.477   128034158.197    24364101.102    99766913.2604   24364101.480  
                
  22567541.242   118593213.542    22567547.488    92410340.5044                 
                
  19563352.242   104503923.796                    81280816.266    19563354.121  
  19563352.070  
  19722411.656   105501644.097                    82056821.042    19722414.652  
  19722409.473  
  21422676.828   112576939.520    21422683.176    87722319.1974   21422683.340  
                
  20784487.469   109223229.322    20784493.668    85109038.4724   20784493.746  
                
  23238167.094   124177720.108                    96582643.817    23238172.379  
  23238167.352  
  19859497.805   106011358.163                    82453276.686    19859500.652  
  19859496.387  
  20260436.719   108189596.178                    84147466.934    20260439.062  
  20260436.258  
  23357363.359   124989955.835                    97214406.035    23357367.125  
  23357361.121  
  23786842.695   125000704.116    23786849.680    97403184.2864   23786849.871  
                
  23399061.297   122962894.440    23399067.227    95815258.4554   23399067.359  
                
  22200347.758   116663624.925    22200351.691    90906741.0924                 
                
  20048316.859   105354642.050    20048326.020    82094556.6074   20048326.250  
                
 21  8 16  3 33 50.0000000  0 14G 6G20R16R19G29G12R15R18R 9R17G 5G31
                                G 2G25
  24370712.250   128068950.553    24370721.871    99794024.1874   24370722.266  
                
  22564409.516   118576756.250    22564415.840    92397516.6584                 
                
  19566649.875   104521539.180                    81294517.101    19566651.742  
  19566649.680  
  19720050.023   105489011.012                    82046995.315    19720053.070  
  19720047.801  
  21419305.844   112559224.917    21419312.199    87708515.6124   21419312.344  
                
  20787955.492   109241453.885    20787961.719    85123239.4254   20787961.785  
                
  23246336.508   124221375.149                    96616597.728    23246341.848  
  23246336.848  
  19863440.648   106032405.300                    82469646.672    19863443.500  
  19863439.223  
  20255957.758   108165678.778                    84128864.522    20255960.109  
  20255957.293  
  23364485.430   125028067.539                    97244048.421    23364489.266  
  23364483.145  
  23780663.867   124968234.201    23780670.898    97377883.0644   23780671.066  
                
  23395835.773   122945944.206    23395841.715    95802050.4894   23395841.836  
                
  22204439.562   116685127.490    22204443.484    90923496.3394                 
                
  20047846.812   105352171.953    20047855.977    82092631.8524   20047856.203  
                
 21  8 16  3 34  0.0000000  0 14G 6G20R16R19G29G12R15R18R 9R17G 5G31
                                G 2G25
  24377335.906   128103757.984    24377345.512    99821146.8654   24377345.922  
                
  22561287.430   118560349.499    22561293.773    92384732.1694                 
                
  19569962.203   104539233.033                    81308278.973    19569964.070  
  19569961.977  
  19717699.883   105476439.351                    82037217.360    19717702.984  
  19717697.645  
  21415940.461   112541539.722    21415946.836    87694734.9454   21415946.938  
                
  20791432.391   109259725.082    20791438.652    85137476.7174   20791438.707  
                
  23254509.375   124265048.919                    96650566.186    23254514.824  
  23254509.820  
  19867391.750   106053496.484                    82486050.920    19867394.598  
  19867390.320  
  20251491.242   108141827.857                    84110313.805    20251493.621  
  20251490.781  
  23371607.102   125066177.146                    97273689.206    23371610.992  
  23371604.824  
  23774488.227   124935780.723    23774495.262    97352594.6634   23774495.422  
                
  23392621.031   122929050.608    23392626.996    95788886.6444   23392627.102  
                
  22208537.992   116706664.908    22208541.906    90940278.7314                 
                
  20047387.211   105349756.674    20047396.379    82090749.8144   20047396.598  
                
 21  8 16  3 34 10.0000000  0 14G 6G20R16R19G29G12R15R18R 9R17G 5G31
                                G 2G25
  24383962.391   128138580.287    24383971.988    99848281.1224   24383972.410  
                
  22558174.938   118543993.236    22558181.258    92371987.0334                 
                
  19573289.234   104557005.450                    81322101.966    19573291.109  
  19573288.984  
  19715361.172   105463928.877                    82027487.010    19715364.305  
  19715358.941  
  21412580.656   112523883.819    21412587.055    87680977.1104   21412587.156  
                
  20794918.133   109278042.789    20794924.438    85151750.2454   20794924.473  
                
  23262685.773   124308741.130                    96684549.003    23262691.234  
  23262686.211  
  19871351.070   106074631.568                    82502489.317    19871353.910  
  19871349.633  
  20247037.164   108118043.309                    84091814.704    20247039.555  
  20247036.695  
  23378728.344   125104284.507                    97303328.246    23378732.289  
  23378726.016  
  23768315.711   124903343.843    23768322.781    97327319.1894   23768322.945  
                
  23389417.047   122912213.541    23389423.055    95775766.8674   23389423.145  
                
  22212643.023   116728236.979    22212646.941    90957088.1414                 
                
  20046938.023   105347396.176    20046947.195    82088910.4634   20046947.414  
                
 21  8 16  3 34 20.0000000  0 14G 6G20R16R19G29G12R15R18R 9R17G 5G31
                                G 2G25
  24390591.703   128173417.521    24390601.312    99875427.0014   24390601.758  
                
  22555072.078   118527687.613    22555078.387    92359281.3604                 
                
  19576630.969   104574856.445                    81335986.055    19576632.859  
  19576630.699  
  19713033.961   105451479.851                    82017804.431    19713037.074  
  19713031.742  
  21409226.445   112506257.347    21409232.863    87667242.1994   21409232.965  
                
  20798412.711   109296406.917    20798419.062    85166059.9564   20798419.078  
                
  23270865.664   124352451.809                    96718546.171    23270871.121  
  23270866.070  
  19875318.609   106095810.561                    82518961.866    19875321.453  
  19875317.180  
  20242595.578   108094325.498                    84073367.506    20242597.984  
  20242595.102  
  23385849.172   125142389.642                    97332965.568    23385853.172  
  23385846.887  
  23762146.359   124870923.604    23762153.477    97302056.6894   23762153.625  
                
  23386223.844   122895433.151    23386229.910    95762691.2394   23386229.965  
                
  22216754.641   116749843.669    22216758.570    90973924.5214                 
                
  20046499.289   105345090.595    20046508.457    82087113.9034   20046508.672  
                
 21  8 16  3 34 30.0000000  0 14G 6G20R16R19G29G12R15R18R 9R17G 5G31
                                G 2G25
  24397223.766   128208269.282    24397233.414    99902584.1964   24397233.879  
                
  22551978.828   118511432.469    22551985.156    92346615.0114                 
                
  19579987.305   104592785.417                    81349930.825    19579989.176  
  19579987.016  
  19710718.148   105439091.876                    82008169.330    19710721.234  
  19710715.906  
  21405877.781   112488660.022    21405884.176    87653529.9964   21405884.285  
                
  20801916.086   109314817.312    20801922.477    85180405.7094   20801922.473  
                
  23279048.969   124396180.465                    96752557.334    23279054.348  
  23279049.293  
  19879294.312   106117033.129                    82535468.305    19879297.152  
  19879292.887  
  20238166.422   108070674.113                    84054971.987    20238168.855  
  20238165.930  
  23392969.547   125180492.284                    97362600.930    23392973.609  
  23392967.289  
  23755980.133   124838519.939    23755987.305    97276807.1024   23755987.434  
                
  23383041.391   122878709.261    23383047.504    95749659.6374   23383047.512  
                
  22220872.781   116771484.653    22220876.734    90990787.6214                 
                
  20046070.945   105342839.621    20046080.105    82085359.8954   20046080.320  
                
 21  8 16  3 34 40.0000000  0 14G 6G20R16R19G29G12R15R18R 9R17G 5G31
                                G 2G25
  24403858.664   128243135.910    24403868.367    99929752.9704   24403868.844  
                
  22548895.289   118495228.328    22548901.562    92333988.4054                 
                
  19583358.383   104610793.096                    81363936.776    19583360.234  
  19583358.090  
  19708413.859   105426765.495                    81998582.140    19708416.941  
  19708411.590  
  21402534.750   112471092.259    21402541.090    87639840.8334   21402541.207  
                
  20805428.359   109333274.372    20805434.785    85194787.8194   20805434.777  
                
  23287235.641   124439927.479                    96786582.774    23287241.016  
  23287235.949  
  19883278.188   106138299.238                    82552008.616    19883281.035  
  19883276.766  
  20233749.836   108047089.775                    84036628.623    20233752.293  
  20233749.336  
  23400089.516   125218592.676                    97392234.547    23400093.625  
  23400087.289  
  23749817.242   124806133.420    23749824.348    97251570.8514   23749824.516  
                
  23379869.812   122862042.467    23379875.938    95736672.5234   23379875.953  
                
  22224997.523   116793160.311    22225001.516    91007677.7264                 
                
  20045653.102   105340643.798    20045662.254    82083648.8594   20045662.480  
                
 21  8 16  3 34 50.0000000  0 14G 6G20R16R19G29G12R15R18R 9R17G 5G31
                                G 2G25
  24410496.344   128278017.069    24410506.090    99956933.0814   24410506.559  
                
  22545821.414   118479074.980    22545827.594    92321401.3774                 
                
  19586744.117   104628879.009                    81378003.602    19586745.945  
  19586743.828  
  19706120.969   105414500.087                    81989042.393    19706124.059  
  19706118.711  
  21399197.305   112453553.854    21399203.590    87626174.5544   21399203.727  
                
  20808949.461   109351777.872    20808955.922    85209206.1284   20808955.891  
                
  23295425.742   124483692.606                    96820622.291    23295431.094  
  23295426.000  
  19887270.219   106159608.928                    82568582.819    19887273.055  
  19887268.805  
  20229345.781   108023572.393                    84018337.334    20229348.262  
  20229345.273  
  23407209.000   125256690.514                    97421866.167    23407213.148  
  23407206.797  
  23743657.484   124773763.775    23743664.551    97226347.7504   23743664.738  
                
  23376709.062   122845432.558    23376715.195    95723729.7344   23376715.227  
                
  22229128.789   116814870.255    22229132.820    91024594.5654                 
                
  20045245.695   105338502.840    20045254.844    82081980.5794   20045255.074  
                
 21  8 16  3 35  0.0000000  0 14G 6G20R16R19G29G12R15R18R 9R17G 5G31
                                G 2G25
  24417136.805   128312912.815    24417146.582    99984124.5454   24417147.055  
                
  22542757.266   118462972.726    22542763.402    92308854.1664                 
                
  19590144.555   104647043.501                    81392131.533    19590146.348  
  19590144.266  
  19703839.562   105402296.059                    81979550.379    19703842.652  
  19703837.316  
  21395865.492   112436045.020    21395871.730    87612531.2904   21395871.891  
                
  20812479.430   109370327.919    20812485.914    85223660.7014   20812485.879  
                
  23303619.180   124527475.693                    96854675.773    23303624.531  
  23303619.434  
  19891270.383   106180962.003                    82585190.765    19891273.215  
  19891268.980  
  20224954.305   108000122.201                    84000098.291    20224956.797  
  20224953.793  
  23414328.016   125294785.919                    97451495.890    23414332.207  
  23414325.824  
  23737501.031   124741411.409    23737508.023    97201138.1204   23737508.234  
                
  23373559.172   122828879.714    23373565.293    95710831.4164   23373565.336  
                
  22233266.586   116836614.576    22233270.656    91041538.1864                 
                
  20044848.781   105336417.001    20044857.922    82080355.2504   20044858.164  
                
 21  8 16  3 35 10.0000000  0 14G 6G20R16R19G29G12R15R18R 9R17G 5G31
                                G 2G25
  24423779.930   128347822.549    24423789.734   100011326.9214   24423790.195  
                
  22539702.727   118446921.041    22539708.867    92296346.3564                 
                
  19593559.539   104665285.747                    81406319.945    19593561.305  
  19593559.230  
  19701569.555   105390152.978                    81970105.767    19701572.637  
  19701567.332  
  21392539.188   112418565.204    21392545.414    87598910.6574   21392545.574  
                
  20816018.125   109388923.907    20816024.637    85238151.0734   20816024.582  
                
  23311815.969   124571276.242                    96888742.834    23311821.207  
  23311816.078  
  19895278.586   106202358.035                    82601832.124    19895281.438  
  19895277.195  
  20220575.352   107976738.859                    83981911.261    20220577.863  
  20220574.820  
  23421446.477   125332878.306                    97481123.241    23421450.672  
  23421444.297  
  23731347.805   124709075.957    23731354.738    97175941.6744   23731354.930  
                
  23370420.008   122812383.310    23370426.121    95697977.0744   23370426.164  
                
  22237410.828   116858392.725    22237414.922    91058508.1654                 
                
  20044462.242   105334385.753    20044471.375    82078772.4554   20044471.613  
                
 21  8 16  3 35 20.0000000  0 14G 6G20R16R19G29G12R15R18R 9R17G 5G31
                                G 2G25
  24430425.828   128382746.800    24430435.645   100038540.6174   24430436.109  
                
  22536657.969   118430920.704    22536664.109    92283878.5644                 
                
  19596989.195   104683606.335                    81420569.274    19596990.949  
  19596988.887  
  19699311.023   105378071.274                    81960708.895    19699314.070  
  19699308.828  
  21389218.539   112401115.116    21389224.773    87585313.1934   21389224.926  
                
  20819565.695   109407566.476    20819572.230    85252677.7434   20819572.168  
                
  23320015.938   124615094.640                    96922823.790    23320021.242  
  23320016.047  
  19899294.906   106223797.434                    82618507.193    19899297.766  
  19899293.512  
  20216209.047   107953423.089                    83963776.770    20216211.566  
  20216208.492  
  23428564.500   125370968.157                    97510748.685    23428568.668  
  23428562.367  
  23725197.930   124676758.118    23725204.781    97150758.9534   23725204.996  
                
  23367291.719   122795944.059    23367297.844    95685167.2724   23367297.883  
                
  22241561.609   116880205.194    22241565.727    91075504.8914                 
                
  20044086.227   105332409.756    20044095.352    82077232.7134   20044095.590  
                
 21  8 16  3 35 30.0000000  0 14G 6G20R16R19G29G12R15R18R 9R17G 5G31
                                G 2G25
  24437074.445   128417685.404    24437084.266   100065765.4934   24437084.738  
                
  22533622.961   118414971.685    22533629.090    92271450.7614                 
                
  19600433.508   104702005.180                    81434879.474    19600435.234  
  19600433.219  
  19697063.961   105366051.044                    81951359.822    19697066.973  
  19697061.770  
  21385903.523   112383694.578    21385909.777    87571738.7504   21385909.922  
                
  20823122.109   109426255.532    20823128.672    85267240.6454   20823128.598  
                
  23328219.227   124658930.774                    96956918.546    23328224.566  
  23328219.375  
  19903319.312   106245280.011                    82635215.859    19903322.207  
  19903317.930  
  20211855.414   107930174.951                    83945694.872    20211857.926  
  20211854.863  
  23435681.992   125409055.424                    97540372.100    23435686.172  
  23435679.867  
  23719051.422   124644457.939    23719058.156    97125589.9684   23719058.414  
                
  23364174.305   122779561.959    23364180.461    95672402.0144   23364180.484  
                
  22245718.883   116902051.831    22245723.020    91092528.2414                 
                
  20043720.711   105330488.972    20043729.820    82075735.9944   20043730.062  
                
 21  8 16  3 35 40.0000000  0 14G 6G20R16R19G29G12R15R18R 9R17G 5G31
                                G 2G25
  24443725.789   128452638.302    24443735.629   100093001.4944   24443736.105  
                
  22530597.758   118399074.107    22530603.867    92259063.0394                 
                
  19603892.422   104720482.033                    81449250.361    19603894.129  
  19603892.148  
  19694828.375   105354092.131                    81942058.442    19694831.348  
  19694826.172  
  21382594.125   112366303.595    21382600.383    87558187.3434   21382600.516  
                
  20826687.383   109444991.112    20826693.957    85281839.7864   20826693.871  
                
  23336425.867   124702784.564                    96991027.024    23336431.234  
  23336426.031  
  19907351.781   106266805.591                    82651957.968    19907354.688  
  19907350.406  
  20207514.461   107906994.511                    83927665.659    20207516.977  
  20207513.910  
  23442798.977   125447139.989                    97569993.357    23442803.156  
  23442796.887  
  23712908.258   124612175.516    23712914.906    97100434.8334   23712915.199  
                
  23361067.789   122763237.165    23361073.977    95659681.4084   23361073.980  
                
  22249882.664   116923932.599    22249886.820    91109578.1914                 
                
  20043365.711   105328623.416    20043374.797    82074282.3114   20043375.055  
                
 21  8 16  3 35 50.0000000  0 14G 6G20R16R19G29G12R15R18R 9R17G 5G31
                                G 2G25
  24450379.828   128487605.305    24450389.695   100120248.4884   24450390.152  
                
  22527582.328   118383227.950    22527588.414    92246715.3804                 
                
  19607365.945   104739036.920                    81463681.934    19607367.641  
  19607365.699  
  19692604.258   105342194.539                    81932804.742    19692607.188  
  19692602.074  
  21379290.352   112348942.110    21379296.586    87544658.9174   21379296.723  
                
  20830261.477   109463773.053    20830268.039    85296475.0614   20830267.957  
                
  23344635.852   124746655.724                    97025149.022    23344641.160  
  23344635.961  
  19911392.312   106288374.208                    82668733.557    19911395.223  
  19911390.922  
  20203186.219   107883881.972                    83909689.236    20203188.750  
  20203185.676  
  23449915.469   125485221.677                    97599612.446    23449919.625  
  23449913.500  
  23706768.492   124579910.859    23706775.090    97075293.5474   23706775.402  
                
  23357972.188   122746969.655    23357978.383    95647005.4224   23357978.379  
                
  22254052.914   116945847.416    22254057.082    91126654.6654                 
                
  20043021.227   105326813.098    20043030.289    82072871.6694   20043030.551  
                
 21  8 16  3 36  0.0000000  0 14G 6G20R16R19G29G12R15R18R 9R17G 5G31
                                G 2G25
  24457036.477   128522586.022    24457046.367   100147506.1634   24457046.785  
                
  22524576.633   118367432.938    22524582.684    92234407.5814                 
                
  19610854.023   104757669.569                    81478173.990    19610855.707  
  19610853.789  
  19690391.492   105330357.712                    81923598.317    19690394.379  
  19690389.371  
  21375992.102   112331609.708    21375998.281    87531153.1394   21375998.441  
                
  20833844.328   109482601.048    20833850.883    85311146.2224   20833850.805  
                
  23352848.898   124790543.929                    97059284.278    23352854.277  
  23352849.039  
  19915440.805   106309985.318                    82685542.196    19915443.727  
  19915439.410  
  20198870.641   107860837.066                    83891765.427    20198873.176  
  20198870.082  
  23457031.328   125523299.994                    97629228.907    23457035.465  
  23457029.445  
  23700632.109   124547663.791    23700638.660    97050165.9694   23700638.934  
                
  23354887.445   122730759.168    23354893.625    95634373.8814   23354893.637  
                
  22258229.555   116967795.762    22258233.734    91143757.2734                 
                
  20042687.188   105325057.681    20042696.227    82071503.8074   20042696.508  
                
 21  8 16  3 36 10.0000000  0 14G 6G20R16R19G29G12R15R18R 9R17G 5G31
                                G 2G25
  24463695.773   128557580.810    24463705.648   100174774.8034   24463706.043  
                
  22521580.781   118351689.616    22521586.789    92222140.0624                 
                
  19614356.703   104776380.213                    81492726.705    19614358.367  
  19614356.480  
  19688190.195   105318582.234                    81914439.627    19688193.047  
  19688188.133  
  21372699.508   112314307.022    21372705.645    87517670.5274   21372705.836  
                
  20837436.031   109501475.534    20837442.566    85325853.5964   20837442.504  
                
  23361065.070   124834449.460                    97093433.011    23361070.637  
  23361065.309  
  19919497.305   106331639.175                    82702384.079    19919500.238  
  19919495.891  
  20194567.836   107837860.344                    83873894.637    20194570.359  
  20194567.266  
  23464146.656   125561375.503                    97658843.174    23464150.785  
  23464144.797  
  23694499.180   124515434.857    23694505.691    97025052.5234   23694505.953  
                
  23351813.641   122714606.205    23351819.809    95621787.1554   23351819.820  
                
  22262412.656   116989778.090    22262416.852    91160886.3514                 
                
  20042363.688   105323357.661    20042372.703    82070179.1174   20042373.008  
                
 21  8 16  3 36 20.0000000  0 14G 6G20R16R19G29G12R15R18R 9R17G 5G31
                                G 2G25
  24470357.734   128592589.529    24470367.562   100202054.3034   24470367.941  
                
  22518594.742   118335997.885    22518600.711    92209912.7274                 
                
  19617874.023   104795168.984                    81507340.191    19617875.684  
  19617873.797  
  19686000.344   105306868.036                    81905328.598    19686003.199  
  19685998.273  
  21369412.562   112297034.010    21369418.691    87504211.0384   21369418.883  
                
  20841036.555   109520396.399    20841043.066    85340597.1254   20841043.023  
                
  23369284.531   124878372.130                    97127595.057    23369290.195  
  23369284.738  
  19923561.805   106353335.709                    82719259.165    19923564.742  
  19923560.383  
  20190277.797   107814951.812                    83856076.894    20190280.316  
  20190277.227  
  23471261.438   125599448.006                    97688455.080    23471265.586  
  23471259.574  
  23688369.727   124483224.209    23688376.180    96999953.3274   23688376.434  
                
  23348750.789   122698510.755    23348756.914    95609245.2434   23348756.934  
                
  22266602.195   117011794.231    22266606.406    91178041.7824                 
                
  20042050.734   105321713.037    20042059.738    82068897.5904   20042060.047  
                
 21  8 16  3 36 30.0000000  0 14G 6G20R16R19G29G12R15R18R 9R17G 5G31
                                G 2G25
  24477022.328   128627611.960    24477032.066   100229344.5044   24477032.438  
                
  22515618.531   118320357.811    22515624.473    92197725.6664                 
                
  19621405.867   104814035.382                    81522014.054    19621407.539  
  19621405.641  
  19683821.930   105295215.020                    81896265.156    19683824.762  
  19683819.840  
  21366131.250   112279790.563    21366137.398    87490774.5874   21366137.582  
                
  20844645.883   109539363.491    20844652.383    85355376.6684   20844652.344  
                
  23377507.164   124922311.741                    97161770.280    23377512.941  
  23377507.414  
  19927634.266   106375074.719                    82736167.280    19927637.219  
  19927632.836  
  20186000.578   107792111.695                    83838312.356    20186003.094  
