     2.11           OBSERVATION DATA    M (MIXED)           RINEX VERSION / TYPE
EFT-CORS.RU                             20210817 145053 UTC PGM / RUN BY / DATE 
MDNG                                                        MARKER NAME         
                                                            MARKER NUMBER       
MDNG                EFT-CORS.RU                             OBSERVER / AGENCY   
0                   TRIMBLE BD970       2.0                 REC # / TYPE / VERS 
0                   UNKNOWN EXT NONE                        ANT # / TYPE        
  3463911.2830  3030468.2400  4402179.3760                  APPROX POSITION XYZ 
        0.0000        0.0000        0.0000                  ANTENNA: DELTA H/E/N
     1     1                                                WAVELENGTH FACT L1/2
     6    C1    L1    P2    L2    C2    P1                  # / TYPES OF OBSERV 
    10.000                                                  INTERVAL            
  2021     8    15     0    30    0.0000000     GPS         TIME OF FIRST OBS   
  2021     8    15     1    30    0.0000000     GPS         TIME OF LAST OBS    
     0                                                      RCV CLOCK OFFS APPL 
                                                            END OF HEADER       
 21  8 15  0 30  0.0000000  0 17G 6G12G17G15R 5R24G14R14G13R23G24R13
                                R 4R17R15G 2G19
  22417611.172   117805340.832    22417620.121    91796406.5864   22417620.660  
                
  22070473.586   115981131.121    22070479.562    90374936.9184   22070479.672  
                
  22739524.578   119497020.027    22739530.348    93114592.5544   22739530.387  
                
  24306706.656   127732616.007    24306713.160    99531941.0074   24306713.059  
                
  22857643.938   122187208.534                    95034487.916    22857647.957  
  22857643.586  
  19922015.461   106531970.690                    82858202.077    19922019.746  
  19922014.660  
  24357498.648   127999533.465    24357504.641    99739941.2574   24357504.781  
                
  19697594.688   104999280.201                    81666099.409    19697598.508  
  19697594.352  
  24748532.789   130054428.408    24748538.855   101341147.6064                 
                
  19899833.047   106450700.827                                                  
  19899831.113  
  20366111.336   107024657.517    20366119.805    83395867.5034   20366119.902  
                
  20631155.516   110169260.752                    85687206.065    20631158.301  
  20631153.715  
  23581659.086   126278715.137                    98216771.633    23581662.586  
  23581658.316  
  23253251.852   124432854.827                    96781094.069    23253254.723  
  23253249.449  
  23010656.461   122961973.729                    95637084.889    23010660.762  
  23010656.543  
  23639238.352   124225033.347    23639241.461    96798743.4974                 
                
  20645305.430   108491830.477    20645309.281    84539105.9144                 
                
 21  8 15  0 30 10.0000000  0 17G 6G12G17G15R 5R24G14R14G13R23G24R13
                                R 4R17R15G 2G19
  22413008.383   117781153.011    22413017.352    91777558.9214   22413017.875  
                
  22065801.141   115956577.275    22065807.125    90355804.0564   22065807.211  
                
  22744878.031   119525152.492    22744883.781    93136513.9594   22744883.816  
                
  24312904.930   127765188.540    24312911.520    99557322.1914   24312911.422  
                
  22859654.883   122197958.125                    95042848.724    22859658.887  
  22859654.566  
  19917583.797   106508272.610                    82839770.234    19917588.082  
  19917582.996  
  24363090.656   128028919.431    24363096.680    99762839.4064   24363096.805  
                
  19694903.508   104984934.692                    81654941.789    19694907.320  
  19694903.180  
  24755593.750   130091533.859    24755599.770   101370060.9374                 
                
  19901998.656   106462285.430                                                  
  19901996.719  
  20365269.039   107020231.200    20365277.492    83392418.4264   20365277.605  
                
  20635019.648   110189895.051                    85703254.956    20635022.438  
  20635017.875  
  23588166.289   126313560.695                    98243873.707    23588169.734  
  23588165.465  
  23244688.750   124387031.799                    96745453.934    23244691.590  
  23244686.355  
  23004247.961   122927728.763                    95610449.919    23004252.273  
  23004248.062  
  23633225.648   124193437.038    23633228.992    96774123.0214                 
                
  20648147.828   108506767.379    20648151.641    84550745.0694                 
                
 21  8 15  0 30 20.0000000  0 16G 6G12G17G15R 5R24G14R14G13R23G24R13
                                R17R15G 2G19
  22408414.336   117757011.145    22408423.258    91758747.0734   22408423.793  
                
  22061132.859   115932045.299    22061138.848    90336688.2294   22061138.930  
                
  22750235.797   119553307.683    22750241.535    93158453.0694   22750241.559  
                
  24319104.562   127797767.898    24319111.156    99582708.7074   24319111.070  
                
  22861680.672   122208787.174                    95051271.343    22861684.691  
  22861680.332  
  19913166.648   106484652.177                    82821398.780    19913170.930  
  19913165.855  
  24368683.820   128058311.810    24368689.930    99785742.5424   24368690.051  
                
  19692219.836   104970629.246                    81643815.320    19692223.656  
  19692219.504  
  24762653.891   130128635.006    24762659.863   101398970.9434                 
                
  19904180.953   106473959.295                                                  
  19904179.027  
  20364438.188   107015865.098    20364446.633    83389016.2714   20364446.754  
                
  20638891.727   110210571.742                    85719336.837    20638894.512  
  20638889.973  
  23236127.938   124341221.496                    96709823.703    23236130.828  
  23236125.625  
  22997839.602   122893484.367                    95583815.369    22997843.859  
  22997839.691  
  23627216.391   124161858.636    23627219.922    96749516.4834                 
                
  20651000.961   108521760.695    20651004.750    84562428.1744                 
                
 21  8 15  0 30 30.0000000  0 16G 6G12G17G15R 5R24G14R14G13R23G24R13
                                R17R15G 2G19
  22403829.039   117732915.210    22403837.930    91739971.0084   22403838.484  
                
  22056468.703   115907534.969    22056474.691    90317589.2754   22056474.758  
                
  22755597.883   119581485.536    22755603.602    93180409.8344   22755603.629  
                
  24325305.398   127830353.811    24325312.078    99608100.3334   24325311.988  
                
  22863721.266   122219695.337                    95059755.471    22863725.270  
  22863720.930  
  19908763.992   106461109.175                    82803087.564    19908768.281  
  19908763.184  
  24374278.148   128087710.455    24374284.387    99808650.5464   24374284.441  
                
  19689543.633   104956363.558                    81632719.778    19689547.445  
  19689543.293  
  24769713.180   130165731.578    24769719.090   101427877.3594                 
                
  19906379.883   106485722.073                                                  
  19906377.965  
  20363618.781   107011559.080    20363627.219    83385660.9284   20363627.340  
                
  20642771.688   110231290.532                    85735451.449    20642774.438  
  20642769.918  
  23227569.516   124295423.691                    96674203.196    23227572.391  
  23227567.238  
  22991431.312   122859240.354                    95557181.146    22991435.547  
  22991431.375  
  23621210.461   124130298.152    23621214.262    96724923.9304                 
                
  20653864.781   108536810.144    20653868.562    84574155.0164                 
                
 21  8 15  0 30 40.0000000  0 16G 6G12G17G15R 5R24G14R14G13R23G24R13
                                R17R15G 2G19
  22399252.461   117708865.106    22399261.375    91721230.6674   22399261.918  
                
  22051808.641   115883046.178    22051814.594    90298507.0924   22051814.680  
                
  22760964.203   119609685.731    22760969.910    93202384.0154   22760969.934  
                
  24331507.406   127862946.053    24331514.238    99633496.8694   24331514.117  
                
  22865776.648   122230682.418                    95068300.959    22865780.676  
  22865776.320  
  19904375.875   106437643.955                    82784836.839    19904380.172  
  19904375.039  
  24379873.617   128117115.103    24379879.953    99831563.2364   24379879.988  
                
  19686874.883   104942137.622                    81621655.166    19686878.699  
  19686874.543  
  24776771.555   130202823.473    24776777.441   101456780.1354                 
                
  19908595.383   106497573.550                                                  
  19908593.473  
  20362810.781   107007312.992    20362819.219    83382352.2864   20362819.336  
                
  20646659.477   110252051.086                    85751598.540    20646662.227  
  20646657.711  
  23219013.320   124249638.450                    96638592.464    23219016.320  
  23219011.164  
  22985023.055   122824996.618                    95530547.154    22985027.293  
  22985023.070  
  23615207.875   124098755.461    23615211.969    96700345.2224                 
                
  20656739.219   108551915.427    20656743.004    84585925.3764                 
                
 21  8 15  0 30 50.0000000  0 15G 6G12G17G15R 5R24G14R14R23G24R13R17
                                R15G 2G19
  22394684.539   117684860.507    22394693.539    91702525.7794   22394694.035  
                
  22047152.578   115858578.443    22047158.520    90279441.3394   22047158.617  
                
  22766334.688   119637907.726    22766340.398    93224375.1824   22766340.422  
                
  24337710.516   127895543.977    24337717.500    99658897.8454   24337717.316  
                
  22867846.680   122241747.885                    95076907.446    22867850.750  
  22867846.391  
  19900002.148   106414255.735                    82766646.007    19900006.445  
  19900001.301  
  24385470.156   128146525.326    24385476.551    99854480.2984   24385476.598  
                
  19684213.508   104927951.020                    81610621.146    19684217.316  
  19684213.156  
  19910827.367   106509513.137                                                  
  19910825.465  
  20362014.102   107003126.413    20362022.547    83379090.0234   20362022.664  
                
  20650555.070   110272853.353                    85767778.090    20650557.789  
  20650553.297  
  23210459.367   124203865.339                    96602991.173    23210462.508  
  23210457.301  
  22978614.766   122790752.705                    95503913.002    22978619.043  
  22978614.785  
  23609208.727   124067230.195    23609212.953    96675780.1024                 
                
  20659624.211   108567076.131    20659627.996    84597738.9164                 
                
 21  8 15  0 31  0.0000000  0 15G 6G12G17G15R 5R24G14R14R23G24R13R17
                                R15G 2G19
  22390125.594   117660903.121    22390134.699    91683857.6914   22390135.141  
                
  22042500.859   115834133.490    22042506.789    90260393.3214   22042506.887  
                
  22771709.609   119666153.083    22771715.332    93246384.5444   22771715.367  
                
  24343915.016   127928149.095    24343922.125    99684304.4274   24343921.902  
                
  22869931.664   122252893.238                    95085576.043    22869935.680  
  22869931.367  
  19895643.203   106390946.554                    82748516.653    19895647.508  
  19895642.340  
  24391068.070   128175942.739    24391074.516    99877402.9704   24391074.559  
                
  19681559.828   104913805.433                    81599619.032    19681563.641  
  19681559.473  
  19913076.109   106521542.394                                                  
  19913074.227  
  20361229.070   106999001.027    20361237.520    83375875.4314   20361237.633  
                
  20654458.750   110293698.812                    85783991.234    20654461.477  
  20654456.953  
  23201908.102   124158106.183                    96567400.718    23201911.277  
  23201906.082  
  22972206.758   122756510.406                    95477280.121    22972211.094  
  22972206.797  
  23603213.289   124035724.077    23603217.570    96651229.8784                 
                
  20662520.031   108582293.802    20662523.816    84609596.8384                 
                
 21  8 15  0 31 10.0000000  0 15G 6G12G17G15R 5R24G14R14R23G24R13R17
                                R15G 2G19
  22385575.531   117636992.359    22385584.695    91665225.9484   22385585.125  
                
  22037853.328   115809710.638    22037859.199    90241362.5284   22037859.309  
                
  22777088.812   119694420.960    22777094.551    93268411.4624   22777094.578  
                
  24350120.773   127960760.592    24350127.922    99709715.9684   24350127.684  
                
  22872031.438   122264117.775                    95094306.254    22872035.438  
  22872031.102  
  19891298.844   106367715.365                    82730447.949    19891303.145  
  19891297.977  
  24396667.258   128205366.623    24396673.707    99900330.6674   24396673.750  
                
  19678913.727   104899700.198                    81588648.283    19678917.531  
  19678913.387  
  19915341.477   106533660.576                                                  
  19915339.609  
  20360455.547   106994936.147    20360463.996    83372707.9954   20360464.102  
                
  20658370.391   110314586.763                    85800237.396    20658373.070  
  20658368.578  
  23193359.328   124112360.464                    96531820.724    23193362.590  
  23193357.359  
  22965798.938   122722269.076                    95450648.008    22965803.312  
  22965798.988  
  23597221.461   124004236.627    23597225.699    96626694.1994                 
                
  20665426.547   108597567.626    20665430.344    84621498.5214                 
                
 21  8 15  0 31 20.0000000  0 15G 6G12G17G15R 5R24G14R14R23G24R13R17
                                R15G 2G19
  22381034.328   117613128.175    22381043.484    91646630.4764   22381043.930  
                
  22033209.969   115785309.636    22033215.785    90222348.7524   22033215.926  
                
  22782472.250   119722711.146    22782478.004    93290455.7614   22782478.031  
                
  24356327.727   127993378.139    24356334.867    99735132.2534   24356334.621  
                
  22874145.992   122275421.243                    95103097.838    22874149.992  
  22874145.676  
  19886969.156   106344562.640                    82712440.286    19886973.457  
  19886968.281  
  24402267.633   128234796.780    24402274.074    99923263.2594   24402274.117  
                
  19676275.188   104885635.320                    81577708.935    19676278.988  
  19676274.863  
  19917623.438   106545867.530                                                  
  19917621.590  
  20359693.508   106990931.635    20359701.953    83369587.5944   20359702.059  
                
  20662289.930   110335516.931                    85816516.412    20662292.602  
  20662288.137  
  23184813.094   124066628.034                    96496251.061    23184816.383  
  23184811.105  
  22959391.289   122688028.500                    95424016.436    22959395.617  
  22959391.363  
  23591233.203   123972767.747    23591237.312    96602172.9824                 
                
  20668343.641   108612897.118    20668347.465    84633443.5814                 
                
 21  8 15  0 31 30.0000000  0 15G 6G12G17G15R 5R24G14R14R23G24R13R17
                                R15G 2G19
  22376502.000   117589310.589    22376511.176    91628071.3104   22376511.605  
                
  22028570.773   115760930.463    22028576.598    90203352.0114   22028576.738  
                
  22787859.914   119751023.477    22787865.672    93312517.3144   22787865.707  
                
  24362535.820   128026001.653    24362542.945    99760553.1844   24362542.707  
                
  22876275.273   122286803.452                    95111950.659    22876279.305  
  22876275.000  
  19882654.109   106321488.139                    82694493.445    19882658.402  
  19882653.238  
  24407869.203   128264233.117    24407875.617    99946200.6534   24407875.652  
                
  19673644.227   104871610.798                    81566800.966    19673648.008  
  19673643.895  
  19919921.914   106558162.819                                                  
  19919920.066  
  20358942.961   106986987.431    20358951.410    83366514.1864   20358951.512  
                
  20666217.438   110356489.591                    85832828.499    20666220.109  
  20666215.656  
  23176269.406   124020909.000                    96460691.816    23176272.684  
  23176267.391  
  22952983.820   122653788.803                    95397385.559    22952988.078  
  22952983.867  
  23585248.453   123941317.443    23585252.422    96577666.2304                 
                
  20671271.383   108628282.491    20671275.242    84645432.1814                 
                
 21  8 15  0 31 40.0000000  0 15G 6G12G17G15R 5R24G14R14R23G24R13R17
                                R15G 2G19
  22371978.539   117565539.677    22371987.773    91609548.5394   22371988.172  
                
  22023935.742   115736573.251    22023941.586    90184372.3544   22023941.715  
                
  22793251.766   119779357.880    22793257.539    93334596.0674   22793257.582  
                
  24368745.031   128058631.038    24368752.098    99785978.6854   24368751.855  
                
  22878419.250   122298264.167                    95120864.519    22878423.285  
  22878418.984  
  19878353.703   106298491.922                    82676607.497    19878357.984  
  19878352.832  
  24413471.977   128293675.633    24413478.301    99969142.8964   24413478.352  
                
  19671020.828   104857626.634                    81555924.404    19671024.609  
  19671020.496  
  19922236.914   106570546.530                                                  
  19922235.051  
  20358203.891   106983103.598    20358212.340    83363487.8204   20358212.438  
                
  20670152.758   110377504.025                    85849173.061    20670155.438  
  20670150.949  
  23167728.180   123975203.534                    96425143.119    23167731.496  
  23167726.223  
  22946576.461   122619549.818                    95370755.216    22946580.664  
  22946576.512  
  23579267.266   123909885.796    23579271.035    96553174.0194                 
                
  20674209.711   108643723.555    20674213.633    84657464.1744                 
                
 21  8 15  0 31 50.0000000  0 15G 6G12G17G15R 5R24G14R14R23G24R13R17
                                R15G 2G19
  22367464.016   117541815.667    22367473.289    91591062.3054   22367473.672  
                
  22019304.914   115712238.087    22019310.762    90165409.9004   22019310.914  
                
  22798647.836   119807714.419    22798653.633    93356692.0674   22798653.664  
                
  24374955.312   128091266.296    24374962.359    99811408.7524   24374962.137  
                
  22880577.961   122309803.746                    95129839.785    22880581.953  
  22880577.672  
  19874068.008   106275574.414                    82658782.788    19874072.285  
  19874067.121  
  24419075.914   128323124.444    24419082.184    99992090.0304   24419082.293  
                
  19668405.039   104843683.006                    81545079.352    19668408.812  
  19668404.711  
  19924568.445   106583018.655                                                  
  19924566.598  
  20357476.336   106979280.259    20357484.785    83360508.5964   20357484.879  
                
  20674096.047   110398560.941                    85865550.659    20674098.730  
  20674094.238  
  23159189.555   123929511.906                    96389605.192    23159192.902  
  23159187.676  
  22940169.305   122585311.958                    95344125.787    22940173.504  
  22940169.352  
  23573289.555   123878472.995    23573293.258    96528696.5024                 
                
  20677158.656   108659220.407    20677162.637    84669539.6474                 
                
 21  8 15  0 32  0.0000000  0 15G 6G12G17G15R 5R24G14R14R23G24R13R17
                                R15G 2G19
  22362958.453   117518138.761    22362967.758    91572612.7824   22362968.148  
                
  22014678.289   115687925.024    22014684.152    90146464.6474   22014684.293  
                
  22804048.102   119836092.995    22804053.902    93378805.2434   22804053.941  
                
  24381166.641   128123907.325    24381173.781    99836843.3054   24381173.539  
                
  22882751.367   122321421.833                    95138876.085    22882755.277  
  22882751.059  
  19869797.000   106252735.418                    82641019.111    19869801.258  
  19869796.105  
  24424681.070   128352579.541    24424687.293   100015042.0414   24424687.418  
                
  19665796.891   104829780.064                    81534265.960    19665800.672  
  19665796.559  
  19926916.539   106595579.343                                                  
  19926914.688  
  20356760.305   106975517.510    20356768.762    83357576.5864   20356768.859  
                
  20678047.211   110419659.946                    85881960.982    20678049.867  
  20678045.387  
  23150653.633   123883834.327                    96354078.199    23150656.957  
  23150651.719  
  22933762.367   122551075.143                    95317497.175    22933766.574  
  22933762.398  
  23567315.484   123847079.276    23567319.141    96504233.8524                 
                
  20680118.211   108674773.019    20680122.254    84681658.5604                 
                
 21  8 15  0 32 10.0000000  0 15G 6G12G17G15R 5R24G14R14R23G24R13R17
                                R15G 2G19
  22358461.836   117494508.877    22358471.160    91554199.8984   22358471.547  
                
  22010055.844   115663633.954    22010061.746    90127536.5484   22010061.867  
                
  22809452.523   119864493.376    22809458.305    93400935.4114   22809458.363  
                
  24387379.016   128156553.923    24387386.223    99862282.2074   24387385.988  
                
  22884939.445   122333118.419                    95147973.410    22884943.297  
  22884939.117  
  19865540.719   106229975.175                    82623316.702    19865544.965  
  19865539.812  
  24430287.359   128382040.780    24430293.586   100037998.8474   24430293.715  
                
  19663196.367   104815917.839                    81523484.228    19663200.156  
  19663196.031  
  19929281.094   106608228.103                                                  
  19929279.250  
  20356055.781   106971815.225    20356064.250    83354691.6884   20356064.340  
                
  20682006.250   110440801.008                    85898404.044    20682008.879  
  20682004.438  
  23142120.250   123838170.618                    96318561.982    23142123.559  
  23142118.348  
  22927355.594   122516839.376                    95290869.360    22927359.797  
  22927355.637  
  23561344.938   123815704.532    23561348.652    96479785.9854                 
                
  20683088.328   108690381.104    20683092.430    84693820.7034                 
                
 21  8 15  0 32 20.0000000  0 15G 6G12G17G15R 5R24G14R14R23G24R13R17
                                R15G 2G19
  22353974.234   117470926.295    22353983.555    91535823.8624   22353983.926  
                
  22005437.594   115639364.921    22005443.500    90108625.6124   22005443.613  
                
  22814861.125   119892915.726    22814866.879    93423082.7054   22814866.945  
                
  24393592.445   128189205.940    24393599.645    99887725.3364   24393599.422  
                
  22887142.211   122344893.382                    95157131.718    22887146.062  
  22887141.906  
  19861299.188   106207293.854                    82605675.677    19861303.426  
  19861298.285  
  24435894.781   128411508.293    24435901.105   100060960.5254   24435901.250  
                
  19660603.500   104802096.392                    81512734.198    19660607.277  
  19660603.180  
  19931662.148   106620965.136                                                  
  19931660.332  
  20355362.797   106968173.571    20355371.277    83351854.0314   20355371.352  
                
  20685973.203   110461984.331                    85914879.950    20685975.840  
  20685971.402  
  23133589.555   123792521.148                    96283056.828    23133592.836  
  23133587.605  
  22920949.031   122482604.685                    95264242.375    22920953.188  
  22920949.102  
  23555377.992   123784349.031    23555381.879    96455353.1274                 
                
  20686069.016   108706044.733    20686073.160    84706026.1324                 
                
 21  8 15  0 32 30.0000000  0 15G 6G12G17G15R 5R24G14R14R23G24R13R17
                                R15G 2G19
  22349495.648   117447391.137    22349504.930    91517484.7754   22349505.312  
                
  22000823.570   115615118.090    22000829.473    90089731.9884   22000829.605  
                
  22820273.898   119921359.981    22820279.621    93445247.0624   22820279.684  
                
  24399806.961   128221863.490    24399814.098    99913172.7854   24399813.906  
                
  22889359.648   122356746.865                    95166351.094    22889363.516  
  22889359.312  
  19857072.461   106184691.670                    82588096.199    19857076.688  
  19857071.559  
  24441503.406   128440982.116    24441509.832   100083927.1384   24441509.969  
                
  19658018.312   104788315.870                    81502016.023    19658022.109  
  19658017.996  
  19934059.688   106633790.330                                                  
  19934057.902  
  20354681.375   106964592.667    20354689.875    83349063.7174   20354689.938  
                
  20689948.125   110483210.124                    85931388.901    20689950.770  
  20689946.324  
  23125061.484   123746886.091                    96247562.897    23125064.832  
  23125059.535  
  22914542.734   122448371.355                    95237616.444    22914546.820  
  22914542.777  
  23549414.734   123753012.856    23549418.844    96430935.3514                 
                
  20689060.273   108721763.931    20689064.453    84718274.8524                 
                
 21  8 15  0 32 40.0000000  0 15G 6G12G17G15R 5R24G14R14R23G24R13R17
                                R15G 2G19
  22345026.078   117423903.333    22345035.309    91499182.5874   22345035.715  
                
  21996213.773   115590893.413    21996219.652    90070855.6124   21996219.785  
                
  22825690.781   119949825.837    22825696.477    93467428.2514   22825696.527  
                
  24406022.422   128254526.390    24406029.547    99938624.3814   24406029.387  
                
  22891591.672   122368678.396                    95175631.163    22891595.586  
  22891591.340  
  19852860.484   106162168.349                    82570578.068    19852864.703  
  19852859.570  
  24447113.250   128470462.024    24447119.719   100106898.4814   24447119.844  
                
  19655440.781   104774576.146                    81491329.559    19655444.586  
  19655440.457  
  19936473.680   106646703.495                                                  
  19936471.914  
  20354011.469   106961072.314    20354019.977    83346320.5814   20354020.031  
                
  20693930.898   110504477.875                    85947930.488    20693933.523  
  20693929.094  
  23116535.984   123701265.383                    96212080.123    23116539.504  
  23116534.129  
  22908136.617   122414139.239                    95210991.505    22908140.730  
  22908136.594  
  23543455.219   123721695.985    23543459.496    96406532.6104                 
                
  20692062.055   108737538.384    20692066.266    84730566.6304                 
                
 21  8 15  0 32 50.0000000  0 15G 6G12G17G15R 5R24G14R14R23G24R13R17
                                R15G 2G19
  22340565.508   117400462.887    22340574.703    91480917.3054   22340575.121  
                
  21991608.164   115566690.791    21991614.016    90051996.4214   21991614.145  
                
  22831111.758   119978313.214    22831117.430    93489626.2124   22831117.484  
                
  24412238.883   128287194.348    24412245.945    99964079.9394   24412245.824  
                
  22893838.312   122380688.020                    95184971.974    22893842.219  
  22893837.973  
  19848663.258   106139723.924                    82553121.300    19848667.480  
  19848662.340  
  24452724.242   128499947.947    24452730.727   100129874.5224   24452730.879  
                
  19652870.930   104760877.403                    81480674.976    19652874.734  
  19652870.621  
  19938904.055   106659704.378                                                  
  19938902.309  
  20353353.086   106957612.463    20353361.602    83343624.5924   20353361.648  
                
  20697921.547   110525787.687                    85964504.773    20697924.148  
  20697919.746  
  23108013.258   123655659.130                    96176608.598    23108016.863  
  23108011.422  
  22901730.766   122379908.290                    95184367.426    22901734.895  
  22901730.738  
  23537499.422   123690398.381    23537503.832    96382144.8814                 
                
  20695074.312   108753367.945    20695078.547    84742901.3584                 
                
 21  8 15  0 33  0.0000000  0 15G 6G12G17G15R 5R24G14R14R23G24R13R17
                                R15G 2G19
  22336113.992   117377070.039    22336123.152    91462689.1194   22336123.578  
                
  21987006.773   115542510.246    21987012.590    90033154.4424   21987012.719  
                
  22836536.820   120006822.118    22836542.492    93511840.9514   22836542.539  
                
  24418456.273   128319867.369    24418463.391    99989539.4324   24418463.266  
                
  22896099.547   122392775.615                    95194373.431    22896103.445  
  22896099.164  
  19844480.828   106117358.656                    82535726.081    19844485.043  
  19844479.891  
  24458336.383   128529439.993    24458342.879   100152855.3374   24458343.051  
                
  19650308.766   104747219.628                    81470052.267    19650312.594  
  19650308.469  
  19941350.844   106672793.038                                                  
  19941349.117  
  20352706.242   106954213.276    20352714.762    83340975.8754   20352714.805  
                
  20701920.070   110547139.613                    85981111.839    20701922.648  
  20701918.305  
  23099493.359   123610067.573                    96141148.501    23099496.992  
  23099491.500  
  22895325.164   122345678.609                    95157744.361    22895329.309  
  22895325.129  
  23531547.438   123659120.383    23531551.902    96357772.4264                 
                
  20698097.062   108769252.622    20698101.309    84755279.0274                 
                
 21  8 15  0 33 10.0000000  0 15G 6G12G17G15R 5R24G14R14R23G24R13R17
                                R15G 2G19
  22331671.539   117353724.776    22331680.684    91444498.0124   22331681.113  
                
  21982409.570   115518351.801    21982415.355    90014329.6704   21982415.512  
                
  22841965.953   120035352.386    22841971.645    93534072.3214   22841971.680  
                
  24424674.641   128352545.314    24424681.773   100015002.7404   24424681.660  
                
  22898375.352   122404941.140                    95203835.541    22898379.191  
  22898374.949  
  19840313.203   106095072.573                    82518392.473    19840317.434  
  19840312.234  
  24463949.656   128558938.024    24463956.172   100175840.8004   24463956.383  
                
  19647754.320   104733602.944                    81459461.506    19647758.152  
  19647754.023  
  19943814.008   106685969.241                                                  
  19943812.293  
  20352070.930   106950874.682    20352079.453    83338374.3784   20352079.500  
                
  20705926.539   110568533.885                    85997751.832    20705929.145  
  20705924.770  
  23090976.242   123564490.681                    96105699.808    23090979.836  
  23090974.363  
  22888919.805   122311450.208                    95131122.262    22888923.961  
  22888919.785  
  23525599.305   123627862.025    23525603.715    96333415.2604                 
                
  20701130.273   108785192.269    20701134.527    84767699.5304                 
                
 21  8 15  0 33 20.0000000  0 15G 6G12G17G15R 5R24G14R14R23G24R13R17
                                R15G 2G19
  22327238.188   117330427.304    22327247.320    91426344.1394   22327247.773  
                
  21977816.594   115494215.554    21977822.387    89995522.2014   21977822.559  
                
  22847399.141   120063903.971    22847404.859    93556320.3024   22847404.883  
                
  24430893.953   128385228.112    24430901.090   100040469.8604   24430900.996  
                
  22900665.734   122417184.558                    95213358.201    22900669.547  
  22900665.320  
  19836160.461   106072866.019                    82501120.706    19836164.684  
  19836159.484  
  24469564.133   128588442.101    24469570.648   100198830.9774   24469570.824  
                
  19645207.570   104720027.340                    81448902.700    19645211.406  
  19645207.285  
  19946293.547   106699233.101                                                  
  19946291.848  
  20351447.164   106947596.799    20351455.684    83335820.1764   20351455.734  
                
  20709940.875   110589970.266                    86014424.561    20709943.480  
  20709939.105  
  23082461.906   123518928.777                    96070262.776    23082465.500  
  23082460.055  
  22882514.680   122277223.156                    95104501.251    22882518.852  
  22882514.613  
  23519654.883   123596623.457    23519659.270    96309073.5144                 
                
  20704173.938   108801186.850    20704178.195    84780162.8394                 
                
 21  8 15  0 33 30.0000000  0 15G 6G12G17G15R 5R24G14R14R23G24R13R17
                                R15G 2G19
  22322813.930   117307177.636    22322823.027    91408227.5234   22322823.504  
                
  21973227.828   115470101.431    21973233.641    89976731.9764   21973233.812  
                
  22852836.328   120092476.628    22852842.062    93578584.7034   22852842.070  
                
  24437114.195   128417915.581    24437121.332   100065940.6204   24437121.223  
                
  22902970.602   122429505.490                    95222941.152    22902974.426  
  22902970.188  
  19832022.516   106050738.602                    82483910.493    19832026.742  
  19832021.527  
  24475179.766   128617952.114    24475186.262   100221825.7854   24475186.367  
                
  19642668.531   104706492.813                    81438375.842    19642672.367  
  19642668.250  
  19948789.422   106712584.347                                                  
  19948787.723  
  20350834.945   106944379.544    20350843.453    83333313.2284   20350843.516  
                
  20713963.078   110611448.531                    86031129.875    20713965.688  
  20713961.289  
  23073950.414   123473381.798                    96034837.343    23073953.938  
  23073948.523  
  22876109.789   122242997.464                    95077881.304    22876113.980  
  22876109.664  
  23513714.227   123565404.618    23513718.570    96284747.1444                 
                
  20707228.031   108817236.188    20707232.289    84792668.8114                 
                
 21  8 15  0 33 40.0000000  0 15G 6G12G17G15R 5R24G14R14R23G24R13R17
                                R15G 2G19
  22318398.797   117283975.897    22318407.875    91390148.2484   22318408.355  
                
  21968643.242   115446009.341    21968649.105    89957958.9334   21968649.250  
                
  22858277.539   120121070.402    22858283.277    93600865.5674   22858283.289  
                
  24443335.336   128450607.543    24443342.434   100091414.8704   24443342.309  
                
  22905290.000   122441904.043                    95232584.444    22905293.871  
  22905289.562  
  19827899.461   106028690.861                    82466762.262    19827903.719  
  19827898.453  
  24480796.492   128647468.095    24480802.965   100244825.2394   24480803.059  
                
  19640137.234   104692999.601                    81427881.124    19640141.070  
  19640136.953  
  19951301.648   106726023.028                                                  
  19951299.953  
  20350234.266   106941222.980    20350242.770    83330853.5664   20350242.832  
                
  20717993.148   110632968.898                    86047867.941    20717995.773  
  20717991.359  
  23065441.758   123427849.963                    95999423.703    23065445.203  
  23065439.836  
  22869705.211   122208773.285                    95051262.473    22869709.355  
  22869705.031  
  23507777.281   123534205.678    23507781.617    96260436.2714                 
                
  20710292.539   108833340.296    20710296.797    84805217.4714                 
                
 21  8 15  0 33 50.0000000  0 15G 6G12G17G15R 5R24G14R14R23G24R13R17
                                R15G 2G19
  22313992.797   117260822.195    22314001.852    91372106.4024   22314002.344  
                
  21964062.906   115421939.533    21964068.789    89939203.2424   21964068.910  
                
  22863722.750   120149685.163    22863728.492    93623162.7824   22863728.512  
                
  24449557.359   128483303.753    24449564.301   100116892.4404   24449564.172  
                
  22907623.906   122454380.123                    95242288.067    22907627.828  
  22907623.496  
  19823791.258   106006722.496                    82449675.764    19823795.531  
  19823790.230  
  24486414.359   128676990.059    24486420.805   100267829.3724   24486420.902  
                
  19637613.672   104679547.570                    81417418.443    19637617.512  
  19637613.387  
  19953830.180   106739548.934                                                  
  19953828.508  
  20349645.156   106938127.170    20349653.652    83328441.2504   20349653.727  
                
  20722031.062   110654531.151                    86064638.575    20722033.703  
  20722029.266  
  23056935.875   123382333.400                    95964021.950    23056939.344  
  23056934.008  
  22863300.914   122174550.629                    95024644.858    22863305.039  
  22863300.719  
  23501844.047   123503026.752    23501848.441    96236140.9984                 
                
  20713367.461   108849499.088    20713371.703    84817808.7414                 
                
 21  8 15  0 34  0.0000000  0 15G 6G12G17G15R 5R24G14R14R23G24R13R17
                                R15G 2G19
  22309595.984   117237716.832    22309605.023    91354102.2284   22309605.520  
                
  21959486.859   115397892.203    21959492.723    89920465.0634   21959492.867  
                
  22869171.969   120178320.972    22869177.715    93645476.3984   22869177.746  
                
  24455780.195   128516004.606    24455787.016   100142373.6284   24455786.922  
                
  22909972.352   122466933.825                    95252052.031    22909976.328  
  22909971.922  
  19819697.992   105984834.024                    82432651.386    19819702.273  
  19819696.953  
  24492033.414   128706518.154    24492039.824   100290838.2914   24492039.887  
                
  19635097.922   104666137.200                    81406988.152    19635101.766  
  19635097.637  
  19956375.070   106753162.318                                                  
  19956373.402  
  20349067.648   106935092.334    20349076.125    83326076.4394   20349076.219  
                
  20726076.938   110676135.872                    86081442.250    20726079.598  
  20726075.121  
  23048432.969   123336832.484                    95928632.347    23048436.363  
  23048431.062  
  22856896.914   122140329.661                    94998028.564    22856901.023  
  22856896.719  
  23495914.633   123471868.102    23495919.152    96211861.5464                 
                
  20716452.828   108865712.789    20716457.051    84830442.7874                 
                
 21  8 15  0 34 10.0000000  0 15G 6G12G17G15R 5R24G14R14R23G24R13R17
                                R15G 2G19
  22305208.375   117214659.849    22305217.430    91336135.7564   22305217.930  
                
  21954915.062   115373867.291    21954920.922    89901744.3514   21954921.082  
                
  22874625.188   120206977.917    22874630.953    93667806.4884   22874630.973  
                
  24462003.773   128548709.901    24462010.559   100167858.2774   24462010.496  
                
  22912335.273   122479565.077                    95261876.344    22912339.301  
  22912334.781  
  19815619.695   105963025.559                    82415689.253    19815623.980  
  19815618.664  
  24497653.625   128736052.313    24497660.000   100313851.9244   24497660.043  
                
  19632589.984   104652768.453                    81396590.243    19632593.836  
  19632589.707  
  19958936.234   106766862.862                                                  
  19958934.578  
  20348501.734   106932118.414    20348510.199    83323759.1004   20348510.293  
                
  20730130.664   110697782.655                    86098278.629    20730133.344  
  20730128.852  
  23039933.070   123291347.332                    95893255.008    23039936.359  
  23039931.051  
  22850493.234   122106110.456                    94971413.634    22850497.332  
  22850493.031  
  23489989.031   123440729.761    23489993.680    96187597.9164                 
                
  20719548.602   108881981.160    20719552.797    84843119.4434                 
                
 21  8 15  0 34 20.0000000  0 15G 6G12G17G15R 5R24G14R14R23G24R13R17
                                R15G 2G19
  22300829.984   117191651.253    22300839.043    91318206.9814   22300839.547  
                
  21950347.531   115349864.694    21950353.375    89883041.0234   21950353.547  
                
  22880082.398   120235655.767    22880088.172    93690152.8554   22880088.184  
                
  24468228.133   128581419.402    24468234.945   100193346.1994   24468234.879  
                
  22914712.672   122492273.639                    95271760.765    22914716.742  
  22914712.164  
  19811556.328   105941296.895                    82398789.192    19811560.605  
  19811555.316  
  24503275.023   128765592.448    24503281.348   100336870.2114   24503281.375  
                
  19630089.867   104639441.419                    81386224.770    19630093.715  
  19630089.582  
  19961513.719   106780650.581                                                  
  19961512.059  
  20347947.406   106929205.372    20347955.859    83321489.1974   20347955.957  
                
  20734192.266   110719471.328                    86115147.598    20734194.930  
  20734190.445  
  23031436.117   123245877.873                    95857889.862    23031439.305  
  23031434.004  
  22844089.906   122071893.078                    94944800.142    22844094.039  
  22844089.688  
  23484067.391   123409611.863    23484072.094    96163350.2064                 
                
  20722654.766   108898304.068    20722658.930    84855838.5914                 
                
 21  8 15  0 34 30.0000000  0 15G 6G12G17G15R 5R24G14R14R23G24R13R17
                                R15G 2G19
  22296460.805   117168691.109    22296469.875    91300315.9584   22296470.371  
                
  21945784.234   115325884.457    21945790.043    89864355.1294   21945790.227  
                
  22885543.555   120264354.355    22885549.328    93712515.3844   22885549.332  
                
  24474453.312   128614132.891    24474460.102   100218837.2304   24474460.008  
                
  22917104.469   122505059.257                    95281705.121    22917108.551  
  22917104.000  
  19807507.922   105919648.259                    82381951.362    19807512.184  
  19807506.930  
  24508897.461   128795138.486    24508903.789   100359893.0994   24508903.816  
                
  19627597.539   104626155.905                    81375891.601    19627601.383  
  19627597.258  
  19964107.398   106794525.095                                                  
  19964105.730  
  20347404.641   106926353.187    20347413.082    83319266.7154   20347413.199  
                
  20738261.750   110741202.179                    86132049.371    20738264.395  
  20738259.922  
  23022941.992   123200424.163                    95822536.992    23022945.207  
  23022939.891  
  22837686.914   122037677.394                    94918187.944    22837691.016  
  22837686.691  
  23478149.664   123378514.472    23478154.387    96139118.4664                 
                
  20725771.266   108914681.400    20725775.391    84868600.1534                 
                
 21  8 15  0 34 40.0000000  0 15G 6G12G17G15R 5R24G14R14R23G24R13R17
                                R15G 2G19
  22292100.883   117145779.603    22292109.961    91282462.8374   22292110.449  
                
  21941225.195   115301926.592    21941230.941    89845686.6594   21941231.168  
                
  22891008.656   120293073.673    22891014.453    93734894.0724   22891014.434  
                
  24480679.266   128646850.423    24480685.992   100244331.4234   24480685.910  
                
  22919510.734   122517922.124                    95291709.557    22919514.852  
  22919510.238  
  19803474.516   105898079.822                    82365175.899    19803478.762  
  19803473.543  
  24514521.016   128824690.473    24514527.301   100382920.6064   24514527.379  
                
  19625113.047   104612912.160                    81365590.903    19625116.891  
  19625112.773  
  19966717.383   106808486.723                                                  
  19966715.715  
  20346873.492   106923561.948    20346881.926    83317091.7224   20346882.043  
                
  20742339.125   110762975.062                    86148983.817    20742341.781  
  20742337.277  
  23014450.914   123154986.534                    95787196.620    23014454.113  
  23014448.797  
  22831284.242   122003463.567                    94891577.214    22831288.383  
  22831284.055  
  23472235.898   123347437.719    23472240.645    96114902.8404                 
                
  20728898.117   108931113.109    20728902.199    84881404.0784                 
                
 21  8 15  0 34 50.0000000  0 15G 6G12G17G15R 5R24G14R14R23G24R13R17
                                R15G 2G19
  22287750.266   117122916.954    22287759.301    91264647.7804   22287759.805  
                
  21936670.461   115277991.344    21936676.164    89827035.8164   21936676.418  
                
  22896477.711   120321813.773    22896483.531    93757288.9564   22896483.500  
                
  24486905.930   128679571.902    24486912.633   100269828.6864   24486912.562  
                
  22921931.445   122530862.176                    95301774.045    22921935.566  
  22921930.938  
  19799456.109   105876591.568                    82348462.826    19799460.344  
  19799455.133  
  24520145.719   128854248.510    24520152.016   100405952.8614   24520152.117  
                
  19622636.445   104599710.438                    81355322.911    19622640.289  
  19622636.164  
  19969343.602   106822535.149                                                  
  19969341.945  
  20346353.969   106920831.828    20346362.398    83314964.3584   20346362.520  
                
  20746424.398   110784790.150                    86165951.125    20746427.066  
  20746422.566  
  23005962.812   123109565.134                    95751868.876    23005966.039  
  23005960.738  
  22824881.977   121969251.813                    94864968.080    22824886.098  
  22824881.777  
  23466326.188   123316381.873    23466330.891    96090703.4784                 
                
  20732035.328   108947599.213    20732039.359    84894250.4014                 
                
 21  8 15  0 35  0.0000000  0 15G 6G12G17G15R 5R24G14R14R23G24R13R17
                                R15G 2G19
  22283408.898   117100103.014    22283417.855    91246870.6824   22283418.410  
                
  21932119.984   115254078.474    21932125.648    89808402.4034   21932125.930  
                
  22901950.656   120350574.335    22901956.473    93779699.7714   22901956.461  
                
  24493133.344   128712297.050    24493139.965   100295328.8114   24493139.914  
                
  22924366.500   122543878.976                    95311898.223    22924370.609  
  22924366.023  
  19795452.711   105855183.584                    82331812.169    19795456.922  
  19795451.754  
  24525771.539   128883812.371    24525777.840   100428989.6284   24525777.961  
                
  19620167.680   104586550.544                    81345087.433    19620171.508  
  19620167.402  
  19971985.992   106836670.166                                                  
  19971984.352  
  20345846.023   106918162.578    20345854.449    83312884.4224   20345854.566  
                
  20750517.547   110806647.387                    86182951.192    20750520.227  
  20750515.707  
  22997477.742   123064159.973                    95716553.748    22997480.977  
  22997475.723  
  22818480.047   121935041.891                    94838360.370    22818484.160  
  22818479.840  
  23460420.398   123285346.672    23460425.055    96066520.2094                 
                
  20735182.812   108964139.392    20735186.801    84907138.8494                 
                
 21  8 15  0 35 10.0000000  0 15G 6G12G17G15R 5R24G14R14R23G24R13R17
                                R15G 2G19
  22279076.844   117077337.964    22279085.730    91229131.6854   22279086.324  
                
  21927573.758   115230187.932    21927579.406    89789786.4064   21927579.688  
                
  22907427.492   120379355.310    22907433.312    93802126.5094   22907433.316  
                
  24499361.406   128745025.875    24499368.035   100320831.7854   24499367.992  
                
  22926815.961   122556972.738                    95322082.266    22926820.059  
  22926815.531  
  19791464.352   105833856.035                    82315224.073    19791468.555  
  19791463.414  
  24531398.492   128913382.118    24531404.812   100452031.0024   24531404.914  
                
  19617706.781   104573432.586                    81334884.586    19617710.609  
  19617706.520  
  19974644.594   106850891.886                                                  
  19974642.961  
  20345349.695   106915554.339    20345358.125    83310852.0314   20345358.230  
                
  20754618.555   110828546.594                    86199983.900    20754621.273  
  20754616.691  
  22988995.727   123018771.109                    95681251.292    22988998.969  
  22988993.770  
  22812078.531   121900834.129                    94811754.351    22812082.664  
  22812078.312  
  23454518.625   123254332.377    23454523.215    96042353.2214                 
                
  20738340.602   108980733.679    20738344.547    84920069.4634                 
                
 21  8 15  0 35 20.0000000  0 15G 6G12G17G15R 5R24G14R14R23G24R13R17
                                R15G 2G19
  22274754.156   117054622.064    22274763.004    91211430.9704   22274763.621  
                
  21923031.836   115206319.954    21923037.484    89771187.9854   21923037.777  
                
  22912908.219   120408156.764    22912914.051    93824569.2044   22912914.055  
                
  24505590.109   128777758.340    24505596.824   100346337.5924   24505596.777  
                
  22929279.805   122570143.294                    95332326.034    22929283.891  
  22929279.395  
  19787491.039   105812608.918                    82298698.540    19787495.238  
  19787490.137  
  24537026.555   128942957.860    24537032.938   100475077.0304   24537032.980  
                
  19615253.805   104560356.769                    81324714.504    19615257.617  
  19615253.543  
  19977319.383   106865200.162                                                  
  19977317.738  
  20344865.000   106913007.250    20344873.426    83308867.2834   20344873.543  
                
  20758727.469   110850487.984                    86217049.416    20758730.188  
  20758725.590  
  22980516.883   122973398.833                    95645961.745    22980520.059  
  22980514.891  
  22805677.398   121866628.413                    94785149.904    22805681.523  
  22805677.199  
  23448620.914   123223339.190    23448625.402    96018202.6794                 
                
  20741508.703   108997382.162    20741512.617    84933042.3114                 
                
 21  8 15  0 35 30.0000000  0 15G 6G12G17G15R 5R24G14R14R23G24R13R17
                                R15G 2G19
  22270440.797   117031955.254    22270449.637    91193768.5184   22270450.266  
                
  21918494.203   115182474.581    21918499.848    89752607.1804   21918500.133  
                
  22918392.812   120436978.555    22918398.660    93847027.7344   22918398.652  
                
  24511819.430   128810494.262    24511826.227   100371846.0974   24511826.227  
                
  22931757.977   122583390.536                    95342629.422    22931762.066  
  22931757.559  
  19783532.781   105791442.356                    82282235.679    19783536.969  
  19783531.902  
  24542655.727   128972539.443    24542662.156   100498127.6094   24542662.180  
                
  19612808.719   104547323.144                    81314577.243    19612812.531  
  19612808.441  
  19980010.344   106879594.923                                                  
  19980008.707  
  20344391.922   106910521.238    20344400.348    83306930.1294   20344400.461  
                
  20762844.273   110872471.357                    86234147.588    20762846.969  
  20762842.383  
  22972041.125   122928043.334                    95610685.245    22972044.320  
  22972039.156  
  22799276.617   121832424.770                    94758547.139    22799280.793  
  22799276.398  
  23442727.227   123192367.061    23442731.617    95994068.5574                 
                
  20744687.078   109014084.631    20744690.957    84946057.2214                 
                
 21  8 15  0 35 40.0000000  0 15G 6G12G17G15R 5R24G14R14R23G24R13R17
                                R15G 2G19
  22266136.797   117009337.640    22266145.660    91176144.4034   22266146.281  
                
  21913960.883   115158651.754    21913966.543    89734043.9404   21913966.809  
                
  22923881.250   120465820.542    22923887.109    93869502.0024   22923887.090  
                
  24518049.539   128843233.471    24518056.254   100397357.1794   24518056.285  
                
  22934250.469   122596714.248                    95352992.309    22934254.582  
  22934250.062  
  19779589.625   105770356.506                    82265835.562    19779593.812  
  19779588.762  
  24548286.023   129002126.848    24548292.461   100521182.7114   24548292.492  
                
  19610371.555   104534331.673                    81304472.761    19610375.371  
  19610371.273  
  19982717.414   106894075.899                                                  
  19982715.777  
  20343930.469   106908096.268    20343938.895    83305040.5454   20343939.012  
                
  20766968.906   110894496.658                    86251278.369    20766971.586  
  20766967.012  
  22963568.633   122882704.564                    95575421.746    22963571.703  
  22963566.570  
  22792876.250   121798223.365                    94731946.037    22792880.430  
  22792876.074  
  23436837.539   123161416.167    23436841.902    95969950.9694                 
                
  20747875.703   109030840.980    20747879.555    84959114.1194                 
                
 21  8 15  0 35 50.0000000  0 15G 6G12G17G15R 5R24G14R14R23G24R13R17
                                R15G 2G19
  22261842.133   116986769.139    22261851.074    91158558.5624   22261851.672  
                
  21909431.805   115134851.308    21909437.488    89715498.1304   21909437.719  
                
  22929373.477   120494682.447    22929379.344    93891991.7954   22929379.324  
                
  24524280.234   128875975.728    24524286.867   100422870.6304   24524286.945  
                
  22936757.219   122610114.313                    95363414.581    22936761.344  
  22936756.816  
  19775661.492   105749351.042                    82249497.988    19775665.699  
  19775660.637  
  24553917.383   129031719.861    24553923.852   100544242.1944   24553923.855  
                
  19607942.266   104521382.212                    81294400.952    19607946.078  
  19607941.992  
  19985440.570   106908642.933                                                  
  19985438.922  
  20343480.609   106905732.215    20343489.035    83303198.4214   20343489.141  
                
  20771101.336   110916563.568                    86268441.521    20771104.012  
  20771099.453  
  22955099.195   122837382.532                    95540171.283    22955102.227  
  22955097.074  
  22786476.297   121764023.880                    94705346.433    22786480.398  
  22786476.133  
  23430951.766   123130486.369    23430956.184    95945849.8284                 
                
  20751074.547   109047651.022    20751078.383    84972212.8484                 
                
 21  8 15  0 36  0.0000000  0 15G 6G12G17G15R 5R24G14R14R23G24R13R17
                                R15G 2G19
  22257556.891   116964250.097    22257565.891    91141011.2694   22257566.469  
                
  21904907.039   115111073.534    21904912.734    89696970.0034   21904912.973  
                
  22934869.547   120523564.524    22934875.426    93914497.3094   22934875.402  
                
  24530511.508   128908721.157    24530518.141   100448386.5454   24530518.230  
                
  22939278.258   122623590.706                    95373896.232    22939282.379  
  22939277.863  
  19771748.477   105728426.374                    82233223.235    19771752.699  
  19771747.621  
  24559549.844   129061318.766    24559556.348   100567306.2574   24559556.320  
                
  19605520.922   104508475.070                    81284362.068    19605524.719  
  19605520.648  
  19988179.844   106923296.190                                                  
  19988178.176  
  20343042.391   106903429.351    20343050.816    83301403.9794   20343050.918  
