     2.11           OBSERVATION DATA    M (MIXED)           RINEX VERSION / TYPE
EFT-CORS.RU                             20210817 145434 UTC PGM / RUN BY / DATE 
MDNG                                                        MARKER NAME         
                                                            MARKER NUMBER       
MDNG                EFT-CORS.RU                             OBSERVER / AGENCY   
0                   TRIMBLE BD970       2.0                 REC # / TYPE / VERS 
0                   UNKNOWN EXT NONE                        ANT # / TYPE        
  3463911.2830  3030468.2400  4402179.3760                  APPROX POSITION XYZ 
        0.0000        0.0000        0.0000                  ANTENNA: DELTA H/E/N
     1     1                                                WAVELENGTH FACT L1/2
     6    C1    L1    P2    L2    C2    P1                  # / TYPES OF OBSERV 
    10.000                                                  INTERVAL            
  2021     8    15    22    30    0.0000000     GPS         TIME OF FIRST OBS   
  2021     8    15    23    30    0.0000000     GPS         TIME OF LAST OBS    
     0                                                      RCV CLOCK OFFS APPL 
                                                            END OF HEADER       
 21  8 15 22 30  0.0000000  0 16G17G15R14R 4G13G14R15G 1G24R24R 3G30
                                G19R23R13R 5
  20905419.930   109858748.664    20905426.266    85604251.2124   20905426.047  
                
  21461272.617   112779753.305    21461279.438    87880360.3294   21461279.113  
                
  19788816.133   105485558.806                    82044319.251    19788819.773  
  19788815.695  
  21037505.117   112654902.991                    87620479.101    21037508.199  
  21037504.445  
  20753791.414   109061953.675    20753797.090    84983352.3014                 
                
  21023279.859   110478118.192    21023286.293    86086886.3564   21023286.137  
                
  22663171.469   121105133.083                    94192857.634    22663176.031  
  22663171.516  
  23975744.859   125993398.763    23975754.383    98176708.4474   23975753.988  
                
  23106678.789   121426428.964    23106687.457    94618024.4684   23106687.711  
                
  21770846.094   116418509.931                    90547727.966    21770850.441  
  21770845.176  
  23453020.078   125545859.173                    97646793.402    23453024.961  
  23453019.148  
  22561510.711   118561582.484    22561519.969    92385707.9264   22561520.129  
                
  21617301.289   113599681.533    21617305.754    88519269.7214                 
                
  20881655.305   111702787.292                                                  
  20881653.375  
  21140443.609   112888768.963                    87802451.716    21140446.102  
  21140442.031  
  21698170.594   115989153.973                    90213770.995    21698174.078  
  21698170.297  
 21  8 15 22 30 10.0000000  0 16G17G15R14R 4G13G14R15G 1G24R24R 3G30
                                G19R23R13R 5
  20904392.180   109853347.799    20904398.539    85600042.7444   20904398.305  
                
  21461840.227   112782736.088    21461847.066    87882684.5734   21461846.738  
                
  19787438.320   105478214.303                    82038606.857    19787441.941  
  19787437.879  
  21042084.125   112679423.285                    87639550.441    21042087.191  
  21042083.441  
  20756695.758   109077216.069    20756701.418    84995245.0714                 
                
  21026759.414   110496403.347    21026765.832    86101134.5274   21026765.652  
                
  22657826.555   121076571.384                    94170642.963    22657831.090  
  22657826.582  
  23974108.164   125984797.803    23974117.652    98170006.3804   23974117.301  
                
  23100713.727   121395082.441    23100722.398    94593598.6234   23100722.656  
                
  21764094.008   116382403.237                    90519644.966    21764098.281  
  21764093.113  
  23461261.125   125589973.817                    97681104.772    23461265.961  
  23461260.141  
  22566503.023   118587817.231    22566512.312    92406150.5784   22566512.449  
                
  21611900.562   113571300.529    21611905.008    88497154.6674                 
                
  20879846.922   111693113.629                                                  
  20879845.000  
  21144638.055   112911166.925                    87819872.356    21144640.555  
  21144636.488  
  21695638.508   115975618.553                    90203243.422    21695642.023  
  21695638.207  
 21  8 15 22 30 20.0000000  0 16G17G15R14R 4G13G14R15G 1G24R24R 3G30
                                G19R23R13R 5
  20903376.383   109848009.802    20903382.766    85595883.2694   20903382.527  
                
  21462420.742   112785786.732    21462427.594    87885061.6924   21462427.254  
                
  19786066.648   105470902.546                    82032919.938    19786070.273  
  19786066.219  
  21046676.641   112704015.971                    87658678.082    21046679.688  
  21046675.973  
  20759611.883   109092540.414    20759617.535    85007186.1124                 
                
  21030244.727   110514718.726    21030251.113    86115406.2524   21030250.941  
                
  22652483.547   121048019.924                    94148436.289    22652488.047  
  22652483.598  
  23972483.344   125976259.330    23972492.867    98163353.0304   23972492.500  
                
  23094751.469   121363750.565    23094760.133    94569184.1784   23094760.391  
                
  21757350.367   116346341.818                    90491597.210    21757354.559  
  21757349.500  
  23469502.867   125634092.527                    97715419.307    23469507.719  
  23469501.914  
  22571500.719   118614080.274    22571510.059    92426615.2924   22571510.168  
                
  21606508.680   113542966.056    21606513.086    88475075.8594                 
                
  20878055.586   111683531.221                                                  
  20878053.691  
  21148836.633   112933587.095                    87837310.246    21148839.148  
  21148835.066  
  21693122.586   115962169.539                    90192783.080    21693126.094  
  21693122.270  
 21  8 15 22 30 30.0000000  0 16G17G15R14R 4G13G14R15G 1G24R24R 3G30
                                G19R23R13R 5
  20902372.562   109842734.741    20902378.969    85591772.8404   20902378.719  
                
  21463014.188   112788905.283    21463021.039    87887491.7274   21463020.688  
                
  19784701.156   105463623.687                    82027258.610    19784704.781  
  19784700.727  
  21051282.648   112728680.906                    87677861.913    21051285.676  
  21051281.988  
  20762539.820   109107926.767    20762545.477    85019175.4744                 
                
  21033735.797   110533064.404    21033742.137    86129701.5804   21033741.984  
                
  22647142.438   121019478.618                    94126237.493    22647146.910  
  22647142.535  
  23970870.445   125967783.564    23970880.012    98156748.5404   23970879.602  
                
  23088791.992   121332433.452    23088800.684    94544781.2494   23088800.953  
                
  21750615.281   116310326.104                    90463585.004    21750619.406  
  21750614.406  
  23477745.422   125678215.308                    97749737.037    23477750.215  
  23477744.465  
  22576503.805   118640371.692    22576513.195    92447102.1014   22576513.277  
                
  21601125.711   113514678.380    21601130.047    88453033.5114                 
                
  20876281.344   111674040.176                                                  
  20876279.457  
  21153039.312   112956029.018                    87854765.059    21153041.844  
  21153037.723  
  21690622.875   115948807.222                    90182390.171    21690626.410  
  21690622.520  
 21  8 15 22 30 40.0000000  0 16G17G15R14R 4G13G14R15G 1G24R24R 3G30
                                G19R23R13R 5
  20901380.781   109837522.926    20901387.195    85587711.6964   20901386.945  
                
  21463620.562   112792091.807    21463627.410    87889974.7264   21463627.074  
                
  19783341.852   105456377.826                    82021622.935    19783345.465  
  19783341.438  
  21055902.125   112753417.897                    87697101.798    21055905.125  
  21055901.492  
  20765479.500   109123374.901    20765485.160    85031212.9824                 
                
  21037232.617   110551440.323    21037238.902    86144020.4844   21037238.785  
                
  22641803.266   120990947.713                    94104046.784    22641807.707  
  22641803.383  
  23969269.500   125959370.573    23969279.086    98150192.9814   23969278.691  
                
  23082835.352   121301131.245    23082844.117    94520389.9344   23082844.352  
                
  21743888.766   116274356.338                    90435608.503    21743892.848  
  21743887.883  
  23485988.602   125722341.915                    97784057.720    23485993.438  
  23485987.699  
  22581512.281   118666691.485    22581521.699    92467611.0114   22581521.766  
                
  21595751.648   113486437.560    21595755.957    88431027.6914                 
                
  20874524.203   111664640.664                                                  
  20874522.324  
  21157246.070   112978492.884                    87872236.962    21157248.629  
  21157244.488  
  21688139.406   115935531.638                    90172064.697    21688142.949  
  21688139.027  
 21  8 15 22 30 50.0000000  0 16G17G15R14R 4G13G14R15G 1G24R24R 3G30
                                G19R23R13R 5
  20900400.977   109832374.072    20900407.379    85583699.6114   20900407.133  
                
  21464239.812   112795345.975    21464246.652    87892510.4414   21464246.320  
                
  19781988.680   105449164.660                    82016012.692    19781992.289  
  19781988.297  
  21060535.016   112778226.726                    87716397.557    21060538.000  
  21060534.375  
  20768430.930   109138884.770    20768436.590    85043298.5834                 
                
  21040735.133   110569846.180    21040741.375    86158362.7004   21040741.273  
                
  22636465.977   120962426.942                    94081863.971    22636470.371  
  22636466.117  
  23967680.453   125951020.110    23967690.098    98143686.1424   23967689.707  
                
  23076881.508   121269843.656    23076890.312    94496010.0344   23076890.527  
                
  21737170.805   116238432.381                    90407667.654    21737174.883  
  21737169.922  
  23494232.516   125766472.129                    97818381.175    23494237.348  
  23494231.621  
  22586526.109   118693039.329    22586535.523    92488141.7964   22586535.598  
                
  21590386.484   113458243.463    21590390.789    88409058.2704                 
                
  20872784.102   111655332.316                                                  
  20872782.211  
  21161456.891   113000978.401                    87889725.685    21161459.465  
  21161455.293  
  21685672.102   115922342.485                    90161806.483    21685675.676  
  21685671.695  
 21  8 15 22 31  0.0000000  0 16G17G15R14R 4G13G14R15G 1G24R24R 3G30
                                G19R23R13R 5
  20899433.156   109827288.202    20899439.551    85579736.6024   20899439.301  
                
  21464871.938   112798667.840    21464878.754    87895098.9014   21464878.418  
                
  19780641.641   105441984.158                    82010427.863    19780645.246  
  19780641.273  
  21065181.266   112803107.169                    87735749.010    21065184.234  
  21065180.621  
  20771394.102   109154456.317    20771399.758    85055432.2564                 
                
  21044243.336   110588281.938    21044249.555    86172728.2324   21044249.461  
                
  22631130.609   120933916.351                    94059689.047    22631134.969  
  22631130.773  
  23966103.328   125942732.334    23966113.043    98137228.1564   23966112.629  
                
  23070930.516   121238570.908    23070939.312    94471641.6664   23070939.527  
                
  21730461.469   116202554.502                    90379762.641    21730465.559  
  21730460.574  
  23502477.219   125810605.745                    97852707.286    23502481.961  
  23502476.191  
  22591545.273   118719415.259    22591554.672    92508694.4614   22591554.750  
                
  21585030.211   113430096.156    21585034.543    88387125.3144                 
                
  20871061.086   111646115.341                                                  
  20871059.219  
  21165671.797   113023485.737                    87907231.388    21165674.387  
  21165670.164  
  21683220.984   115909239.873                    90151615.559    21683224.562  
  21683220.609  
 21  8 15 22 31 10.0000000  0 16G17G15R14R 4G13G14R15G 1G24R24R 3G30
                                G19R23R13R 5
  20898477.344   109822265.388    20898483.719    85575822.7224   20898483.469  
                
  21465516.953   112802057.405    21465523.734    87897740.1124   21465523.414  
                
  19779300.750   105434836.493                    82004868.564    19779304.332  
  19779300.395  
  21069840.859   112828059.115                    87755156.079    21069843.840  
  21069840.215  
  20774368.992   109170089.441    20774374.641    85067613.9134                 
                
  21047757.234   110606747.578    21047763.438    86187117.0394   21047763.355  
                
  22625797.117   120905415.826                    94037521.937    22625801.445  
  22625797.285  
  23964538.219   125934507.337    23964547.852    98130819.0704   23964547.445  
                
  23064982.328   121207312.968    23064991.176    94447284.8464   23064991.340  
                
  21723760.750   116166722.706                    90351893.477    21723764.828  
  21723759.844  
  23510722.477   125854742.624                    97887035.928    23510727.152  
  23510721.410  
  22596569.789   118745819.272    22596579.176    92529269.0064   22596579.266  
                
  21579682.891   113401995.838    21579687.238    88365228.9684                 
                
  20869355.188   111636989.917                                                  
  20869353.344  
  21169890.820   113046015.002                    87924754.134    21169893.398  
  21169889.172  
  21680786.102   115896223.999                    90141492.109    21680789.695  
  21680785.738  
 21  8 15 22 31 20.0000000  0 16G17G15R14R 4G13G14R15G 1G24R24R 3G30
                                G19R23R13R 5
  20897533.523   109817305.628    20897539.867    85571957.9804   20897539.621  
                
  21466174.859   112805514.704    21466181.590    87900434.1124   21466181.301  
                
  19777966.023   105427721.612                    81999334.766    19777969.602  
  19777965.680  
  21074513.820   112853082.584                    87774618.750    21074516.809  
  21074513.168  
  20777355.625   109185784.310    20777361.273    85079843.6734                 
                
  21051276.828   110625243.141    21051283.027    86201529.1684   21051282.941  
                
  22620465.531   120876925.610                    94015362.918    22620469.859  
  22620465.684  
  23962985.070   125926345.259    23962994.602    98124458.9904   23962994.215  
                
  23059037.000   121176070.056    23059045.855    94422939.7244   23059046.000  
                
  21717068.711   116130937.268                    90324060.368    21717072.746  
  21717067.801  
  23518968.359   125898882.682                    97921367.071    23518972.930  
  23518967.211  
  22601599.656   118772251.427    22601609.047    92549865.4724   22601609.133  
                
  21574344.539   113373942.650    21574348.898    88343369.3544                 
                
  20867666.414   111627956.130                                                  
  20867664.574  
  21174113.883   113068565.907                    87942293.723    21174116.438  
  21174112.215  
  21678367.500   115883295.147                    90131436.334    21678371.121  
  21678367.129  
 21  8 15 22 31 30.0000000  0 16G17G15R14R 4G13G14R15G 1G24R24R 3G30
                                G19R23R13R 5
  20896601.719   109812408.997    20896608.027    85568142.4264   20896607.812  
                
  21466845.664   112809039.834    21466852.344    87903180.9684   21466852.090  
                
  19776637.469   105420639.677                    81993826.614    19776641.055  
  19776637.137  
  21079200.125   112878177.470                    87794136.997    21079203.117  
  21079199.500  
  20780354.000   109201540.837    20780359.652    85092121.4884                 
                
  21054802.125   110643768.619    21054808.324    86215964.6114   21054808.223  
                
  22615135.875   120848445.660                    93993211.845    22615140.188  
  22615136.035  
  23961443.891   125918246.174    23961453.379    98118148.0144   23961452.977  
                
  23053094.523   121144842.230    23053103.355    94398606.3634   23053103.508  
                
  21710385.383   116095198.476                    90296263.519    21710389.379  
  21710384.496  
  23527214.781   125943025.714                    97955700.522    23527219.289  
  23527213.555  
  22606634.891   118798711.736    22606644.312    92570483.9014   22606644.379  
                
  21569015.180   113345936.734    21569019.559    88321546.5724                 
                
  20865994.773   111619014.033                                                  
  20865992.910  
  21178341.055   113091138.741                    87959850.362    21178343.602  
  21178339.363  
  21675965.141   115870453.148                    90121448.114    21675968.781  
  21675964.766  
 21  8 15 22 31 40.0000000  0 16G17G15R14R 4G13G14R15G 1G24R24R 3G30
                                G19R23R13R 5
  20895681.875   109807575.258    20895688.152    85564375.8834   20895687.953  
                
  21467529.328   112812632.531    21467535.957    87905980.4684   21467535.723  
                
  19775315.047   105413590.474                    81988343.890    19775318.625  
  19775314.719  
  21083899.711   112903343.478                    87813710.551    21083902.691  
  21083899.125  
  20783364.055   109217358.806    20783369.711    85104447.1724                 
                
  21058333.062   110662323.829    21058339.262    86230423.2144   21058339.152  
                
  22609808.148   120819975.960                    93971068.734    22609812.473  
  22609808.312  
  23959914.664   125910210.016    23959924.129    98111886.0664   23959923.727  
                
  23047154.906   121113629.472    23047163.719    94374284.7324   23047163.895  
                
  21703710.742   116059506.275                    90268502.925    21703714.746  
  21703709.848  
  23535461.609   125987171.560                    97990036.174    23535466.125  
  23535460.410  
  22611675.445   118825200.050    22611684.875    92591124.1434   22611684.957  
                
  21563694.812   113317978.079    21563699.211    88299760.6064                 
                
  20864340.250   111610163.530                                                  
  20864338.344  
  21182572.289   113113733.338                    87977423.925    21182574.844  
  21182570.605  
  21673579.023   115857698.037                    90111527.448    21673582.680  
  21673578.652  
 21  8 15 22 31 50.0000000  0 16G17G15R14R 4G13G14R15G 1G24R24R 3G30
                                G19R23R13R 5
  20894774.047   109802804.602    20894780.281    85560658.4894   20894780.098  
                
  21468225.906   112816293.083    21468232.504    87908832.8534   21468232.281  
                
  19773998.828   105406574.249                    81982886.838    19774002.414  
  19773998.488  
  21088612.594   112928580.648                    87833339.472    21088615.566  
  21088612.027  
  20786385.836   109233238.381    20786391.516    85116820.8604                 
                
  21061869.695   110680908.910    21061875.891    86244905.0964   21061875.762  
                
  22604482.375   120791516.704                    93948933.790    22604486.730  
  22604482.535  
  23958397.461   125902237.067    23958406.898    98105673.3724   23958406.520  
                
  23041218.195   121082431.964    23041227.012    94349975.0074   23041227.211  
                
  21697044.922   116023861.256                    90240779.025    21697048.945  
  21697044.043  
  23543708.844   126031320.302                    98024374.065    23543713.484  
  23543707.766  
  22616721.375   118851716.567    22616730.809    92611786.3454   22616730.887  
                
  21558383.508   113290066.993    21558387.938    88278011.7164                 
                
  20862702.906   111601404.913                                                  
  20862700.984  
  21186807.641   113136349.737                    87995014.448    21186810.207  
  21186805.953  
  21671209.227   115845030.075                    90101674.610    21671212.848  
  21671208.867  
 21  8 15 22 32  0.0000000  0 16G17G15R14R 4G13G14R15G 1G24R24R 3G30
                                G19R23R13R 5
  20893878.266   109798097.261    20893884.457    85556990.4334   20893884.285  
                
  21468935.422   112820021.573    21468942.000    87911738.1634   21468941.785  
                
  19772688.820   105399591.156                    81977455.542    19772692.395  
  19772688.473  
  21093338.734   112953888.912                    87853023.664    21093341.730  
  21093338.160  
  20789419.352   109249179.589    20789425.062    85129242.5734                 
                
  21065412.016   110699523.880    21065418.188    86259410.2654   21065418.074  
                
  22599158.578   120763067.954                    93926806.984    22599162.973  
  22599158.750  
  23956892.273   125894327.473    23956901.707    98099510.0474   23956901.344  
                
  23035284.469   121051249.938    23035293.289    94325677.3374   23035293.477  
                
  21690387.938   115988263.377                    90213091.804    21690392.008  
  21690387.031  
  23551956.578   126075471.876                    98058714.131    23551961.418  
  23551955.625  
  22621772.672   118878261.284    22621782.070    92632470.5414   22621782.176  
                
  21553081.289   113262203.666    21553085.766    88256300.0444                 
                
  20861082.781   111592738.375                                                  
  20861080.836  
  21191047.094   113158988.214                    88012622.133    21191049.695  
  21191045.398  
  21668855.750   115832449.384                    90091889.599    21668859.367  
  21668855.402  
 21  8 15 22 32 10.0000000  0 15G17G15R14R 4G13G14R15G 1G24R24G30G19
                                R23R13R 5
  20892994.625   109793453.696    20893000.781    85553372.0814   20893000.617  
                
  21469657.914   112823818.285    21469664.480    87914696.6374   21469664.262  
                
  19771385.086   105392641.551                    81972050.282    19771388.668  
  19771384.738  
  21098078.219   112979268.576                    87872763.408    21098081.223  
  21098077.645  
  20792464.664   109265182.784    20792470.406    85141712.5954                 
                
  21068960.094   110718169.100    21068966.250    86273939.0084   21068966.141  
                
  22593836.828   120734630.092                    93904688.636    22593841.223  
  22593837.027  
  23955399.219   125886481.638    23955408.637    98093396.4164   23955408.293  
                
  23029353.766   121020083.838    23029362.586    94301392.0574   23029362.742  
                
  21683739.953   115952713.683                    90185442.079    21683744.094  
  21683739.000  
  22626829.406   118904834.634    22626838.734    92653177.0464   22626838.902  
                
  21547788.258   113234388.568    21547792.766    88234625.9394                 
                
  20859479.953   111584164.305                                                  
  20859478.020  
  21195290.766   113181649.157                    88030247.306    21195293.363  
  21195289.059  
  21666518.719   115819956.569                    90082172.971    21666522.324  
  21666518.371  
 21  8 15 22 32 20.0000000  0 15G17G15R14R 4G13G14R15G 1G24R24G30G19
                                R23R13R 5
  20892123.102   109788873.854    20892129.230    85549803.3844   20892129.090  
                
  21470393.391   112827683.227    21470399.969    87917708.2844   21470399.750  
                
  19770087.648   105385725.456                    81966671.116    19770091.246  
  19770087.297  
  21102831.016   113004719.578                    87892558.618    21102834.039  
  21102830.434  
  20795521.758   109281247.891    20795527.516    85154230.8554                 
                
  21072513.906   110736844.504    21072520.062    86288491.2704   21072519.957  
                
  22588517.148   120706203.181                    93882578.802    22588521.516  
  22588517.352  
  23953918.312   125878699.642    23953927.699    98087332.5244   23953927.414  
                
  23023426.094   120988933.678    23023434.965    94277119.2134   23023435.109  
                
  21677100.875   115917211.662                    90157829.421    21677105.039  
  21677099.863  
  22631891.586   118931436.538    22631900.902    92673905.7954   22631901.109  
                
  21542504.391   113206621.730    21542508.938    88212989.4574                 
                
  20857894.430   111575682.807                                                  
  20857892.500  
  21199538.648   113204332.609                    88047889.988    21199541.242  
  21199536.961  
  21664198.094   115807551.465                    90072524.558    21664201.707  
  21664197.742  
 21  8 15 22 32 30.0000000  0 15G17G15R14R 4G13G14R15G 1G24R24G30G19
                                R23R13R 5
  20891263.336   109784355.752    20891269.449    85546282.7934   20891269.320  
                
  21471141.539   112831614.766    21471148.129    87920771.8164   21471147.914  
                
  19768796.188   105378841.231                    81961316.714    19768799.801  
  19768795.824  
  21107596.789   113030240.013                    87912407.837    21107599.809  
  21107596.191  
  20798590.305   109297373.205    20798596.062    85166796.0374                 
                
  21076073.133   110755548.384    21076079.297    86303065.7194   21076079.199  
                
  22583199.203   120677785.563                    93860476.205    22583203.555  
  22583199.410  
  23952449.203   125870979.867    23952458.633    98081317.1344   23952458.379  
                
  23017501.133   120957797.869    23017510.055    94252857.5524   23017510.188  
                
  21670470.539   115881756.417                    90130253.100    21670474.711  
  21670469.543  
  22636958.867   118958065.354    22636968.234    92694655.4974   22636968.438  
                
  21537229.406   113178901.572    21537233.977    88191389.3444                 
                
  20856325.906   111567292.278                                                  
  20856323.984  
  21203790.398   113227036.752                    88065548.764    21203793.035  
  21203788.734  
  21661893.594   115795232.579                    90062943.210    21661897.211  
  21661893.242  
 21  8 15 22 32 40.0000000  0 15G17G15R14R 4G13G14R15G 1G24R24G30G19
                                R23R13R 5
  20890415.523   109779900.541    20890421.613    85542811.2004   20890421.492  
                
  21471902.477   112835613.586    21471909.082    87923887.7824   21471908.859  
                
  19767510.859   105371989.748                    81955987.793    19767514.480  
  19767510.504  
  21112375.656   113055830.644                    87932311.653    21112378.664  
  21112375.047  
  20801670.453   109313559.502    20801676.219    85179408.7324                 
                
  21079637.914   110774281.493    21079644.094    86317662.9464   21079644.000  
                
  22577883.125   120649378.060                    93838381.512    22577887.488  
  22577883.344  
  23950992.125   125863323.174    23951001.660    98075350.9124   23951001.375  
                
  23011579.086   120926677.301    23011588.031    94228607.7794   23011588.105  
                
  21663849.141   115846348.735                    90102713.799    21663853.293  
  21663848.164  
  22642031.422   118984721.825    22642040.805    92715426.7664   22642041.016  
                
  21531963.492   113151229.082    21531968.094    88169826.3764                 
                
  20854774.523   111558993.461                                                  
  20854772.605  
  21208046.141   113249762.243                    88083224.130    21208048.824  
  21208044.461  
  21659605.352   115783000.675                    90053429.509    21659608.969  
  21659605.000  
 21  8 15 22 32 50.0000000  0 15G17G15R14R 4G13G14R15G 1G24R24G30G19
                                R23R13R 5
  20889579.750   109775508.503    20889585.832    85539388.8364   20889585.711  
                
  21472676.273   112839679.881    21472682.883    87927056.3184   21472682.676  
                
  19766231.672   105365170.974                    81950684.305    19766235.285  
  19766231.332  
  21117167.625   113081491.352                    87952269.969    21117170.590  
  21117167.020  
  20804762.242   109329806.905    20804768.012    85192069.0454                 
                
  21083208.297   110793043.979    21083214.516    86332283.0574   21083214.402  
                
  22572568.969   120620980.883                    93816294.818    22572573.316  
  22572569.180  
  23949547.141   125855729.887    23949556.727    98069434.0774   23949556.434  
                
  23005659.992   120895572.194    23005668.859    94204370.0434   23005668.961  
                
  21657236.656   115810988.783                    90075211.621    21657240.812  
  21657235.699  
  22647109.281   119011406.129    22647118.645    92736219.7384   22647118.871  
                
  21526706.719   113123604.577    21526711.316    88148300.7884                 
                
  20853240.375   111550786.764                                                  
  20853238.473  
  21212305.984   113272509.466                    88100916.410    21212308.672  
  21212304.297  
  21657333.461   115770856.092                    90043983.701    21657337.066  
  21657333.086  
 21  8 15 22 33  0.0000000  0 15G17G15R14R 4G13G14R15G 1G24R24G30G19
                                R23R13R 5
  20888756.008   109771179.714    20888762.094    85536015.7614   20888761.977  
                
  21473462.922   112843813.759    21473469.539    87930277.5184   21473469.328  
                
  19764958.688   105358385.203                    81945406.480    19764962.305  
  19764958.344  
  21121972.680   113107222.115                    87972282.793    21121975.625  
  21121972.102  
  20807865.641   109346115.391    20807871.410    85204776.9544                 
                
  21086784.266   110811835.848    21086790.535    86346926.0674   21086790.406  
                
  22567256.758   120592594.086                    93794216.184    22567261.098  
  22567256.941  
  23948114.242   125848200.082    23948123.867    98063566.6994   23948123.539  
                
  22999743.867   120864482.749    22999752.656    94180144.5104   22999752.793  
                
  21650633.164   115775676.953                    90047746.868    21650637.312  
  21650632.223  
  22652192.438   119038118.341    22652201.781    92757034.4484   22652202.031  
                
  21521459.102   113096028.229    21521463.688    88126812.7364                 
                
  20851723.445   111542672.250                                                  
  20851721.543  
  21216569.797   113295278.024                    88118625.268    21216572.508  
  21216568.117  
  21655077.938   115758799.059                    90034606.012    21655081.578  
  21655077.570  
 21  8 15 22 33 10.0000000  0 15G17G15R14R 4G13G14R15G 1G24R24G30G19
                                R23R13R 5
  20887944.258   109766913.966    20887950.344    85532691.8094   20887950.223  
                
  21474262.375   112848014.960    21474269.004    87933551.1774   21474268.805  
                
  19763691.875   105351632.417                    81940154.317    19763695.492  
  19763691.527  
  21126790.797   113133022.834                    87992350.005    21126793.707  
  21126790.223  
  20810980.648   109362484.860    20810986.398    85217532.3814                 
                
  21090365.805   110830656.962    21090372.129    86361591.8664   21090371.980  
                
  22561946.453   120564217.549                    93772145.575    22561950.844  
  22561946.598  
  23946693.461   125840733.752    23946703.074    98057748.7844   23946702.750  
                
  22993830.719   120833408.887    22993839.477    94155931.1124   22993839.617  
                
  21644038.641   115740413.149                    90020319.461    21644042.781  
  21644037.699  
  22657280.883   119064858.337    22657290.230    92777870.7824   22657290.500  
                
  21516220.633   113068499.919    21516225.195    88105362.1064                 
                
  20850223.750   111534649.877                                                  
  20850221.852  
  21220837.695   113318068.274                    88136351.008    21220840.391  
  21220836.039  
  21652838.758   115746829.431                    90025296.301    21652842.387  
  21652838.359  
 21  8 15 22 33 20.0000000  0 15G17G15R14R 4G13G14R15G 1G24R24G30G19
                                R23R13R 5
  20887144.469   109762711.056    20887150.559    85529416.8094   20887150.434  
                
  21475074.648   112852283.511    21475081.281    87936877.3104   21475081.070  
                
  19762431.188   105344912.252                    81934927.523    19762434.801  
  19762430.844  
  21131621.883   113158893.074                    88012471.315    21131624.793  
  21131621.312  
  20814107.242   109378915.183    20814112.984    85230335.2304                 
                
  21093952.883   110849507.185    21093959.238    86376280.3384   21093959.086  
                
  22556638.094   120535851.396                    93750082.994    22556642.516  
  22556638.246  
  23945284.719   125833330.821    23945294.352    98051980.2734   23945294.000  
                
  22987920.531   120802350.587    22987929.301    94131729.8444   22987929.418  
                
  21637453.219   115705197.872                    89992929.800    21637457.324  
  21637452.305  
  22662374.586   119091625.947    22662383.977    92798728.6504   22662384.223  
                
  21510991.336   113041019.772    21510995.875    88083949.0094                 
                
  20848741.273   111526719.621                                                  
  20848739.375  
  21225109.594   113340879.953                    88154093.427    21225112.262  
  21225107.926  
  21650615.938   115734947.225                    90016054.583    21650619.570  
  21650615.539  
 21  8 15 22 33 30.0000000  0 15G17G15R14R 4G13G14R15G 1G24R24G30G19
                                R23R13R 5
  20886356.719   109758571.426    20886362.820    85526191.1304   20886362.684  
                
  21475899.797   112856619.656    21475906.430    87940256.1214   21475906.215  
                
  19761176.750   105338225.336                    81929726.593    19761180.348  
  19761176.406  
  21136466.008   113184833.092                    88032646.879    21136468.938  
  21136465.430  
  20817245.461   109395406.594    20817251.207    85243185.6804                 
                
  21097545.547   110868386.710    21097551.918    86390991.6664   21097551.773  
                
  22551331.711   120507495.657                    93728028.530    22551336.145  
  22551331.887  
  23943888.148   125825991.658    23943897.762    98046261.4434   23943897.379  
                
  22982013.344   120771308.167    22982022.125    94107540.9674   22982022.230  
                
  21630876.891   115670031.122                    89965577.882    21630880.961  
  21630876.004  
  22667473.602   119118421.468    22667483.027    92819608.2704   22667483.273  
                
  21505771.258   113013588.092    21505775.789    88062573.6654                 
                
  20847276.078   111518881.783                                                  
  20847274.195  
  21229385.594   113363713.525                    88171852.872    21229388.258  
  21229383.926  
  21648409.531   115723152.710                    90006881.048    21648413.164  
  21648409.145  
 21  8 15 22 33 40.0000000  0 15G17G15R14R 4G13G14R15G 1G24R24G30G19
                                R23R13R 5
  20885580.984   109754494.908    20885587.094    85523014.6324   20885586.945  
                
  21476737.758   112861023.202    21476744.387    87943687.4594   21476744.168  
                
  19759928.469   105331571.338                    81924551.267    19759932.059  
  19759928.121  
  21141323.094   113210842.615                    88052876.509    21141326.039  
  21141322.496  
  20820395.250   109411958.856    20820401.016    85256083.5424                 
                
  21101143.750   110887295.395    21101150.137    86405725.7074   21101149.996  
                
  22546027.289   120479150.384                    93705982.211    22546031.719  
  22546027.445  
  23942503.680   125818716.188    23942513.230    98040592.2284   23942512.840  
                
  22976109.172   120740281.596    22976117.969    94083364.4314   22976118.074  
                
  21624309.664   115634913.208                    89938263.970    21624313.742  
  21624308.770  
  22672577.914   119145244.742    22672587.316    92840509.5114   22672587.562  
                
  21500560.398   112986204.901    21500564.934    88041236.1194                 
                
  20845828.133   111511136.303                                                  
  20845826.242  
  21233665.633   113386568.603                    88189629.037    21233668.246  
  21233663.973  
  21646219.539   115711445.888                    89997775.763    21646223.148  
  21646219.211  
 21  8 15 22 33 50.0000000  0 15G17G15R14R 4G13G14R15G 1G24R24G30G19
                                R23R13R 5
  20884817.250   109750481.459    20884823.363    85519887.2664   20884823.211  
                
  21477588.531   112865494.055    21477595.156    87947171.2414   21477594.938  
                
  19758686.359   105324950.249                    81919401.522    19758689.949  
  19758686.004  
  21146193.141   113236921.471                    88073160.038    21146196.102  
  21146192.535  
  20823556.609   109428571.897    20823562.387    85269028.7664                 
                
  21104747.469   110906233.104    21104753.875    86420482.3574   21104753.734  
                
  22540724.812   120450815.557                    93683944.027    22540729.234  
  22540724.941  
  23941131.352   125811504.379    23941140.785    98034972.6214   23941140.426  
                
  22970208.016   120709270.869    22970216.836    94059200.2284   22970216.926  
                
  21617751.531   115599844.061                    89910987.957    21617755.621  
  21617750.625  
  22677687.469   119172095.654    22677696.836    92861432.3124   22677697.086  
                
  21495358.766   112958870.198    21495363.293    88019936.3624                 
                
  20844397.453   111503483.190                                                  
  20844395.555  
  21237949.711   113409445.281                    88207422.004    21237952.301  
  21237948.070  
  21644045.914   115699826.600                    89988738.516    21644049.504  
  21644045.594  
 21  8 15 22 34  0.0000000  0 15G17G15R14R 4G13G14R15G 1G24R24G30G19
                                R23R13R 5
  20884065.516   109746531.059    20884071.625    85516809.0374   20884071.477  
                
  21478452.156   112870032.387    21478458.777    87950707.6014   21478458.566  
                
  19757450.477   105318362.243                    81914277.516    19757454.047  
  19757450.094  
  21151076.125   113263069.574                    88093497.453    21151079.086  
  21151075.504  
  20826729.539   109445245.713    20826735.340    85282021.3434                 
                
  21108356.734   110925199.893    21108363.172    86435261.6734   21108363.016  
                
  22535424.281   120422491.113                    93661913.900    22535428.672  
  22535424.414  
  23939771.172   125804356.419    23939780.539    98029402.7714   23939780.176  
                
  22964309.930   120678276.146    22964318.742    94035048.5054   22964318.824  
                
  21611202.602   115564824.031                    89883750.156    21611206.723  
  21611201.695  
  22682802.336   119198974.335    22682811.688    92882376.7394   22682811.938  
                
  21490166.406   112931584.210    21490170.918    87998674.5534                 
                
  20842984.094   111495922.666                                                  
  20842982.176  
  21242237.805   113432343.388                    88225231.619    21242240.359  
  21242236.168  
  21641888.734   115688295.222                    89979769.664    21641892.285  
  21641888.441  
 21  8 15 22 34 10.0000000  0 15G17G15R14R 4G13G14R15G 1G24R24G30G19
                                R23R13R 5
  20883325.812   109742643.891    20883331.922    85513780.0744   20883331.777  
                
  21479328.578   112874638.010    21479335.195    87954296.3934   21479335.000  
                
  19756220.781   105311807.281                    81909179.219    19756224.340  
  19756220.391  
  21155971.992   113289286.723                    88113888.557    21155974.965  
  21155971.355  
  20829914.000   109461980.144    20829919.836    85295061.1594                 
                
  21111971.516   110944195.654    21111977.973    86450063.5684   21111977.809  
                
  22530125.711   120394177.144                    93639891.925    22530130.098  
  22530125.855  
  23938423.086   125797272.250    23938432.445    98023882.6634   23938432.090  
                
  22958414.883   120647297.441    22958423.684    94010909.2654   22958423.758  
                
  21604662.898   115529853.291                    89856550.714    21604667.035  
  21604661.984  
  22687922.445   119225880.655    22687931.824    92903342.6904   22687932.074  
                
  21484983.328   112904346.965    21484987.848    87977450.7354                 
                
  20841588.023   111488454.664                                                  
  20841586.082  
  21246529.953   113455263.135                    88243058.089    21246532.516  
  21246528.293  
  21639747.984   115676851.604                    89970869.090    21639751.523  
  21639747.691  
 21  8 15 22 34 20.0000000  0 15G17G15R14R 4G13G14R15G 1G24R24G30G19
                                R23R13R 5
  20882598.156   109738820.043    20882604.270    85510800.4554   20882604.133  
                
  21480217.836   112879311.072    21480224.434    87957937.7314   21480224.250  
                
  19754997.281   105305285.350                    81904106.608    19755000.840  
  19754996.879  
  21160880.758   113315572.987                    88134333.418    21160883.719  
  21160880.121  
  20833110.039   109478775.439    20833115.910    85308148.3914                 
                
  21115591.820   110963220.472    21115598.289    86464888.0914   21115598.109  
                
  22524829.133   120365873.861                    93617878.259    22524833.508  
  22524829.258  
  23937087.141   125790252.084    23937096.531    98018412.4514   23937096.207  
                
  22952522.898   120616334.920    22952531.715    93986782.6374   22952531.762  
                
  21598132.438   115494932.008                    89829389.723    21598136.562  
  21598131.512  
  22693047.836   119252814.751    22693057.254    92924330.2814   22693057.492  
                
  21479809.562   112877158.687    21479814.102    87956265.0714                 
                
  20840209.266   111481079.303                                                  
  20840207.312  
  21250826.117   113478204.417                    88260901.300    21250828.699  
  21250824.469  
  21637623.672   115665495.981                    89962036.925    21637627.188  
  21637623.371  
 21  8 15 22 34 30.0000000  0 15G17G15R14R 4G13G14R15G 1G24R24G30G19
                                R23R13R 5
  20881882.523   109735059.342    20881888.645    85507870.0444   20881888.492  
                
  21481119.922   112884051.530    21481126.504    87961631.5994   21481126.336  
                
  19753779.992   105298796.500                    81899059.732    19753783.523  
  19753779.582  
  21165802.383   113341928.009                    88154831.768    21165805.340  
  21165801.734  
  20836317.617   109495631.360    20836323.508    85321282.8734                 
                
  21119217.633   110982274.225    21119224.094    86479735.1664   21119223.922  
                
  22519534.523   120337581.177                    93595872.848    22519538.910  
  22519534.680  
  23935763.383   125783295.939    23935772.789    98012992.0934   23935772.469  
                
  22946633.992   120585388.610    22946642.875    93962668.6524   22946642.902  
                
  21591611.258   115460060.328                    89802267.311    21591615.406  
  21591610.340  
  22698178.500   119279776.498    22698187.969    92945339.4244   22698188.191  
                
  21474645.125   112850019.417    21474649.711    87935117.5964                 
                
  20838847.867   111473796.720                                                  
  20838845.895  
  21255126.289   113501167.084                    88278761.137    21255128.891  
  21255124.617  
  21635515.844   115654228.390                    89953273.242    21635519.340  
  21635515.551  
 21  8 15 22 34 40.0000000  0 15G17G15R14R 4G13G14R15G 1G24R24G30G19
                                R23R13R 5
  20881178.891   109731361.745    20881185.016    85504988.8014   20881184.855  
                
  21482034.812   112888859.346    21482041.398    87965377.9364   21482041.219  
                
  19752568.898   105292340.719                    81894038.574    19752572.410  
  19752568.484  
  21170736.812   113368351.740                    88175383.556    21170739.781  
  21170736.172  
  20839536.719   109512547.859    20839542.629    85334464.5644                 
                
  21122848.938   111001356.885    21122855.371    86494604.7654   21122855.203  
                
  22514241.875   120309298.904                    93573875.531    22514246.266  
  22514242.023  
  23934451.836   125776403.888    23934461.289    98007621.6894   23934460.980  
                
  22940748.180   120554458.564    22940757.090    93938567.3354   22940757.105  
                
  21585099.398   115425238.594                    89775183.769    21585103.594  
  21585098.453  
  22703314.414   119306765.912    22703323.922    92966370.1234   22703324.129  
                
  21469490.008   112822929.208    21469494.637    87914008.3574                 
                
  20837503.789   111466606.851                                                  
  20837501.820  
  21259430.531   113524151.429                    88296637.835    21259433.129  
  21259428.828  
  21633424.492   115643048.864                    89944578.052    21633427.961  
  21633424.188  
 21  8 15 22 34 50.0000000  0 15G17G15R14R 4G13G14R15G 1G24R24G30G19
                                R23R13R 5
  20880487.266   109727727.193    20880493.395    85502156.6864   20880493.238  
                
  21482962.484   112893734.317    21482969.090    87969176.6074   21482968.891  
                
  19751364.000   105285917.940                    81889043.076    19751367.492  
  19751363.598  
  21175684.039   113394843.922                    88195988.567    21175687.047  
  21175683.395  
  20842767.312   109529524.723    20842773.234    85347693.2904                 
                
  21126485.711   111020468.232    21126492.105    86509496.7274   21126491.965  
                
  22508951.211   120281027.154                    93551886.382    22508955.590  
  22508951.375  
  23933152.500   125769575.830    23933162.016    98002301.1454   23933161.684  
                
  22934865.484   120523544.742    22934874.352    93914478.6434   22934874.352  
                
  21578596.828   115390466.535                    89748138.867    21578601.066  
  21578595.820  
  22708455.570   119333782.813    22708465.109    92987422.2444   22708465.293  
                
  21464344.227   112795888.005    21464348.871    87892937.3024                 
                
  20836177.023   111459509.551                                                  
  20836175.082  
  21263738.820   113547157.453                    88314531.412    21263741.453  
  21263737.109  
  21631349.570   115631957.218                    89935951.207    21631353.039  
  21631349.285  
 21  8 15 22 35  0.0000000  0 15G17G15R14R 4G13G14R15G 1G24R24G30G19
                                R23R13R 5
  20879807.688   109724155.941    20879813.816    85499373.8964   20879813.641  
                
  21483902.953   112898676.520    21483909.582    87973027.6704   21483909.355  
                
  19750165.344   105279528.400                    81884073.434    19750168.812  
  19750164.934  
  21180644.031   113421404.493                    88216646.766    21180647.070  
  21180643.379  
  20846009.414   109546562.088    20846015.348    85360969.1524                 
                
  21130127.961   111039608.343    21130134.297    86524411.0964   21130134.172  
                
  22503662.531   120252765.933                    93529905.417    22503666.887  
  22503662.730  
  23931865.367   125762811.928    23931874.957    97997030.5984   23931874.578  
                
  22928985.891   120492647.267    22928994.648    93890402.6894   22928994.672  
                
  21572103.672   115355744.693                    89721132.989    21572107.918  
  21572102.664  
  22713601.977   119360827.276    22713611.535    93008495.8494   22713611.695  
                
  21459207.820   112768896.042    21459212.473    87871904.6034                 
                
  20834867.617   111452505.133                                                  
  20834865.688  
  21268051.164   113570185.090                    88332441.791    21268053.820  
  21268049.422  
  21629291.156   115620953.755                    89927392.939    21629294.621  
  21629290.898  
 21  8 15 22 35 10.0000000  0 15G17G15R14R 4G13G14R15G 1G24R24G30G19
                                R23R13R 5
  20879140.094   109720647.745    20879146.215    85496640.2384   20879146.051  
                
  21484856.188   112903685.783    21484862.824    87976930.9894   21484862.602  
                
  19748972.852   105273171.711                    81879129.350    19748976.316  
  19748972.457  
  21185616.781   113448033.234                    88237358.019    21185619.805  
  21185616.129  
  20849262.977   109563659.683    20849268.922    85374291.9474                 
                
  21133775.641   111058777.024    21133781.914    86539347.7304   21133781.820  
                
  22498375.797   120224515.132                    93507932.579    22498380.129  
  22498375.992  
  23930590.469   125756112.133    23930600.039    97991809.9834   23930599.637  
                
  22923109.398   120461766.111    22923118.105    93866339.4454   22923118.145  
                
  21565619.906   115321072.988                    89694166.112    21565624.129  
  21565618.926  
  22718753.586   119387899.148    22718763.141    93029590.8034   22718763.285  
                
  21454080.781   112741953.286    21454085.461    87850910.2474                 
                
  20833575.555   111445593.503                                                  
  20833573.641  
  21272367.523   113593234.098                    88350368.798    21272370.184  
  21272365.777  
  21627249.195   115610038.316                    89918903.177    21627252.676  
  21627248.941  
 21  8 15 22 35 20.0000000  0 15G17G15R14R 4G13G14R15G 1G24R24G30G19
                                R23R13R 5
  20878484.539   109717202.777    20878490.645    85493955.8524   20878490.496  
                
  21485822.227   112908762.344    21485828.855    87980886.7494   21485828.633  
                
  19747786.578   105266848.212                    81874211.069    19747790.039  
  19747786.180  
  21190602.227   113474730.076                    88258122.220    21190605.254  
  21190601.570  
  20852528.039   109580817.686    20852533.988    85387661.8164                 
                
  21137428.789   111077974.419    21137435.008    86554306.7384   21137434.934  
                
  22493091.070   120196275.138                    93485968.122    22493095.402  
  22493091.270  
  23929327.797   125749476.660    23929337.391    97986639.4744   23929336.957  
                
  22917236.047   120430901.494    22917244.766    93842289.1124   22917244.797  
                
  21559145.562   115286451.709                    89667238.462    21559149.762  
  21559144.574  
  22723910.438   119414998.610    22723919.949    93050707.2554   22723920.117  
                
  21448963.148   112715060.048    21448967.855    87829954.4834                 
                
  20832300.867   111438774.813                                                  
  20832298.957  
  21276687.906   113616304.778                    88368312.640    21276690.570  
  21276686.137  
  21625223.773   115599211.253                    89910482.110    21625227.254  
  21625223.527  
 21  8 15 22 35 30.0000000  0 15G17G15R14R 4G13G14R15G 1G24R24G30G19
                                R23R13R 5
  20877840.992   109713820.926    20877847.090    85491320.6394   20877846.945  
                
  21486801.016   112913905.947    21486807.617    87984894.7534   21486807.395  
                
  19746606.477   105260557.671                    81869318.433    19746609.938  
  19746606.074  
  21195600.336   113501494.749                    88278939.175    21195603.355  
  21195599.680  
  20855804.547   109598035.865    20855810.496    85401078.5784                 
                
  21141087.359   111097200.297    21141093.539    86569287.9504   21141093.477  
                
  22487808.281   120168045.520                    93464011.770    22487812.633  
  22487808.441  
  23928077.312   125742905.402    23928086.941    97981519.0074   23928086.465  
                
  22911365.844   120400053.346    22911374.582    93818251.6014   22911374.598  
                
  21552680.648   115251880.876                    89640350.042    21552684.832  
  21552679.660  
  22729072.523   119442125.472    22729081.984    93071845.0594   22729082.156  
                
  21443854.930   112688216.251    21443859.656    87809037.2524                 
                
  20831043.531   111432048.966                                                  
  20831041.621  
  21281012.289   113639396.729                    88386273.043    21281014.953  
  21281010.469  
  21623214.836   115588472.295                    89902129.590    21623218.324  
  21623214.609  
 21  8 15 22 35 40.0000000  0 15G17G15R14R 4G13G14R15G 1G24R24G30G19
                                R23R13R 5
  20877209.523   109710502.521    20877215.617    85488734.8754   20877215.484  
                
  21487792.633   112919116.891    21487799.207    87988955.2324   21487799.004  
                
  19745432.672   105254300.622                    81864451.848    19745436.141  
  19745432.262  
  21200611.172   113528327.480                    88299809.064    21200614.176  
  21200610.527  
  20859092.562   109615314.451    20859098.516    85414542.4164                 
                
  21144751.406   111116454.941    21144757.570    86584291.5694   21144757.508  
                
  22482527.547   120139826.811                    93442063.907    22482531.910  
  22482527.680  
  23926839.070   125736398.663    23926848.734    97976448.8444   23926848.277  
                
  22905498.867   120369222.006    22905507.605    93794227.1834   22905507.613  
                
  21546225.273   115217361.098                    89613501.332    21546229.480  
  21546224.277  
  22734239.875   119469279.965    22734249.320    93093004.3994   22734249.480  
                
  21438756.188   112661422.247    21438760.934    87788158.8184                 
                
  20829803.617   111425416.250                                                  
  20829801.688  
  21285340.719   113662510.331                    88404250.265    21285343.406  
  21285338.875  
  21621222.453   115577821.841                    89893845.911    21621225.926  
  21621222.238  
 21  8 15 22 35 50.0000000  0 15G17G15R14R 4G13G14R15G 1G24R24G30G19
                                R23R13R 5
  20876590.062   109707247.250    20876596.148    85486198.3064   20876596.027  
                
  21488797.008   112924394.873    21488803.566    87993067.9354   21488803.379  
                
  19744265.070   105248076.631                    81859610.965    19744268.520  
  19744264.656  
  21205634.633   113555227.785                    88320731.529    21205637.629  
  21205634.020  
  20862392.016   109632653.184    20862397.973    85428053.1134                 
                
  21148420.867   111135738.013    21148427.012    86599317.3424   21148426.938  
                
  22477248.781   120111618.650                    93420124.234    22477253.137  
  22477248.875  
  23925613.086   125729956.297    23925622.809    97971428.8324   23925622.340  
                
  22899635.031   120338407.300    22899643.754    93770215.7244   22899643.750  
                
  21539779.414   115182892.211                    89586692.216    21539783.645  
  21539778.426  
  22739412.430   119496461.839    22739421.898    93114185.0674   22739422.043  
                
  21433666.906   112634677.915    21433671.684    87767319.0774                 
                
  20828581.086   111418876.543                                                  
  20828579.152  
  21289673.227   113685645.538                    88422244.316    21289675.891  
  21289671.398  
  21619246.602   115567259.751                    89885630.945    21619250.070  
  21619246.379  
 21  8 15 22 36  0.0000000  0 15G17G15R14R 4G13G14R15G 1G24R24G30G19
                                R23R13R 5
  20875982.617   109704055.127    20875988.695    85483710.9394   20875988.582  
                
  21489814.125   112929739.880    21489820.668    87997232.8724   21489820.496  
                
  19743103.672   105241885.788                    81854795.867    19743107.109  
  19743103.246  
