     2.11           OBSERVATION DATA    M (MIXED)           RINEX VERSION / TYPE
EFT-CORS.RU                             20210817 150644 UTC PGM / RUN BY / DATE 
MDNG                                                        MARKER NAME         
                                                            MARKER NUMBER       
MDNG                EFT-CORS.RU                             OBSERVER / AGENCY   
0                   TRIMBLE BD970       2.0                 REC # / TYPE / VERS 
0                   UNKNOWN EXT NONE                        ANT # / TYPE        
  3463911.2830  3030468.2400  4402179.3760                  APPROX POSITION XYZ 
        0.0000        0.0000        0.0000                  ANTENNA: DELTA H/E/N
     1     1                                                WAVELENGTH FACT L1/2
     6    C1    L1    P2    L2    C2    P1                  # / TYPES OF OBSERV 
    10.000                                                  INTERVAL            
  2021     8    14    15    30    0.0000000     GPS         TIME OF FIRST OBS   
  2021     8    14    16    30    0.0000000     GPS         TIME OF LAST OBS    
     0                                                      RCV CLOCK OFFS APPL 
                                                            END OF HEADER       
 21  8 14 15 30  0.0000000  0 18G 4R24R 7R22G26G 9R23G 1G16G22R 8R16
                                G 3R 6G 6R10R 9G31
  20492816.312   107690507.194    20492823.773    83914735.2184   20492823.625  
                
  23243836.891   124295261.158                    96674078.924    23243841.746  
  23243835.691  
  19714650.156   105534095.941                    82082084.752    19714654.176  
  19714648.988  
  23216215.445   123929691.992                    96389784.392    23216219.934  
  23216213.645  
  23034375.367   121046469.775    23034386.070    94321979.9204   23034385.922  
                
  22266087.266   117009108.514    22266095.668    91175977.3464   22266095.621  
                
  21751626.141   116356538.076                                                  
  21751624.238  
  23750091.477   124807570.762    23750103.246    97252690.6434   23750102.777  
                
  23976503.836   125997386.760    23976511.996    98179812.0634                 
                
  21808784.359   114605952.116    21808789.043    89303372.1764                 
                
  21096159.102   112968994.890                    87864800.664    21096161.672  
  21096158.445  
  21624862.438   115516155.352                    89845929.558    21624864.559  
  21624862.051  
  20573404.656   108113999.925    20573413.953    84244724.1024   20573414.145  
                
  22088484.461   117868387.627                                                  
  22088481.953  
  23269998.781   122284685.810    23270008.512    95286806.0764   23270008.746  
                
  22115828.820   117889817.651                                                  
  22115827.820  
  20182192.211   107771807.986                    83822521.806    20182195.086  
  20182191.562  
  23618613.078   124116673.775    23618620.305    96714341.7514   23618620.449  
                
 21  8 14 15 30 10.0000000  0 18G 4R24R 7R22G26G 9R23G 1G16G22R 8R16
                                G 3R 6G 6R10R 9G31
  20491788.883   107685107.990    20491796.344    83910528.0444   20491796.188  
                
  23239900.727   124274212.703                    96657707.896    23239905.586  
  23239899.559  
  19715150.805   105536775.989                    82084169.224    19715154.828  
  19715149.613  
  23223860.836   123970504.634                    96421527.518    23223865.477  
  23223859.219  
  23032328.719   121035714.666    23032339.477    94313599.3274   23032339.305  
                
  22261577.234   116985408.152    22261585.648    91157509.5374   22261585.598  
                
  21752980.578   116363783.293                                                  
  21752978.734  
  23757274.562   124845317.576    23757286.215    97282103.7284   23757285.742  
                
  23970760.320   125967204.570    23970768.508    98156293.4884                 
                
  21813183.984   114629072.252    21813188.699    89321387.8684                 
                
  21091692.023   112945073.931                    87846195.480    21091694.586  
  21091691.367  
  21629664.383   115541806.447                    89865880.404    21629666.496  
  21629664.012  
  20575850.352   108126852.139    20575859.559    84254738.8244   20575859.816  
                
  22093602.367   117895697.972                                                  
  22093599.848  
  23266280.320   122265145.173    23266289.973    95271579.5934   23266290.238  
                
  22107856.758   117847321.645                                                  
  22107855.676  
  20179632.570   107758139.693                    83811890.931    20179635.426  
  20179631.910  
  23625083.781   124150677.331    23625091.004    96740838.0174   23625091.145  
                
 21  8 14 15 30 20.0000000  0 18G 4R24R 7R22G26G 9R23G 1G16G22R 8R16
                                G 3R 6G 6R10R 9G31
  20490768.211   107679744.374    20490775.676    83906348.6064   20490775.523  
                
  23235978.523   124253238.908                    96641394.955    23235983.359  
  23235977.379  
  19715658.500   105539493.719                    82086283.012    19715662.516  
  19715657.309  
  23231509.648   124011334.628                    96453284.138    23231514.250  
  23231508.055  
  23030293.109   121025017.625    23030303.906    94305263.9804   23030303.715  
                
  22257071.531   116961730.533    22257079.973    91139059.4574   22257079.891  
                
  21754351.688   116371117.775                                                  
  21754349.836  
  23764459.312   124883073.217    23764470.852    97311523.7034   23764470.379  
                
  23965021.422   125937046.817    23965029.664    98132793.9754                 
                
  21817590.820   114652230.320    21817595.551    89339433.1034                 
                
  21087228.336   112921171.149                    87827604.424    21087230.898  
  21087227.672  
  21634479.867   115567529.847                    89885887.486    21634481.996  
  21634479.500  
  20578305.516   108139754.093    20578314.645    84264792.2984   20578314.957  
                
  22098724.484   117923030.345                                                  
  22098721.965  
  23262572.469   122245660.336    23262582.043    95256396.6044   23262582.355  
                
  22099890.266   117804855.420                                                  
  22099889.176  
  20177089.008   107744557.243                    83801326.806    20177091.852  
  20177088.336  
  23631559.305   124184706.320    23631566.535    96767354.0954   23631566.656  
                
 21  8 14 15 30 30.0000000  0 18G 4R24R 7R22G26G 9R23G 1G16G22R 8R16
                                G 3R 6G 6R10R 9G31
  20489754.344   107674416.444    20489761.820    83902196.9744   20489761.660  
                
  23232070.258   124232339.570                    96625139.924    23232075.055  
  23232069.117  
  19716173.250   105542249.234                    82088426.191    19716177.266  
  19716172.062  
  23239161.852   124052182.044                    96485054.344    23239166.340  
  23239160.234  
  23028268.586   121014378.828    23028279.375    94296974.0254   23028279.203  
                
  22252570.180   116938075.781    22252578.645    91120627.1824   22252578.555  
                
  21755739.461   116378541.360                                                  
  21755737.629  
  23771645.727   124920837.715    23771657.168    97340950.5734   23771656.727  
                
  23959287.273   125906913.747    23959295.539    98109313.6784                 
                
  21822004.891   114675426.360    21822009.625    89357507.9394                 
                
  21082768.055   112897286.598                    87809027.562    21082770.637  
  21082767.383  
  21639308.844   115593325.290                    89905950.602    21639310.969  
  21639308.469  
  20580770.164   108152705.880    20580779.242    84274884.6004   20580779.582  
                
  22103850.719   117950384.984                                                  
  22103848.219  
  23258875.281   122226231.463    23258884.820    95241257.2274   23258885.137  
                
  22091929.523   117762419.580                                                  
  22091928.375  
  20174561.547   107731060.767                    83790829.564    20174564.371  
  20174560.871  
  23638039.656   124218760.744    23638046.863    96793890.0074   23638046.984  
                
 21  8 14 15 30 40.0000000  0 18G 4R24R 7R22G26G 9R23G 1G16G22R 8R16
                                G 3R 6G 6R10R 9G31
  20488747.242   107669124.090    20488754.734    83898073.0724   20488754.566  
                
  23228176.000   124211515.160                    96608943.208    23228180.797  
  23228174.836  
  19716695.078   105545042.569                    82090598.783    19716699.098  
  19716693.891  
  23246817.422   124093046.426                    96516837.712    23246821.625  
  23246815.574  
  23026255.148   121003798.278    23026265.910    94288729.4624   23026265.777  
                
  22248073.164   116914443.831    22248081.672    91102212.6844   22248081.562  
                
  21757143.867   116386053.987                                                  
  21757142.035  
  23778833.805   124958610.874    23778845.129    97370384.1844   23778844.719  
                
  23953557.820   125876805.338    23953566.105    98085852.6184                 
                
  21826426.164   114698660.299    21826430.910    89375612.2954                 
                
  21078311.180   112873420.252                    87790464.865    21078313.789  
  21078310.527  
  21644151.258   115619192.548                    89926069.571    21644153.367  
  21644150.859  
  20583244.273   108165707.411    20583253.336    84285015.6504   20583253.668  
                
  22108981.109   117977761.744                                                  
  22108978.621  
  23255188.734   122206858.542    23255198.293    95226161.4524   23255198.602  
                
  22083974.289   117720013.794                                                  
  22083973.172  
  20172050.164   107717650.137                    83780399.066    20172052.977  
  20172049.484  
  23644524.805   124252840.360    23644531.988    96820445.5494   23644532.113  
                
 21  8 14 15 30 50.0000000  0 18G 4R24R 7R22G26G 9R23G 1G16G22R 8R16
                                G 3R 6G 6R10R 9G31
  20487746.859   107663867.057    20487754.367    83893976.6864   20487754.191  
                
  23224295.680   124190765.455                    96592804.549    23224300.520  
  23224294.512  
  19717223.883   105547873.271                    82092800.443    19717227.895  
  19717222.699  
  23254475.766   124133927.600                    96548634.130    23254480.137  
  23254474.023  
  23024252.766   120993275.759    23024263.469    94280530.1134   23024263.355  
                
  22243580.430   116890834.395    22243588.965    91083815.7414   22243588.844  
                
  21758564.844   116393655.294                                                  
  21758562.973  
  23786023.430   124996392.292    23786034.672    97399824.2334   23786034.297  
                
  23947833.047   125846721.576    23947841.352    98062410.7374                 
                
  21830854.609   114721931.906    21830859.371    89393746.0154                 
                
  21073857.641   112849571.770                    87771916.053    21073860.254  
  21073857.020  
  21649007.094   115645131.529                    89946244.345    21649009.215  
  21649006.711  
  20585727.805   108178758.419    20585736.875    84295185.2474   20585737.180  
                
  22114115.648   118005160.391                                                  
  22114113.129  
  23251512.797   122187541.396    23251522.391    95211109.1314   23251522.656  
                
  22076024.672   117677638.102                                                  
  22076023.594  
  20169554.844   107704325.248                    83770035.268    20169557.656  
  20169554.152  
  23651014.664   124286944.802    23651021.840    96847020.4234   23651021.953  
                
 21  8 14 15 31  0.0000000  0 18G 4R24R 7R22G26G 9R23G 1G16G22R 8R16
                                G 3R 6G 6R10R 9G31
  20486753.227   107658645.491    20486760.758    83889907.9194   20486760.566  
                
  23220429.328   124170090.507                    96576724.041    23220434.207  
  23220428.133  
  19717759.727   105550741.726                    82095031.455    19717763.738  
  19717758.551  
  23262137.320   124174825.323                    96580443.444    23262141.707  
  23262135.578  
  23022261.469   120982811.508    23022272.105    94272376.1564   23022272.023  
                
  22239092.023   116867247.699    22239100.547    91065436.5024   22239100.426  
                
  21760002.422   116401345.434                                                  
  21760000.535  
  23793214.633   125034182.022    23793225.812    97429270.7564   23793225.484  
                
  23942113.000   125816662.692    23942121.301    98038988.2514                 
                
  21835290.211   114745241.119    21835294.988    89411909.0344                 
                
  21069407.453   112825741.283                    87753381.221    21069410.039  
  21069406.863  
  21653876.242   115671141.748                    89966474.508    21653878.398  
  21653875.863  
  20588220.766   108191859.016    20588229.863    84305393.4984   20588230.125  
                
  22119254.180   118032580.902                                                  
  22119251.711  
  23247847.508   122168280.214    23247857.109    95196100.4414   23247857.371  
                
  22068080.859   117635293.169                                                  
  22068079.801  
  20167075.602   107691086.317                    83759738.330    20167078.418  
  20167074.914  
  23657509.297   124321074.224    23657516.430    96873614.7764   23657516.555  
                
 21  8 14 15 31 10.0000000  0 18G 4R24R 7R22G26G 9R23G 1G16G22R 8R16
                                G 3R 6G 6R10R 9G31
  20485766.320   107653459.292    20485773.879    83885866.7224   20485773.672  
                
  23216576.984   124149490.286                    96560701.634    23216581.844  
  23216575.801  
  19718302.578   105553647.633                    82097291.609    19718306.598  
  19718301.406  
  23269802.148   124215739.384                    96612265.459    23269806.371  
  23269800.199  
  23020281.250   120972405.475    23020291.832    94264267.5654   23020291.754  
                
  22234607.930   116843683.661    22234616.426    91047074.9164   22234616.324  
                
  21761456.602   116409124.239                                                  
  21761454.734  
  23800407.375   125071979.912    23800418.523    97458723.6314   23800418.199  
                
  23936397.719   125786628.770    23936405.969    98015585.2174                 
                
  21839732.938   114768587.802    21839737.711    89430101.2444                 
                
  21064960.648   112801928.917                    87734860.503    21064963.227  
  21064960.047  
  21658758.781   115697223.415                    89986760.226    21658760.945  
  21658758.352  
  20590723.148   108205009.159    20590732.262    84315640.3484   20590732.496  
                
  22124396.859   118060023.336                                                  
  22124394.406  
  23244192.875   122149075.035    23244202.465    95181135.3644   23244202.742  
                
  22060142.734   117592978.444                                                  
  22060141.680  
  20164612.438   107677933.195                    83749508.144    20164615.242  
  20164611.750  
  23664008.641   124355228.413    23664015.699    96900228.4264   23664015.855  
                
 21  8 14 15 31 20.0000000  0 19G 4R24R 7R22G26G 9R23G 7G 1G16G22R 8
                                R16G 3R 6G 6R10R 9G31
  20484786.211   107648308.754    20484793.797    83881853.3154   20484793.562  
                
  23212738.688   124128965.201                    96544737.708    23212743.543  
  23212737.578  
  19718852.516   105556591.466                    82099581.255    19718856.539  
  19718851.332  
  23277470.062   124256669.937                    96644100.316    23277474.082  
  23277467.969  
  23018312.195   120962058.038    23018322.742    94256204.6314   23018322.668  
                
  22230128.203   116820142.580    22230136.695    91028731.2274   22230136.598  
                
  21762927.406   116416991.992                                                  
  21762925.551  
  24733306.992   129974403.087    24733315.660   101278791.7914   24733315.453  
                
  23807601.672   125109786.131    23807612.820    97488182.9974   23807612.516  
                
  23930687.336   125756620.262    23930695.504    97992201.9774                 
                
  21844182.852   114791972.254    21844187.617    89448322.8874                 
                
  21060517.289   112778134.961                    87716354.101    21060519.863  
  21060516.676  
  21663654.695   115723376.549                    90007101.539    21663656.922  
  21663654.230  
  20593235.023   108218209.091    20593244.133    84325926.0034   20593244.355  
                
  22129543.781   118087488.114                                                  
  22129541.312  
  23240548.969   122129926.228    23240558.574    95166214.2174   23240558.840  
                
  22052210.297   117550694.992                                                  
  22052209.387  
  20162165.453   107664866.451                    83739345.128    20162168.266  
  20162164.781  
  23670512.727   124389407.522    23670519.750    96926861.5054   23670519.922  
                
 21  8 14 15 31 30.0000000  0 19G 4R24R 7R22G26G 9R23G 7G 1G16G22R 8
                                R16G 3R 6G 6R10R 9G31
  20483812.812   107643193.534    20483820.426    83877867.4274   20483820.176  
                
  23208914.453   124108515.235                    96528832.140    23208919.277  
  23208913.375  
  19719409.484   105559572.971                    82101900.209    19719413.512  
  19719408.277  
  23285140.586   124297616.588                    96675947.660    23285144.793  
  23285138.719  
  23016354.227   120951768.899    23016364.805    94248187.1324   23016364.695  
                
  22225652.781   116796624.154    22225661.277    91010405.1914   22225661.172  
                
  21764414.742   116424948.153                                                  
  21764412.953  
  24726784.273   129940125.703    24726792.797   101252082.1684   24726792.691  
                
  23814797.484   125147600.230    23814808.594    97517648.5134   23814808.301  
                
  23924981.727   125726636.885    23924989.812    97968838.3304                 
                
  21848639.883   114815394.148    21848644.652    89466573.7084                 
                
  21056077.289   112754359.046                    87697861.734    21056079.863  
  21056076.684  
  21668563.891   115749600.565                    90027498.001    21668566.160  
  21668563.438  
  20595756.297   108231458.481    20595765.379    84336250.2054   20595765.613  
                
  22134694.812   118114974.809                                                  
  22134692.359  
  23236915.742   122110833.489    23236925.402    95151336.7674   23236925.652  
                
  22044283.695   117508442.404                                                  
  22044282.855  
  20159734.586   107651885.799                    83729249.071    20159737.402  
  20159733.914  
  23677021.469   124423611.149    23677028.516    96953513.6734   23677028.684  
                
 21  8 14 15 31 40.0000000  0 19G 4R24R 7R22G26G 9R23G 7G 1G16G22R 8
                                R16G 3R 6G 6R10R 9G31
  20482846.188   107638113.850    20482853.824    83873909.2314   20482853.559  
                
  23205104.305   124088140.624                    96512985.259    23205109.145  
  23205103.266  
  19719973.531   105562592.369                    82104248.635    19719977.582  
  19719972.301  
  23292814.234   124338579.389                    96707807.595    23292818.578  
  23292812.441  
  23014407.430   120941538.385    23014418.055    94240215.3114   23014417.914  
                
  22221181.734   116773128.623    22221190.238    90992096.9934   22221190.129  
                
  21765918.648   116432992.980                                                  
  21765916.867  
  24720263.164   129905857.357    24720271.727   101225379.5904   24720271.582  
                
  23821994.773   125185422.343    23822005.895    97547120.2834   23822005.617  
                
  23919280.898   125696678.932    23919288.957    97945494.4994                 
                
  21853104.094   114838853.708    21853108.871    89484853.8844                 
                
  21051640.734   112730601.491                    87679383.641    21051643.297  
  21051640.148  
  21673486.398   115775895.675                    90047949.752    21673488.699  
  21673485.930  
  20598287.031   108244757.552    20598296.055    84346613.1184   20598296.332  
                
  22139849.977   118142483.500                                                  
  22139847.516  
  23233293.250   122091797.160    23233302.973    95136503.2794   23233303.168  
                
  22036363.016   117466220.861                                                  
  22036362.160  
  20157319.883   107638991.385                    83719220.112    20157322.699  
  20157319.219  
  23683534.875   124457839.354    23683541.973    96980184.9864   23683542.121  
                
 21  8 14 15 31 50.0000000  0 19G 4R24R 7R22G26G 9R23G 7G 1G16G22R 8
                                R16G 3R 6G 6R10R 9G31
  20481886.281   107633069.539    20481893.938    83869978.5944   20481893.656  
                
  23201308.203   124067841.167                    96497196.783    23201313.008  
  23201307.141  
  19720544.602   105565649.378                    82106626.306    19720548.664  
  19720543.371  
  23300490.852   124379557.903                    96739679.751    23300495.254  
  23300489.121  
  23012471.750   120931366.387    23012482.410    94232289.0864   23012482.238  
                
  22216715.008   116749655.844    22216723.508    90973806.5214   22216723.398  
                
  21767439.102   116441126.311                                                  
  21767437.316  
  24713743.703   129871598.063    24713752.406   101198684.0844   24713752.191  
                
  23829193.508   125223252.191    23829204.703    97576598.0684   23829204.418  
                
  23913584.938   125666746.456    23913592.934    97922170.5134                 
                
  21857575.430   114862350.704    21857580.219    89503163.2274                 
                
  21047207.617   112706862.348                    87660919.868    21047210.172  
  21047207.059  
  21678422.164   115802261.653                    90068456.626    21678424.496  
  21678421.691  
  20600827.180   108258106.137    20600836.129    84357014.6184   20600836.477  
                
  22145009.234   118170013.969                                                  
  22145006.734  
  23229681.453   122072817.118    23229691.211    95121713.6354   23229691.387  
                
  22028448.250   117424030.543                                                  
  22028447.348  
  20154921.344   107626183.347                    83709258.303    20154924.152  
  20154920.691  
  23690052.906   124492091.941    23690060.035    97006875.2894   23690060.195  
                
 21  8 14 15 32  0.0000000  0 19G 4R24R 7R22G26G 9R23G 7G 1G16G22R 8
                                R16G 3R 6G 6R10R 9G31
  20480933.156   107628060.803    20480940.820    83866075.6824   20480940.527  
                
  23197526.227   124047617.334                    96481467.127    23197531.012  
  23197525.145  
  19721122.781   105568744.394                    82109033.529    19721126.852  
  19721121.547  
  23308170.320   124420552.172                    96771564.139    23308174.832  
  23308168.777  
  23010547.273   120921253.184    23010557.922    94224408.6744   23010557.750  
                
  22212252.648   116726206.041    22212261.145    90955533.9554   22212261.047  
                
  21768976.133   116449348.327                                                  
  21768974.359  
  24707226.070   129837348.112    24707234.895   101171995.8654   24707234.605  
                
  23836393.711   125261089.915    23836405.016    97606081.9734   23836404.746  
                
  23907893.883   125636839.771    23907901.871    97898866.6274                 
                
  21862053.914   114885885.298    21862058.727    89521501.8584                 
                
  21042777.938   112683141.553                    87642470.368    21042780.484  
  21042777.395  
  21683371.219   115828698.659                    90089018.725    21683373.551  
  21683370.695  
  20603376.797   108271504.454    20603385.680    84367454.8604   20603386.090  
                
  22150172.609   118197566.582                                                  
  22150170.133  
  23226080.430   122053893.640    23226090.203    95106968.0794   23226090.359  
                
  22020539.352   117381871.835                                                  
  22020538.453  
  20152538.984   107613461.702                    83699363.695    20152541.805  
  20152538.332  
  23696575.602   124526368.988    23696582.738    97033584.6514   23696582.914  
                
 21  8 14 15 32 10.0000000  0 19G 4R24R 7R22G26G 9R23G 7G 1G16G22R 8
                                R16G 3R 6G 6R10R 9G31
  20479986.766   107623087.477    20479994.438    83862200.3644   20479994.125  
                
  23193758.359   124027468.910                    96465796.165    23193763.148  
  23193757.273  
  19721708.031   105571877.335                    82111470.258    19721712.113  
  19721706.793  
  23315853.117   124461561.883                    96803460.559    23315857.324  
  23315851.340  
  23008633.961   120911198.686    23008644.590    94216574.0044   23008644.434  
                
  22207794.641   116702779.086    22207803.152    90937279.1994   22207803.051  
                
  21770529.656   116457658.596                                                  
  21770527.875  
  24700710.250   129803107.426    24700719.121   101145314.8534   24700718.801  
                
  23843595.367   125298935.240    23843606.770    97635571.8004   23843606.496  
                
  23902207.766   125606958.948    23902215.746    97875582.8664                 
                
  21866539.531   114909457.323    21866544.375    89539869.6644                 
                
  21038351.711   112659439.295                    87624035.289    21038354.246  
  21038351.188  
  21688333.500   115855206.266                    90109635.745    21688335.867  
  21688332.945  
  20605935.844   108284952.354    20605944.676    84377933.7304   20605945.133  
                
  22155339.992   118225141.041                                                  
  22155337.551  
  23222490.164   122035026.708    23222499.938    95092266.5654   23222500.113  
                
  22012636.328   117339744.845                                                  
  22012635.516  
  20150172.781   107600826.354                    83689536.227    20150175.598  
  20150172.125  
  23703102.906   124560670.227    23703109.984    97060312.8914   23703110.195  
                
 21  8 14 15 32 20.0000000  0 19G 4R24R 7R22G26G 9R23G 7G 1G16G22R 8
                                R16G 3R 6G 6R10R 9G31
  20479047.094   107618149.487    20479054.758    83858352.5814   20479054.453  
                
  23190004.641   124007396.074                    96450183.959    23190009.426  
  23190003.582  
  19722300.328   105575047.981                    82113936.316    19722304.406  
  19722299.078  
  23323538.609   124502586.857                    96835368.816    23323542.688  
  23323536.797  
  23006731.805   120901202.872    23006742.430    94208785.0664   23006742.277  
                
  22203340.969   116679374.914    22203349.512    90919042.1974   22203349.395  
                
  21772099.672   116466057.191                                                  
  21772097.898  
  24694196.172   129768875.934    24694205.074   101118641.0054   24694204.746  
                
  23850798.484   125336787.957    23850809.906    97665067.4034   23850809.656  
                
  23896526.492   125577103.969    23896534.480    97852319.2594                 
                
  21871032.234   114933066.633    21871037.105    89558266.5204                 
                
  21033928.883   112635755.268                    87605614.372    21033931.406  
  21033928.367  
  21693308.906   115881784.028                    90130307.339    21693311.340  
  21693308.324  
  20608504.305   108298449.705    20608513.109    84388451.1374   20608513.578  
                
  22160511.547   118252737.406                                                  
  22160509.078  
  23218910.641   122016216.269    23218920.410    95077609.0774   23218920.582  
                
  22004739.281   117297649.205                                                  
  22004738.461  
  20147822.758   107588277.452                    83679775.964    20147825.566  
  20147822.070  
  23709634.812   124594995.516    23709641.793    97087059.8764   23709642.035  
                
 21  8 14 15 32 30.0000000  0 19G 4R24R 7R22G26G 9R23G 7G 1G16G22R 8
                                R16G 3R 6G 6R10R 9G31
  20478114.164   107613246.908    20478121.812    83854532.3894   20478121.512  
                
  23186265.078   123987398.851                    96434630.562    23186269.848  
  23186264.023  
  19722899.680   105578256.330                    82116431.705    19722903.773  
  19722898.426  
  23331226.977   124543626.982                    96867288.875    23331230.969  
  23331225.020  
  23004840.867   120891265.908    23004851.488    94201041.9874   23004851.344  
                
  22198891.656   116655993.636    22198900.215    90900823.0284   22198900.090  
                
  21773686.195   116474543.997                                                  
  21773684.445  
  24687683.945   129734653.882    24687692.855   101091974.5204   24687692.527  
                
  23858003.000   125374648.073    23858014.449    97694568.7704   23858014.227  
                
  23890850.211   125547275.132    23890858.207    97829076.0424                 
                
  21875532.055   114956713.303    21875536.938    89576692.4884                 
                
  21029509.547   112612089.881                    87587207.980    21029512.055  
  21029509.023  
  21698297.484   115908432.206                    90151033.692    21698299.941  
  21698296.910  
  20611082.203   108311996.625    20611091.023    84399007.1664   20611091.473  
                
  22165687.234   118280355.758                                                  
  22165684.789  
  23215341.898   121997462.486    23215351.660    95062995.7364   23215351.859  
                
  21996848.180   117255585.558                                                  
  21996847.441  
  20145488.969   107575815.176                    83670083.090    20145491.793  
  20145488.254  
  23716171.297   124629344.825    23716178.238    97113825.5744   23716178.488  
                
 21  8 14 15 32 40.0000000  0 19G 4R24R 7R22G26G 9R23G 7G 1G16G22R 8
                                R16G 3R 6G 6R10R 9G31
  20477188.000   107608379.859    20477195.629    83850739.8854   20477195.352  
                
  23182539.703   123967477.543                    96419136.186    23182544.430  
  23182538.668  
  19723506.172   105581502.938                    82118956.835    19723510.277  
  19723504.918  
  23338918.023   124584682.196                    96899220.689    23338922.090  
  23338916.082  
  23002961.148   120881387.972    23002971.758    94193344.9004   23002971.617  
                
  22194446.719   116632635.388    22194455.285    90882621.8034   22194455.148  
                
  21775289.242   116483119.169                                                  
  21775287.508  
  24681173.508   129700441.387    24681182.445   101065315.4734   24681182.133  
                
  23865208.930   125412515.604    23865220.414    97724075.9154   23865220.215  
                
  23885178.953   125517472.571    23885186.914    97805853.2864                 
                
  21880039.008   114980397.424    21880043.879    89595147.6454                 
                
  21025093.672   112588443.080                    87568816.019    21025096.184  
  21025093.164  
  21703299.250   115935150.712                    90171814.730    21703301.703  
  21703298.656  
  20613669.547   108325593.203    20613678.402    84409601.8994   20613678.824  
                
  22170867.094   118307996.257                                                  
  22170864.617  
  23211783.992   121978765.556    23211793.742    95048426.7044   23211793.957  
                
  21988963.180   117213554.065                                                  
  21988962.461  
  20143171.438   107563439.696                    83660457.730    20143174.266  
  20143170.734  
  23722712.367   124663718.188    23722719.270    97140610.0014   23722719.500  
                
 21  8 14 15 32 50.0000000  0 19G 4R24R 7R22G26G 9R23G 7G 1G16G22R 8
                                R16G 3R 6G 6R10R 9G31
  20476268.539   107603548.087    20476276.145    83846974.8704   20476275.875  
                
  23178828.477   123947632.068                    96403700.841    23178833.230  
  23178827.434  
  19724119.703   105584787.236                    82121511.291    19724123.816  
  19724118.453  
  23346612.000   124625752.051                    96931163.873    23346615.941  
  23346609.902  
  23001092.641   120871568.908    23001103.242    94185693.6904   23001103.090  
                
  22190006.133   116609299.967    22190014.680    90864438.3614   22190014.531  
                
  21776908.742   116491782.372                                                  
  21776907.020  
  24674664.914   129666238.262    24674673.770   101038663.7064   24674673.469  
                
  23872416.164   125450390.232    23872427.719    97753588.5804   23872427.539  
                
  23879512.648   125487696.002    23879520.547    97782650.7824                 
                
  21884553.031   115004118.707    21884557.902    89613631.7584                 
                
  21020681.234   112564814.682                    87550438.391    21020683.727  
  21020680.715  
  21708314.133   115961939.315                    90192650.322    21708316.598  
  21708313.551  
  20616266.305   108339239.189    20616275.195    84420235.1384   20616275.586  
                
  22176050.977   118335658.303                                                  
  22176048.488  
  23208236.867   121960125.311    23208246.609    95033901.8454   23208246.809  
                
  21981084.320   117171554.733                                                  
  21981083.531  
  20140870.102   107551150.728                    83650899.638    20140872.930  
  20140869.398  
  23729257.930   124698115.309    23729264.727    97167412.9604   23729265.000  
                
 21  8 14 15 33  0.0000000  0 19G 4R24R 7R22G26G 9R23G 7G 1G16G22R 8
                                R16G 3R 6G 6R10R 9G31
  20475355.820   107598751.671    20475363.414    83843237.4044   20475363.152  
                
  23175131.453   123927862.508                    96388324.493    23175136.254  
  23175130.309  
  19724740.344   105588109.520                    82124095.290    19724744.469  
  19724739.082  
  23354308.539   124666836.494                    96963118.435    23354312.566  
  23354306.477  
  22999235.352   120861808.812    22999245.938    94178088.4264   22999245.770  
                
  22185569.898   116585987.419    22185578.395    90846272.7444   22185578.242  
                
  21778544.695   116500533.588                                                  
  21778542.992  
  24668158.125   129632044.722    24668166.918   101012019.4144   24668166.625  
                
  23879624.781   125488271.867    23879636.371    97783106.7124   23879636.184  
                
  23873851.367   125457945.860    23873859.250    97759468.9064                 
                
  21889074.141   115027877.187    21889078.992    89632144.8564                 
                
  21016272.297   112541204.989                    87532075.286    21016274.766  
  21016271.770  
  21713342.117   115988797.827                    90213540.284    21713344.602  
  21713341.543  
  20618872.477   108352934.648    20618881.402    84430906.9314   20618881.762  
                
  22181238.930   118363342.115                                                  
  22181236.445  
  23204700.570   121941541.901    23204710.316    95019421.2654   23204710.488  
                
  21973211.445   117129587.730                                                  
  21973210.645  
  20138585.031   107538948.553                    83641409.077    20138587.859  
  20138584.328  
  23735808.016   124732536.126    23735814.746    97194234.3654   23735815.043  
                
 21  8 14 15 33 10.0000000  0 19G 4R24R 7R22G26G 9R23G 7G 1G16G22R 8
                                R16G 3R 6G 6R10R 9G31
  20474449.836   107593990.737    20474457.422    83839527.5854   20474457.164  
                
  23171448.680   123908169.114                    96373007.443    23171453.500  
  23171447.480  
  19725368.070   105591469.818                    82126708.847    19725372.207  
  19725366.809  
  23362008.117   124707935.534                    96995084.322    23362011.895  
  23362005.855  
  22997389.328   120852107.953    22997399.867    94170529.3074   22997399.695  
                
  22181138.055   116562697.958    22181146.527    90828125.1164   22181146.395  
                
  21780197.117   116509372.900                                                  
  21780195.418  
  24661653.117   129597860.940    24661661.945   100985382.7394   24661661.652  
                
  23886834.750   125526160.589    23886846.371    97812630.3824   23886846.160  
                
  23868195.148   125428222.368    23868203.055    97736307.7484                 
                
  21893602.336   115051673.004    21893607.156    89650687.0494                 
                
  21011866.844   112517614.017                    87513726.769    21011869.297  
  21011866.305  
  21718383.180   116015726.247                    90234484.602    21718385.637  
  21718382.621  
  20621488.078   108366679.741    20621497.016    84441617.3954   20621497.367  
                
  22186431.031   118391048.172                                                  
  22186428.559  
  23201175.117   121923015.529    23201184.883    95004985.1424   23201185.059  
                
  21965344.586   117087653.316                                                  
  21965343.812  
  20136316.211   107526833.243                    83631986.065    20136319.031  
  20136315.500  
  23742362.578   124766980.611    23742369.312    97221074.2144   23742369.602  
                
 21  8 14 15 33 20.0000000  0 19G 4R24R 7R22G26G 9R23G 7G 1G16G22R 8
                                R16G 3R 6G 6R10R 9G31
  20473550.586   107589265.132    20473558.176    83835845.3024   20473557.906  
                
  23167780.148   123888551.882                    96357749.602    23167784.973  
  23167778.922  
  19726002.898   105594868.102                    82129351.937    19726007.043  
  19726001.652  
  23369710.070   124749048.987                    97027061.428    23369713.914  
  23369707.883  
  22995554.555   120842466.184    22995565.062    94163016.2694   22995564.902  
                
  22176710.578   116539431.433    22176719.074    90809995.3654   22176718.922  
                
  21781865.945   116518300.026                                                  
  21781864.234  
  24655149.969   129563686.820    24655158.840   100958753.5984   24655158.559  
                
  23894046.008   125564056.160    23894057.723    97842159.3804   23894057.480  
                
  23862544.031   125398525.631    23862551.988    97713167.4544                 
                
  21898137.609   115075505.969    21898142.422    89669258.1784                 
                
  21007464.875   112494041.700                    87495392.758    21007467.328  
  21007464.316  
  21723437.305   116042724.437                    90255483.179    21723439.785  
  21723436.734  
  20624113.102   108380474.300    20624122.039    84452366.3994   20624122.395  
                
  22191627.234   118418776.097                                                  
  22191624.773  
  23197660.508   121904546.136    23197670.297    94990593.4164   23197670.473  
                
  21957483.945   117045751.615                                                  
  21957483.160  
  20134063.656   107514804.774                    83622630.585    20134066.465  
  20134062.945  
  23748921.633   124801448.627    23748928.379    97247932.4014   23748928.660  
                
 21  8 14 15 33 30.0000000  0 19G 4R24R 7R22G26G 9R23G 7G 1G16G22R 8
                                R16G 3R 6G 6R10R 9G31
  20472658.078   107584574.932    20472665.668    83832190.6074   20472665.395  
                
  23164125.883   123869011.004                    96342551.145    23164130.734  
  23164124.656  
  19726644.859   105598304.528                    82132024.714    19726649.020  
  19726643.637  
  23377414.367   124790176.356                    97059049.332    23377418.508  
  23377412.477  
  22993731.055   120832883.680    22993741.539    94155549.4004   22993741.383  
                
  22172287.500   116516187.941    22172296.043    90791883.5614   22172295.887  
                
  21783551.211   116527315.081                                                  
  21783549.500  
  24648648.750   129529522.478    24648657.590   100932132.0664   24648657.324  
                
  23901258.617   125601958.531    23901270.359    97871693.6724   23901270.090  
                
  23856898.047   125368855.884    23856906.035    97690048.1684                 
                
  21902679.969   115099376.147    21902684.781    89687858.3044                 
                
  21003066.391   112470488.052                    87477073.233    21003068.820  
  21003065.832  
  21728504.438   116069792.160                    90276535.854    21728506.918  
  21728503.859  
  20626747.562   108394318.434    20626756.484    84463154.0204   20626756.863  
                
  22196827.547   118446525.881                                                  
  22196825.078  
  23194156.781   121886133.887    23194166.594    94976246.2154   23194166.762  
                
  21949629.492   117003882.679                                                  
  21949628.668  
  20131827.422   107502863.396                    83613342.857    20131830.234  
  20131826.699  
  23755485.172   124835940.099    23755491.910    97274808.8754   23755492.199  
                
 21  8 14 15 33 40.0000000  0 19G 4R24R 7R22G26G 9R23G 7G 1G16G22R 8
                                R16G 3R 6G 6R10R 9G31
  20471772.273   107579919.993    20471779.863    83828563.3804   20471779.582  
                
  23160485.852   123849546.239                    96327411.896    23160490.707  
  23160484.551  
  19727293.891   105601778.822                    82134726.945    19727298.051  
  19727292.680  
  23385121.695   124831317.663                    97091048.090    23385125.691  
  23385119.723  
  22991918.828   120823360.377    22991929.270    94148128.6494   22991929.145  
                
  22167868.766   116492967.372    22167877.352    90773789.6184   22167877.188  
                
  21785252.875   116536417.894                                                  
  21785251.148  
  24642149.344   129495367.848    24642158.152   100905518.1084   24642157.883  
                
  23908472.500   125639867.464    23908484.227    97901233.0904   23908483.945  
                
  23851257.180   125339212.996    23851265.168    97666949.8454                 
                
  21907229.359   115123283.345    21907234.141    89706487.2814                 
                
  20998671.430   112446953.238                    87458768.399    20998673.848  
  20998670.844  
  21733584.562   116096929.298                    90297642.531    21733587.031  
  21733583.949  
  20629391.422   108408211.943    20629400.332    84473980.1254   20629400.742  
                
  22202032.000   118474297.547                                                  
  22202029.512  
  23190663.898   121867778.668    23190673.711    94961943.4474   23190673.879  
                
  21941781.172   116962046.802                                                  
  21941780.379  
  20129607.430   107491008.787                    83604122.616    20129610.242  
  20129606.699  
  23762053.086   124870454.742    23762059.824    97301703.3964   23762060.117  
                
 21  8 14 15 33 50.0000000  0 19G 4R24R 7R22G26G 9R23G 7G 1G16G22R 8
                                R16G 3R 6G 6R10R 9G31
  20470893.188   107575300.430    20470900.770    83824963.7254   20470900.488  
                
  23156860.109   123830157.963                    96312332.128    23156864.984  
  23156858.793  
  19727950.031   105605291.190                    82137458.787    19727954.207  
  19727948.824  
  23392831.594   124872472.750                    97123057.573    23392835.496  
  23392829.543  
  22990117.898   120813896.455    22990128.305    94140754.1754   22990128.199  
                
  22163454.414   116469769.865    22163463.051    90755713.6534   22163462.871  
                
  21786970.969   116545608.448                                                  
  21786969.273  
  24635651.828   129461223.119    24635660.586   100878911.8574   24635660.316  
                
  23915687.578   125677782.980    23915699.320    97930777.6394   23915699.055  
                
  23845621.469   125309597.229    23845629.457    97643872.6274                 
                
  21911785.812   115147227.658    21911790.574    89725145.1824                 
                
  20994279.969   112423437.212                    87440478.168    20994282.383  
  20994279.371  
  21738677.695   116124135.878                    90318803.212    21738680.129  
  21738677.066  
  20632044.688   108422154.961    20632053.605    84484844.7984   20632054.016  
                
  22207240.531   118502090.826                                                  
  22207237.984  
  23187181.906   121849480.716    23187191.699    94947685.3144   23187191.867  
                
  21933939.016   116920244.133                                                  
  21933938.266  
  20127403.758   107479241.334                    83594970.148    20127406.566  
  20127403.027  
  23768625.422   124904992.702    23768632.164    97328616.0744   23768632.453  
                
 21  8 14 15 34  0.0000000  0 19G 4R24R 7R22G26G 9R23G 7G 1G16G22R 8
                                R16G 3R 6G 6R10R 9G31
  20470020.844   107570716.209    20470028.410    83821391.6064   20470028.137  
                
  23153248.711   123810846.378                    96297311.990    23153253.613  
  23153247.383  
  19728613.297   105608841.682                    82140220.284    19728617.492  
  19728612.086  
  23400544.055   124913641.527                    97155077.700    23400547.863  
  23400541.871  
  22988328.281   120804491.930    22988338.680    94133425.9854   22988338.578  
                
  22159044.461   116446595.410    22159053.133    90737655.6434   22159052.945  
                
  21788705.438   116554886.638                                                  
  21788703.754  
  24629156.180   129427088.383    24629164.922   100852313.4024   24629164.672  
                
  23922903.836   125715704.981    23922915.648    97960327.2274   23922915.398  
                
  23839990.984   125280008.733    23839998.961    97620816.6934                 
                
  21916349.320   115171209.015    21916354.070    89743831.9404                 
                
  20989892.008   112399939.891                    87422202.478    20989894.426  
  20989891.414  
  21743783.734   116151411.435                    90340017.530    21743786.117  
  21743783.090  
  20634707.375   108436147.428    20634716.320    84495748.0084   20634716.719  
                
  22212453.117   118529906.117                                                  
  22212450.527  
  23183710.812   121831240.053    23183720.594    94933471.8124   23183720.773  
                
  21926103.109   116878474.723                                                  
  21926102.387  
  20125216.414   107467561.067                    83585885.507    20125219.211  
  20125215.688  
  23775202.180   124939553.812    23775208.887    97355546.8024   23775209.191  
                
 21  8 14 15 34 10.0000000  0 19G 4R24R 7R22G26G 9R23G 7G 1G16G22R 8
                                R16G 3R 6G 6R10R 9G31
  20469155.195   107566167.181    20469162.750    83817846.9094   20469162.477  
                
  23149651.656   123791611.254                    96282351.329    23149656.535  
  23149650.363  
  19729283.648   105612430.157                    82143011.314    19729287.844  
  19729282.449  
  23408258.805   124954823.603                    97187108.143    23408262.766  
  23408256.691  
  22986549.953   120795146.736    22986560.367    94126144.0214   22986560.234  
                
  22154638.875   116423443.880    22154647.559    90719615.4924   22154647.367  
                
  21790456.250   116564252.362                                                  
  21790454.547  
  24622662.422   129392963.651    24622671.152   100825722.7294   24622670.922  
                
  23930121.305   125753633.186    23930133.184    97989881.6454   23930132.930  
                
  23834365.664   125250447.440    23834373.594    97597781.8974                 
                
  21920919.844   115195227.218    21920924.605    89762547.4154                 
                
  20985507.555   112376461.391                    87403941.422    20985509.977  
  20985506.965  
  21748902.695   116178755.965                    90361285.502    21748905.047  
  21748902.070  
  20637379.453   108450189.212    20637388.449    84506689.6524   20637388.824  
                
  22217669.750   118557742.980                                                  
  22217667.148  
  23180250.625   121813056.611    23180260.387    94919302.9004   23180260.590  
                
  21918273.492   116836738.669                                                  
  21918272.762  
  20123045.352   107455967.735                    83576868.485    20123048.148  
  20123044.633  
  23781783.281   124974137.801    23781789.973    97382495.3604   23781790.281  
                
 21  8 14 15 34 20.0000000  0 19G 4R24R 7R22G26G 9R23G 7G 1G16G22R 8
                                R16G 3R 6G 6R10R 9G31
  20468296.312   107561653.731    20468303.863    83814329.9454   20468303.586  
                
  23146068.984   123772453.001                    96267450.469    23146073.887  
  23146067.742  
  19729961.172   105616056.916                    82145832.129    19729965.363  
  19729959.980  
  23415975.961   124996019.313                    97219149.206    23415980.164  
  23415974.031  
  22984782.992   120785861.286    22984793.426    94118908.6244   22984793.285  
                
  22150237.711   116400315.654    22150246.406    90701593.5094   22150246.195  
                
  21792223.461   116573705.731                                                  
  21792221.770  
  24616170.547   129358849.144    24616179.340   100799140.0434   24616179.133  
                
  23937340.023   125791567.905    23937352.016    98019441.1204   23937351.730  
                
  23828745.625   125220913.832    23828753.465    97574768.7104                 
                
  21925497.445   115219282.633    21925502.203    89781291.8894                 
                
  20981126.688   112353002.101                    87385695.304    20981129.086  
  20981126.086  
  21754034.586   116206169.592                    90382607.206    21754036.891  
  21754033.984  
  20640060.977   108464280.680    20640070.031    84517670.0044   20640070.367  
                
  22222890.531   118585602.027                                                  
  22222887.938  
  23176801.398   121794930.827    23176811.145    94905178.9294   23176811.344  
                
  21910450.281   116795036.662                                                  
  21910449.531  
  20120890.680   107444461.902                    83567919.491    20120893.477  
  20120889.977  
  23788368.805   125008744.954    23788375.504    97409461.9634   23788375.812  
                
 21  8 14 15 34 30.0000000  0 19G 4R24R 7R22G26G 9R23G 7G 1G16G22R 8
                                R16G 3R 6G 6R10R 9G31
  20467444.148   107557175.593    20467451.691    83810840.4964   20467451.414  
                
  23142500.656   123753371.490                    96252609.295    23142505.531  
  23142499.516  
  19730645.797   105619721.757                    82148682.569    19730649.980  
  19730644.617  
  23423695.766   125037228.044                    97251200.424    23423700.016  
  23423693.777  
  22983027.352   120776635.387    22983037.828    94111719.6384   22983037.664  
                
  22145840.945   116377210.519    22145849.625    90683589.5154   22145849.422  
                
  21794007.039   116583246.682                                                  
  21794005.355  
  24609680.625   129324744.746    24609689.453   100772565.2324   24609689.266  
                
  23944559.930   125829508.721    23944572.012    98049005.3604   23944571.676  
                
  23823130.828   125191407.835    23823138.578    97551777.0184                 
                
  21930082.070   115243374.978    21930086.812    89800065.1344                 
                
  20976749.383   112329561.890                    87367464.044    20976751.773  
  20976748.762  
  21759179.344   116233651.971                    90403982.397    21759181.609  
  21759178.742  
  20642751.906   108478421.568    20642761.031    84528688.8674   20642761.312  
                
  22228115.430   118613482.787                                                  
  22228112.812  
  23173363.125   121776862.572    23173372.855    94891099.7594   23173373.047  
                
  21902633.445   116753368.387                                                  
  21902632.688  
  20118752.375   107433043.455                    83559038.483    20118755.180  
  20118751.695  
  23794958.688   125043374.900    23794965.371    97436446.3454   23794965.680  
                
 21  8 14 15 34 40.0000000  0 19G 4R24R 7R22G26G 9R23G 7G 1G16G22R 8
                                R16G 3R 6G 6R10R 9G31
  20466598.703   107552732.711    20466606.238    83807378.5094   20466605.969  
                
  23138946.680   123734366.729                    96237827.839    23138951.551  
  23138945.598  
  19731337.586   105623424.892                    82151562.780    19731341.758  
  19731336.418  
  23431417.734   125078449.757                    97283261.728    23431422.289  
  23431416.031  
  22981283.070   120767469.112    22981293.539    94104577.0904   22981293.352  
                
  22141448.570   116354128.467    22141457.227    90665603.5064   22141457.035  
                
  21795806.922   116592874.867                                                  
  21795805.230  
  24603192.625   129290650.498    24603201.520   100745998.3204   24603201.355  
                
  23951781.070   125867455.523    23951793.156    98078574.2734   23951792.789  
                
  23817521.312   125161929.585    23817529.008    97528806.9904                 
                
  21934673.719   115267504.176    21934678.457    89818867.1044                 
                
  20972375.656   112306140.766                    87349247.601    20972378.031  
  20972375.016  
  21764336.977   116261203.009                    90425410.985    21764339.180  
  21764336.375  
  20645452.242   108492611.847    20645461.445    84539746.2154   20645461.684  
                
  22233344.406   118641385.379                                                  
  22233341.797  
  23169935.789   121758851.796    23169945.473    94877065.3914   23169945.664  
                
  21894822.977   116711733.974                                                  
  21894822.195  
  20116630.406   107421712.274                    83550225.355    20116633.211  
  20116629.750  
  23801552.891   125078027.525    23801559.535    97463448.3934   23801559.852  
                
 21  8 14 15 34 50.0000000  0 19G 4R24R 7R22G26G 9R23G 7G 1G16G22R 8
                                R16G 3R 6G 6R10R 9G31
  20465759.945   107548325.018    20465767.473    83803943.9494   20465767.203  
                
  23135407.070   123715438.982                    96223106.261    23135411.961  
  23135405.957  
  19732036.461   105627166.023                    82154472.535    19732040.609  
  19732035.301  
  23439142.125   125119684.184                    97315332.883    23439146.848  
  23439140.582  
  22979550.125   120758362.450    22979560.543    94097480.9894   22979560.379  
                
  22137060.586   116331069.452    22137069.258    90647635.4384   22137069.047  
                
  21797623.117   116602590.259                                                  
  21797621.414  
  24596706.539   129256566.421    24596715.520   100719439.3284   24596715.371  
                
  23959003.344   125905408.186    23959015.379    98108147.7504   23959014.973  
                
  23811917.062   125132479.104    23811924.734    97505858.5814                 
                
  21939272.344   115291670.106    21939277.105    89837697.6854                 
                
  20968005.461   112282738.576                    87331045.917    20968007.844  
  20968004.797  
  21769507.367   116288822.323                    90446892.668    21769509.539  
  21769506.762  
  20648161.953   108506851.436    20648171.223    84550841.9804   20648171.422  
                
  22238577.391   118669309.531                                                  
  22238574.793  
  23166519.406   121740898.582    23166529.047    94863075.8754   23166529.258  
                
  21887018.891   116670133.698                                                  
  21887018.078  
  20114524.797   107410468.414                    83541480.127    20114527.586  
  20114524.168  
