     2.11           OBSERVATION DATA    M (MIXED)           RINEX VERSION / TYPE
EFT-CORS.RU                             20210817 144936 UTC PGM / RUN BY / DATE 
MDNG                                                        MARKER NAME         
                                                            MARKER NUMBER       
MDNG                EFT-CORS.RU                             OBSERVER / AGENCY   
0                   TRIMBLE BD970       2.0                 REC # / TYPE / VERS 
0                   UNKNOWN EXT NONE                        ANT # / TYPE        
  3463911.2830  3030468.2400  4402179.3760                  APPROX POSITION XYZ 
        0.0000        0.0000        0.0000                  ANTENNA: DELTA H/E/N
     1     1                                                WAVELENGTH FACT L1/2
     6    C1    L1    P2    L2    C2    P1                  # / TYPES OF OBSERV 
    10.000                                                  INTERVAL            
  2021     8    16    21    30    0.0000000     GPS         TIME OF FIRST OBS   
  2021     8    16    22    30    0.0000000     GPS         TIME OF LAST OBS    
     0                                                      RCV CLOCK OFFS APPL 
                                                            END OF HEADER       
 21  8 16 21 30  0.0000000  0 15G17G15G13G14G30G 5R13R 4G19R15G 7R24
                                R23R14R 5
  21886000.906   115011717.994    21886007.379    89619556.2554   21886007.387  
                
  21988812.398   115551989.496    21988818.766    90040545.1224   21988818.559  
                
  20476371.734   107604076.129    20476377.711    83847362.4904                 
                
  20247019.930   106398852.782    20247026.230    82908236.3184   20247026.387  
                
  21214741.742   111484272.847    21214750.055    86870921.2314   21214750.434  
                
  24286978.781   127628936.663    24286985.598    99451155.2354   24286985.891  
                
  23444917.344   125194557.962                    97373584.918    23444920.215  
  23444915.438  
  20988168.672   112390696.836                    87414976.431    20988171.895  
  20988167.918  
  23800757.375   125073819.668    23800762.180    97460142.0644                 
                
  20537731.211   109747423.388                    85359115.948    20537735.492  
  20537731.371  
  23476966.961   123372325.761    23476973.578    96134330.5464   23476973.402  
                
  22073835.633   118038720.245                    91807899.020    22073840.488  
  22073834.586  
  22007918.359   117727548.572                                                  
  22007916.508  
  19897272.820   106063699.738                    82493998.448    19897276.379  
  19897272.465  
  20325309.805   108650429.763                    84505893.746    20325313.680  
  20325309.500  
 21  8 16 21 30 10.0000000  0 15G17G15G13G14G30G 5R13R 4G19R15G 7R24
                                R23R14R 5
  21881385.828   114987465.613    21881392.297    89600658.3044   21881392.305  
                
  21985224.328   115533133.989    21985230.695    90025852.5214   21985230.480  
                
  20475123.586   107597517.066    20475129.578    83842251.5344                 
                
  20247990.805   106403954.695    20247997.098    82912211.8474   20247997.258  
                
  21217737.289   111500014.564    21217745.629    86883187.4974   21217746.008  
                
  24292134.836   127656031.996    24292141.746    99472268.4744   24292142.031  
                
  23450845.039   125226211.549                    97398204.349    23450847.871  
  23450843.117  
  20994657.477   112425444.046                    87442002.044    20994660.711  
  20994656.746  
  23793531.516   125035847.621    23793536.367    97430553.4684                 
                
  20534465.273   109729971.200                    85345542.039    20534469.551  
  20534465.422  
  23482010.711   123398830.913    23482017.305    96154983.9164   23482017.125  
                
  22068658.438   118011035.417                    91786366.367    22068663.258  
  22068657.410  
  22007814.914   117726995.293                                                  
  22007813.031  
  19899636.609   106076300.020                    82503798.668    19899640.176  
  19899636.258  
  20324650.453   108646905.125                    84503152.365    20324654.324  
  20324650.148  
 21  8 16 21 30 20.0000000  0 15G17G15G13G14G30G 5R13R 4G19R15G 7R24
                                R23R14R 5
  21876779.281   114963258.114    21876785.797    89581795.3314   21876785.793  
                
  21981647.109   115514335.592    21981653.488    90011204.4194   21981653.270  
                
  20473887.367   107591020.718    20473893.375    83837189.4404                 
                
  20248970.742   106409104.337    20248977.027    82916224.5674   20248977.191  
                
  21220739.125   111515789.388    21220747.500    86895479.5654   21220747.895  
                
  24297295.188   127683149.943    24297302.199    99493399.3264   24297302.465  
                
  23456772.828   125257865.831                    97422824.340    23456775.715  
  23456770.926  
  21001156.703   112460247.033                    87469071.016    21001159.898  
  21001155.969  
  23786307.602   124997885.750    23786312.422    97400972.8004                 
                
  20531205.258   109712550.746                    85331992.796    20531209.527  
  20531205.375  
  23487058.109   123425355.232    23487064.699    96175652.2054   23487064.496  
                
  22063492.375   117983410.130                    91764880.041    22063497.172  
  22063491.355  
  22007728.375   117726532.494                                                  
  22007726.465  
  19902006.289   106088931.763                    82513623.351    19902009.867  
  19902005.957  
  20324008.539   108643473.705                    84500483.478    20324012.398  
  20324008.242  
 21  8 16 21 30 30.0000000  0 15G17G15G13G14G30G 5R13R 4G19R15G 7R24
                                R23R14R 5
  21872181.320   114939095.709    21872187.926    89562967.4934   21872187.891  
                
  21978080.836   115495594.633    21978087.211    89996601.0734   21978086.984  
                
  20472663.164   107584587.474    20472669.188    83832176.5244                 
                
  20249959.820   106414301.948    20249966.090    82920274.6564   20249966.258  
                
  21223747.328   111531597.598    21223755.734    86907797.6414   21223756.129  
                
  24302459.891   127710290.656    24302467.000    99514547.9194   24302467.234  
                
  23462700.883   125289521.359                    97447445.282    23462703.793  
  23462698.992  
  21007666.430   112495106.112                    87496183.627    21007669.613  
  21007665.699  
  23779085.750   124959934.438    23779090.492    97371400.3554                 
                
  20527951.281   109695162.457                    85318468.592    20527955.562  
  20527951.379  
  23492109.203   123451899.033    23492115.840    96196335.6604   23492115.613  
                
  22058337.469   117955844.413                    91743440.039    22058342.215  
  22058336.473  
  22007658.844   117726160.531                                                  
  22007656.895  
  19904381.922   106101595.191                    82523472.677    19904385.508  
  19904381.602  
  20323384.125   108640135.849                    84497887.367    20323387.961  
  20323383.836  
 21  8 16 21 30 40.0000000  0 15G17G15G13G14G30G 5R13R 4G19R15G 7R24
                                R23R14R 5
  21867592.008   114914978.734    21867598.695    89544175.0554   21867598.629  
                
  21974525.469   115476911.085    21974531.832    89982042.4634   21974531.625  
                
  20471450.945   107578217.240    20471456.977    83827212.7054                 
                
  20250957.984   106419547.397    20250964.238    82924362.0264   20250964.414  
                
  21226761.852   111547439.083    21226770.285    86920141.6494   21226770.688  
                
  24307628.891   127737453.975    24307636.082    99535714.1344   24307636.277  
                
  23468629.133   125321177.815                    97472066.917    23468632.031  
  23468627.207  
  21014186.539   112530020.911                    87523339.575    21014189.691  
  21014185.824  
  23771865.875   124921993.663    23771870.582    97341836.1264                 
                
  20524703.281   109677806.176                    85304969.253    20524707.562  
  20524703.391  
  23497164.031   123478462.237    23497170.621    96217034.2564   23497170.418  
                
  22053193.797   117928338.849                    91722046.836    22053198.520  
  22053192.797  
  22007606.273   117725879.436                                                  
  22007604.305  
  19906763.469   106114290.180                    82533346.560    19906767.055  
  19906763.145  
  20322777.234   108636891.640                    84495364.088    20322781.059  
  20322776.934  
 21  8 16 21 30 50.0000000  0 15G17G15G13G14G30G 5R13R 4G19R15G 7R24
                                R23R14R 5
  21863011.289   114890906.932    21863018.023    89525417.8184   21863017.949  
                
  21970981.000   115458284.750    21970987.355    89967528.4384   21970987.156  
                
  20470250.672   107571909.776    20470256.707    83822297.7934                 
                
  20251965.211   106424840.379    20251971.445    82928486.4374   20251971.641  
                
  21229782.664   111563313.602    21229791.129    86932511.3934   21229791.531  
                
  24312802.023   127764639.485    24312809.348    99556897.6284   24312809.559  
                
  23474557.391   125352834.503                    97496688.769    23474560.355  
  23474555.473  
  21020716.977   112564990.889                    87550538.440    21020720.094  
  21020716.293  
  23764647.961   124884063.308    23764652.641    97312280.0174                 
                
  20521461.227   109660481.634                    85291494.621    20521465.508  
  20521461.340  
  23502222.492   123505044.556    23502229.023    96237747.7404   23502228.852  
                
  22048061.266   117900892.847                    91700699.944    22048065.977  
  22048060.250  
  22007570.641   117725688.875                                                  
  22007568.660  
  19909150.922   106127016.672                    82543244.941    19909154.512  
  19909150.590  
  20322187.773   108633740.637                    84492913.309    20322191.605  
  20322187.473  
 21  8 16 21 31  0.0000000  0 15G17G15G13G14G30G 5R13R 4G19R15G 7R24
                                R23R14R 5
  21858439.195   114866880.397    21858445.961    89506695.8504   21858445.891  
                
  21967447.469   115439715.897    21967453.832    89953059.2004   21967453.633  
                
  20469062.398   107565665.313    20469068.441    83817431.9784                 
                
  20252981.508   106430181.017    20252987.734    82932647.9784   20252987.930  
                
  21232809.789   111579221.284    21232818.289    86944906.9804   21232818.668  
                
  24317979.438   127791847.298    24317986.875    99578098.5194   24317987.074  
                
  23480485.812   125384491.969                    97521311.249    23480488.836  
  23480483.875  
  21027257.758   112600016.289                    87577780.424    21027260.871  
  21027257.090  
  23757432.109   124846143.645    23757436.742    97282732.2424                 
                
  20518225.117   109643188.875                    85278044.699    20518229.398  
  20518225.223  
  23507284.656   123531646.209    23507291.094    96258476.3004   23507290.969  
                
  22042939.984   117873506.936                    91679399.799    22042944.711  
  22042938.973  
  22007551.969   117725589.085                                                  
  22007549.992  
  19911544.273   106139774.543                    82553167.719    19911547.855  
  19911543.934  
  20321615.820   108630683.219                    84490535.313    20321619.656  
  20321615.520  
 21  8 16 21 31 10.0000000  0 15G17G15G13G14G30G 5R13R 4G19R15G 7R24
                                R23R14R 5
  21853875.719   114842899.161    21853882.496    89488009.1774   21853882.422  
                
  21963924.852   115421204.402    21963931.230    89938634.6614   21963931.027  
                
  20467886.078   107559483.729    20467892.137    83812615.1614                 
                
  20254006.820   106435569.101    20254013.039    82936846.4964   20254013.246  
                
  21235843.195   111595161.992    21235851.723    86957328.2944   21235852.102  
                
  24323161.086   127819077.086    24323168.566    99599316.5254   24323168.773  
                
  23486414.359   125416150.107                    97545934.231    23486417.367  
  23486412.414  
  21033808.750   112635096.567                    87605065.085    21033811.895  
  21033808.094  
  23750218.312   124808234.621    23750222.859    97253192.7394                 
                
  20514994.945   109625927.859                    85264619.468    20514999.234  
  20514995.047  
  23512350.430   123558266.926    23512356.820    96279219.7124   23512356.734  
                
  22037829.922   117846181.095                    91658146.389    22037834.684  
  22037828.910  
  22007550.227   117725579.808                                                  
  22007548.262  
  19913943.461   106152563.635                    82563114.792    19913947.059  
  19913943.109  
  20321061.297   108627718.998                    84488229.821    20321065.129  
  20321060.980  
 21  8 16 21 31 20.0000000  0 15G17G15G13G14G30G 5R13R 4G19R15G 7R24
                                R23R14R 5
  21849320.938   114818963.592    21849327.695    89469358.0884   21849327.625  
                
  21960413.219   115402750.614    21960419.617    89924255.0864   21960419.426  
                
  20466721.781   107553365.289    20466727.848    83807847.5444                 
                
  20255041.203   106441004.796    20255047.418    82941082.1094   20255047.629  
                
  21238882.930   111611135.893    21238891.480    86969775.4804   21238891.855  
                
  24328347.000   127846328.999    24328354.480    99620551.7744   24328354.684  
                
  23492342.984   125447809.071                    97570557.852    23492346.109  
  23492341.117  
  21040370.023   112670231.868                    87632392.543    21040373.180  
  21040369.359  
  23743006.555   124770336.569    23743011.086    97223661.7984                 
                
  20511770.766   109608698.798                    85251219.093    20511775.070  
  20511770.859  
  23517419.891   123584906.913    23517426.250    96299978.1314   23517426.191  
                
  22032731.172   117818915.766                    91636940.012    22032735.957  
  22032730.148  
  22007565.477   117725661.337                                                  
  22007563.547  
  19916348.562   106165384.151                    82573086.306    19916352.191  
  19916348.195  
  20320524.297   108624848.412                    84485997.127    20320528.145  
  20320523.965  
 21  8 16 21 31 30.0000000  0 15G17G15G13G14G30G 5R13R 4G19R15G 7R24
                                R23R14R 5
  21844774.797   114795073.426    21844781.527    89450742.3734   21844781.461  
                
  21956912.516   115384354.300    21956918.945    89909920.3024   21956918.734  
                
  20465569.445   107547309.727    20465575.527    83803128.9274                 
                
  20256084.570   106446487.754    20256090.793    82945354.5554   20256090.988  
                
  21241928.922   111627142.711    21241937.504    86982248.3244   21241937.863  
                
  24333537.000   127873602.602    24333544.508    99641803.9324   24333544.711  
                
  23498271.656   125479468.494                    97595181.827    23498274.867  
  23498269.941  
  21046941.469   112705421.728                    87659762.425    21046944.652  
  21046940.812  
  23735796.812   124732449.247    23735801.363    97194139.2244                 
                
  20508552.500   109591501.361                    85237843.325    20508556.805  
  20508552.602  
  23522492.992   123611565.962    23522499.328    96320751.4124   23522499.246  
                
  22027643.664   117791710.684                    91615780.519    22027648.473  
  22027642.660  
  22007597.648   117725833.402                                                  
  22007595.738  
  19918759.500   106178235.834                    82583082.057    19918763.145  
  19918759.117  
  20320004.727   108622071.033                    84483836.943    20320008.586  
  20320004.402  
 21  8 16 21 31 40.0000000  0 15G17G15G13G14G30G 5R13R 4G19R15G 7R24
                                R23R14R 5
  21840237.328   114771228.866    21840244.078    89432162.2014   21840243.992  
                
  21953422.805   115366015.773    21953429.273    89895630.5404   21953429.035  
                
  20464429.109   107541317.252    20464435.219    83798459.4554                 
                
  20257136.953   106452018.105    20257143.184    82949663.9214   20257143.363  
                
  21244981.211   111643182.629    21244989.816    86994746.9454   21244990.156  
                
  24338731.164   127900897.914    24338738.625    99663073.0144   24338738.812  
                
  23504200.625   125511128.747                    97619806.422    23504203.863  
  23504198.945  
  21053523.133   112740666.226                    87687174.815    21053526.320  
  21053522.488  
  23728589.172   124694572.891    23728593.730    97164625.1844                 
                
  20505340.180   109574335.714                    85224492.256    20505344.473  
  20505340.289  
  23527569.711   123638244.191    23527576.062    96341539.6404   23527575.969  
                
  22022567.492   117764566.250                    91594668.187    22022572.328  
  22022566.492  
  22007646.766   117726096.193                                                  
  22007644.867  
  19921176.258   106191118.574                    82593101.956    19921179.926  
  19921175.863  
  20319502.648   108619387.146                    84481749.477    20319506.520  
  20319502.344  
 21  8 16 21 31 50.0000000  0 15G17G15G13G14G30G 5R13R 4G19R15G 7R24
                                R23R14R 5
  21835708.609   114747430.210    21835715.387    89413617.7944   21835715.281  
                
  21949944.117   115347735.137    21949950.609    89881385.8974   21949950.371  
                
  20463300.820   107535388.047    20463306.953    83793839.3024                 
                
  20258198.391   106457595.971    20258204.629    82954010.3194   20258204.789  
                
  21248039.836   111659255.759    21248048.469    87007271.4574   21248048.781  
                
  24343929.508   127928215.015    24343936.887    99684359.0454   24343937.094  
                
  23510129.734   125542789.355                    97644431.335    23510132.934  
  23510127.984  
  21060114.992   112775965.299                    87714629.627    21060118.191  
  21060114.348  
  23721383.625   124656707.823    23721388.242    97135119.9524                 
                
  20502133.859   109557202.109                    85211166.131    20502138.164  
  20502133.973  
  23532650.070   123664941.700    23532656.414    96362342.8764   23532656.336  
                
  22017502.734   117737482.663                    91573603.191    22017507.590  
  22017501.730  
  22007712.859   117726449.733                                                  
  22007710.957  
  19923598.914   106204032.693                    82603146.256    19923602.613  
  19923598.512  
  20319018.102   108616796.900                    84479734.838    20319021.988  
  20319017.789  
 21  8 16 21 32  0.0000000  0 15G17G15G13G14G30G 5R13R 4G19R15G 7R24
                                R23R14R 5
  21831188.547   114723677.042    21831195.293    89395108.8304   21831195.172  
                
  21946476.422   115329512.292    21946482.918    89867186.2804   21946482.680  
                
  20462184.555   107529522.022    20462190.699    83789268.3714                 
                
  20259268.805   106463221.053    20259275.051    82958393.5074   20259275.191  
                
  21251104.727   111675361.857    21251113.375    87019821.6654   21251113.676  
                
  24349131.898   127955553.532    24349139.246    99705661.7854   24349139.465  
                
  23516058.883   125574450.479                    97669056.621    23516062.082  
  23516057.051  
  21066716.961   112811318.598                    87742126.640    21066720.172  
  21066716.316  
  23714180.234   124618853.972    23714184.895    97105623.4684                 
                
  20498933.445   109540100.088                    85197864.575    20498937.754  
  20498933.555  
  23537734.016   123691658.172    23537740.328    96383160.9114   23537740.281  
                
  22012449.352   117710460.059                    91552585.611    22012454.238  
  22012448.340  
  22007795.906   117726894.010                                                  
  22007793.973  
  19926027.398   106216977.871                    82613214.715    19926031.113  
  19926026.984  
  20318551.031   108614300.132                    84477792.905    20318554.914  
  20318550.715  
 21  8 16 21 32 10.0000000  0 15G17G15G13G14G30G 5R13R 4G19R15G 7R24
                                R23R14R 5
  21826677.273   114699970.146    21826683.977    89376635.9284   21826683.875  
                
  21943019.797   115311347.650    21943026.301    89853032.0124   21943026.082  
                
  20461080.359   107523719.465    20461086.504    83784746.8994                 
                
  20260348.266   106468893.656    20260354.512    82962813.7244   20260354.645  
                
  21254175.961   111691501.272    21254184.613    87032397.8234   21254184.906  
                
  24354338.383   127982913.658    24354345.738    99726981.3584   24354345.938  
                
  23521988.125   125606112.412                    97693682.558    23521991.426  
  23521986.328  
  21073329.078   112846726.231                    87769665.897    21073332.293  
  21073328.414  
  23706979.086   124581011.764    23706983.777    97076136.0474                 
                
  20495739.047   109523030.199                    85184587.979    20495743.352  
  20495739.148  
  23542821.641   123718394.004    23542827.922    96403994.0174   23542827.902  
                
  22007407.414   117683498.586                    91531615.581    22007412.301  
  22007406.402  
  22007895.938   117727429.230                                                  
  22007893.953  
  19928461.758   106229954.387                    82623307.565    19928465.484  
  19928461.336  
  20318101.500   108611897.120                    84475923.899    20318105.383  
  20318101.156  
 21  8 16 21 32 20.0000000  0 15G17G15G13G14G30G 5R13R 4G19R15G 7R24
                                R23R14R 5
  21822174.727   114676309.069    21822181.422    89358198.7314   21822181.320  
                
  21939574.203   115293240.946    21939580.734    89838922.8984   21939580.516  
                
  20459988.195   107517980.089    20459994.332    83780274.6544                 
                
  20261436.695   106474613.401    20261442.938    82967270.6794   20261443.066  
                
  21257253.477   111707673.655    21257262.129    87044999.6824   21257262.418  
                
  24359548.867   128010294.984    24359556.242    99748317.4434   24359556.449  
                
  23527917.516   125637774.711                    97718308.747    23527920.762  
  23527915.664  
  21079951.297   112882187.789                    87797247.101    21079954.484  
  21079950.648  
  23699780.195   124543180.966    23699784.855    97046657.5194                 
                
  20492550.586   109505992.025                    85171336.071    20492554.883  
  20492550.711  
  23547912.812   123745148.898    23547919.188    96424841.9694   23547919.172  
                
  22002376.961   117656598.492                    91510693.263    22002381.805  
  22002375.945  
  22008012.930   117728055.182                                                  
  22008010.887  
  19930901.938   106242961.923                    82633424.542    19930905.672  
  19930901.504  
  20317669.438   108609587.475                    84474127.494    20317673.320  
  20317669.098  
 21  8 16 21 32 30.0000000  0 15G17G15G13G14G30G 5R13R 4G19R15G 7R24
                                R23R14R 5
  21817681.031   114652694.532    21817687.723    89339797.8004   21817687.602  
                
  21936139.719   115275192.615    21936146.285    89824859.2724   21936146.074  
                
  20458908.141   107512304.319    20458914.254    83775851.9714                 
                
  20262534.164   106480380.628    20262540.387    82971764.6234   20262540.520  
                
  21260337.336   111723879.382    21260345.980    87057627.5214   21260346.270  
                
  24364763.383   128037697.660    24364770.805    99769670.1544   24364771.039  
                
  23533847.102   125669438.021                    97742935.750    23533850.355  
  23533845.219  
  21086583.625   112917703.534                    87824870.461    21086586.781  
  21086582.984  
  23692583.508   124505362.073    23692588.195    97017188.2624                 
                
  20489368.133   109488985.934                    85158109.126    20489372.422  
  20489368.277  
  23553007.734   123771923.126    23553014.168    96445704.9834   23553014.156  
                
  21997358.023   117629759.883                    91489818.783    21997362.832  
  21997357.047  
  22008146.961   117728772.258                                                  
  22008144.852  
  19933347.969   106256000.677                    82643565.788    19933351.719  
  19933347.527  
  20317254.945   108607371.739                    84472404.146    20317258.816  
  20317254.641  
 21  8 16 21 32 40.0000000  0 15G17G15G13G14G30G 5R13R 4G19R15G 7R24
                                R23R14R 5
  21813196.102   114629126.127    21813202.758    89321432.8124   21813202.652  
                
  21932716.258   115257202.314    21932722.871    89810840.8584   21932722.664  
                
  20457840.109   107506691.797    20457846.199    83771478.5814                 
                
  20263640.570   106486194.887    20263646.773    82976295.2224   20263646.918  
                
  21263427.453   111740118.069    21263436.090    87070281.0354   21263436.379  
                
  24369981.938   128065121.328    24369989.367    99791039.2474   24369989.605  
                
  23539776.602   125701101.600                    97767562.980    23539780.012  
  23539774.754  
  21093225.938   112953272.792                    87852535.444    21093229.055  
  21093225.285  
  23685388.969   124467554.752    23685393.703    96987728.0194                 
                
  20486191.617   109472011.659                    85144906.912    20486195.898  
  20486191.762  
  23558106.273   123798716.321    23558112.793    96466582.7904   23558112.754  
                
  21992350.578   117602982.881                    91468992.241    21992355.387  
  21992349.605  
  22008297.914   117729579.939                                                  
  22008295.781  
  19935799.820   106269070.464                    82653731.179    19935803.582  
  19935799.379  
  20316857.945   108605249.578                    84470753.576    20316861.820  
  20316857.660  
 21  8 16 21 32 50.0000000  0 15G17G15G13G14G30G 5R13R 4G19R15G 7R24
                                R23R14R 5
  21808720.008   114605604.039    21808726.625    89303103.9144   21808726.539  
                
  21929303.891   115239270.208    21929310.547    89796867.7944   21929310.336  
                
  20456784.148   107501142.667    20456790.215    83767154.5764                 
                
  20264755.961   106492056.271    20264762.152    82980862.5364   20264762.297  
                
  21266523.891   111756389.841    21266532.539    87082960.3314   21266532.824  
                
  24375204.586   128092565.954    24375211.934    99812424.6764   24375212.172  
                
  23545706.250   125732765.827                    97792190.700    23545709.773  
  23545704.438  
  21099878.234   112988895.544                    87880242.023    21099881.316  
  21099877.559  
  23678196.758   124429759.235    23678201.430    96958276.9744                 
                
  20483021.070   109455069.190                    85131729.460    20483025.328  
  20483021.211  
  23563208.500   123825528.577    23563215.043    96487475.4704   23563214.992  
                
  21987354.680   117576267.557                    91448213.677    21987359.512  
  21987353.695  
  22008465.844   117730478.337                                                  
  22008463.672  
  19938257.477   106282171.132                    82663920.594    19938261.246  
  19938257.055  
  20316478.438   108603220.820                    84469175.652    20316482.316  
  20316478.137  
 21  8 16 21 33  0.0000000  0 15G17G15G13G14G30G 5R13R 4G19R15G 7R24
                                R23R14R 5
  21804252.719   114582128.276    21804259.336    89284811.1124   21804259.246  
                
  21925902.602   115221396.410    21925909.293    89782940.1684   21925909.070  
                
  20455740.258   107495656.974    20455746.312    83762880.0114                 
                
  20265880.289   106497964.701    20265886.469    82985466.5124   20265886.621  
                
  21269626.594   111772694.614    21269635.258    87095665.3394   21269635.527  
                
  24380431.125   128120031.364    24380438.418    99833826.2824   24380438.668  
                
  23551636.008   125764430.375                    97816818.644    23551639.605  
  23551634.227  
  21106540.531   113024571.685                    87907990.128    21106543.555  
  21106539.824  
  23671006.781   124391975.647    23671011.398    96928835.2204                 
                
  20479856.461   109438158.530                    85118576.716    20479860.707  
  20479856.605  
  23568314.281   123852359.682    23568320.863    96508382.8254   23568320.789  
                
  21982370.328   117549614.061                    91427483.204    21982375.188  
  21982369.324  
  22008650.773   117731467.674                                                  
  22008648.562  
  19940720.945   106295302.830                    82674134.128    19940724.707  
  19940720.520  
  20316116.453   108601285.814                    84467670.642    20316120.324  
  20316116.152  
 21  8 16 21 33 10.0000000  0 15G17G15G13G14G30G 5R13R 4G19R15G 7R24
                                R23R14R 5
  21799794.281   114558698.983    21799800.930    89266554.5294   21799800.824  
                
  21922512.461   115203581.097    21922519.180    89769058.1124   21922518.961  
                
  20454708.477   107490234.872    20454714.516    83758654.9884                 
                
  20267013.602   106503920.262    20267019.777    82990107.2164   20267019.930  
                
  21272735.609   111789032.545    21272744.289    87108396.1814   21272744.539  
                
  24385661.562   128147517.535    24385668.855    99855244.0634   24385669.117  
                
  23557566.133   125796095.808                    97841447.317    23557569.562  
  23557564.207  
  21113212.758   113060301.059                    87935779.660    21113215.773  
  21113212.047  
  23663819.047   124354204.230    23663823.672    96899402.9494                 
                
  20476697.844   109421279.804                    85105448.831    20476702.094  
  20476697.988  
  23573423.703   123879209.907    23573430.305    96529305.0664   23573430.246  
                
  21977397.648   117523022.826                    91406801.135    21977402.508  
  21977396.617  
  22008852.711   117732547.918                                                  
  22008850.512  
  19943190.227   106308465.464                    82684371.733    19943194.000  
  19943189.812  
  20315772.008   108599444.535                    84466238.552    20315775.879  
  20315771.703  
 21  8 16 21 33 20.0000000  0 15G17G15G13G14G30G 5R13R 4G19R15G 7R24
                                R23R14R 5
  21795344.695   114535316.276    21795351.359    89248334.2454   21795351.230  
                
  21919133.445   115185824.288    21919140.191    89755221.6424   21919139.969  
                
  20453688.773   107484876.300    20453694.801    83754479.4744                 
                
  20268155.844   106509922.835    20268162.023    82994784.5564   20268162.176  
                
  21275850.922   111805403.571    21275859.609    87121152.8194   21275859.852  
                
  24390895.930   128175024.263    24390903.195    99876677.8764   24390903.484  
                
  23563496.133   125827761.440                    97866076.131    23563499.562  
  23563494.156  
  21119894.914   113096083.658                    87963610.562    21119897.910  
  21119894.191  
  23656633.633   124316444.964    23656638.242    96869980.1454                 
                
  20473545.195   109404433.025                    85092345.784    20473549.422  
  20473545.336  
  23578536.742   123906079.299    23578543.352    96550242.2514   23578543.301  
                
  21972436.586   117496493.825                    91386167.465    21972441.453  
  21972435.551  
  22009071.617   117733718.981                                                  
  22009069.418  
  19945665.312   106321659.046                    82694633.407    19945669.086  
  19945664.898  
  20315445.078   108597696.921                    84464879.297    20315448.945  
  20315444.758  
 21  8 16 21 33 30.0000000  0 15G17G15G13G14G30G 5R13R 4G19R15G 7R24
                                R23R14R 5
  21790904.000   114511980.263    21790910.664    89230150.3434   21790910.539  
                
  21915765.586   115168126.089    21915772.348    89741430.8414   21915772.117  
                
  20452681.195   107479581.394    20452687.207    83750353.5734                 
                
  20269307.047   106515972.426    20269313.234    82999498.5314   20269313.379  
                
  21278972.531   111821807.701    21278981.219    87133935.2624   21278981.457  
                
  24396134.211   128202551.578    24396141.457    99898127.7224   24396141.750  
                
  23569426.125   125859427.604                    97890705.350    23569429.617  
  23569424.164  
  21126586.938   113131919.212                    87991482.668    21126589.977  
  21126586.207  
  23649450.562   124278698.066    23649455.191    96840566.9744                 
                
  20470398.500   109387618.079                    85079267.491    20470402.715  
  20470398.633  
  23583653.438   123932967.799    23583660.043    96571194.3194   23583659.988  
                
  21967487.172   117470027.032                    91365582.180    21967492.027  
  21967486.117  
  22009307.531   117734980.991                                                  
  22009305.359  
  19948146.188   106334883.474                    82704919.080    19948149.965  
  19948145.762  
  20315135.695   108596043.077                    84463592.953    20315139.570  
  20315135.355  
 21  8 16 21 33 40.0000000  0 15G17G15G13G14G30G 5R13R 4G19R15G 7R24
                                R23R14R 5
  21786472.203   114488691.017    21786478.855    89212002.8804   21786478.719  
                
  21912408.875   115150486.479    21912415.637    89727685.6944   21912415.430  
                
  20451685.719   107474350.135    20451691.719    83746277.2604                 
                
  20270467.164   106522068.919    20270473.363    83004249.0484   20270473.492  
                
  21282100.438   111838244.912    21282109.117    87146743.4694   21282109.363  
                
  24401376.398   128230099.238    24401383.613    99919593.4314   24401383.898  
                
  23575356.219   125891094.211                    97915334.896    23575359.758  
  23575354.266  
  21133288.797   113167807.479                    88019395.751    21133291.863  
  21133288.074  
  23642269.766   124240963.606    23642274.520    96811163.5084                 
                
  20467257.758   109370834.941                    85066213.947    20467261.953  
  20467257.883  
  23588773.727   123959875.334    23588780.340    96592161.2384   23588780.301  
                
  21962549.445   117443622.846                    91345045.600    21962554.309  
  21962548.402  
  22009560.438   117736333.869                                                  
  22009558.270  
  19950632.852   106348138.796                    82715228.761    19950636.621  
  19950632.418  
  20314843.828   108594482.895                    84462379.489    20314847.715  
  20314843.480  
 21  8 16 21 33 50.0000000  0 15G17G15G13G14G30G 5R13R 4G19R15G 7R24
                                R23R14R 5
  21782049.336   114465448.679    21782055.957    89193891.9694   21782055.828  
                
  21909063.367   115132905.713    21909070.141    89713986.3964   21909069.945  
                
  20450702.383   107469182.677    20450708.367    83742250.6704                 
                
  20271636.219   106528212.348    20271642.434    83009036.1404   20271642.551  
                
  21285234.641   111854715.193    21285243.305    87159577.4534   21285243.559  
                
  24406622.391   128257667.297    24406629.660    99941075.0104   24406629.957  
                
  23581286.414   125922761.319                    97939964.872    23581290.059  
  23581284.484  
  21140000.500   113203748.390                    88047349.784    21140003.570  
  21139999.793  
  23635091.398   124203241.722    23635096.270    96781769.8534                 
                
  20464123.000   109354083.767                    85053185.258    20464127.188  
  20464123.113  
  23593897.688   123986801.933    23593904.305    96613142.9934   23593904.277  
                
  21957623.445   117417281.312                    91324557.751    21957628.336  
  21957622.406  
  22009830.375   117737777.814                                                  
  22009828.223  
  19953125.297   106361424.938                    82725562.434    19953129.070  
  19953124.863  
  20314569.492   108593016.388                    84461238.875    20314573.391  
  20314569.121  
 21  8 16 21 34  0.0000000  0 15G17G15G13G14G30G 5R13R 4G19R15G 7R24
                                R23R14R 5
  21777635.375   114442253.154    21777641.941    89175817.5344   21777641.852  
                
  21905729.031   115115383.693    21905735.820    89700332.8724   21905735.641  
                
  20449731.164   107464078.843    20449737.137    83738273.6594                 
                
  20272814.156   106534402.479    20272820.379    83013859.6204   20272820.496  
                
  21288375.109   111871218.434    21288383.758    87172437.1124   21288384.031  
                
  24411872.234   128285255.434    24411879.527    99962572.2534   24411879.824  
                
  23587216.711   125954428.823                    97964595.127    23587220.426  
  23587214.824  
  21146721.977   113239741.587                    88075344.501    21146725.035  
  21146721.293  
  23627915.438   124165532.363    23627920.453    96752385.9594                 
                
  20460994.188   109337364.338                    85040181.267    20460998.371  
  20460994.301  
  23599025.273   124013747.412    23599031.820    96634139.4554   23599031.836  
                
  21952709.180   117391002.529                    91304118.708    21952714.082  
  21952708.137  
  22010117.242   117739312.460                                                  
  22010115.086  
  19955623.484   106374741.667                    82735919.887    19955627.270  
  19955623.047  
  20314312.672   108591643.577                    84460171.138    20314316.578  
  20314312.305  
 21  8 16 21 34 10.0000000  0 15G17G15G13G14G30G 5R13R 4G19R15G 7R24
                                R23R14R 5
  21773230.336   114419104.569    21773236.883    89157779.6734   21773236.816  
                
  21902405.875   115097920.353    21902412.684    89686725.0844   21902412.496  
                
  20448772.070   107459038.730    20448778.035    83734346.2984                 
                
  20274000.992   106540639.353    20274007.223    83018719.5254   20274007.328  
                
  21291521.852   111887754.665    21291530.480    87185322.4784   21291530.781  
                
  24417125.844   128312863.595    24417133.188    99984085.0934   24417133.496  
                
  23593147.133   125986096.629                    97989225.606    23593150.852  
  23593145.203  
  21153453.219   113275787.115                    88103379.907    21153456.301  
  21153452.543  
  23620742.039   124127835.729    23620747.027    96723011.9734                 
                
  20457871.305   109320676.606                    85027201.927    20457875.488  
  20457871.410  
  23604156.461   124040711.715    23604162.895    96655150.5984   23604162.984  
                
  21947806.625   117364786.534                    91283728.511    21947811.570  
  21947805.570  
  22010421.133   117740938.023                                                  
  22010418.996  
  19958127.422   106388089.050                    82746301.186    19958131.223  
  19958126.988  
  20314073.375   108590364.358                    84459176.184    20314077.305  
  20314073.008  
 21  8 16 21 34 20.0000000  0 15G17G15G13G14G30G 5R13R 4G19R15G 7R24
                                R23R14R 5
  21768834.227   114396002.928    21768840.770    89139778.4034   21768840.695  
                
  21899093.898   115080515.813    21899100.711    89673163.1034   21899100.508  
                
  20447825.078   107454062.280    20447831.043    83730468.5404                 
                
  20275196.703   106546922.887    20275202.938    83023615.7904   20275203.043  
                
  21294674.867   111904323.855    21294683.488    87198233.5354   21294683.824  
                
  24422383.258   128340491.617    24422390.613   100005613.4054   24422390.941  
                
  23599077.664   126017764.936                    98013856.496    23599081.320  
  23599075.660  
  21160194.203   113311884.779                    88131455.851    21160197.301  
  21160193.527  
  23613571.062   124090151.902    23613576.020    96693647.9674                 
                
  20454754.383   109304020.767                    85014247.401    20454758.574  
  20454754.488  
  23609291.195   124067694.829    23609297.562    96676176.4064   23609297.699  
                
  21942915.883   117338633.689                    91263387.399    21942920.840  
  21942914.805  
  22010741.992   117742654.440                                                  
  22010739.883  
  19960637.094   106401467.027                    82756706.274    19960640.895  
  19960636.668  
  20313851.617   108589178.996                    84458254.231    20313855.539  
  20313851.246  
 21  8 16 21 34 30.0000000  0 15G17G15G13G14G30G 5R13R 4G19R15G 7R24
                                R23R14R 5
  21764447.070   114372948.294    21764453.617    89121813.7634   21764453.531  
                
  21895793.133   115063170.163    21895799.941    89659647.0194   21895799.723  
                
  20446890.227   107449149.592    20446896.191    83726640.4744                 
                
  20276401.289   106553253.075    20276407.539    83028548.4074   20276407.641  
                
  21297834.156   111920926.046    21297842.789    87211170.2944   21297843.129  
                
  24427644.508   128368139.413    24427651.832   100027157.1384   24427652.141  
                
  23605008.086   126049433.629                    98038487.692    23605011.855  
  23605006.219  
  21166944.875   113348034.246                    88159572.122    21166947.984  
  21166944.203  
  23606402.531   124052480.931    23606407.465    96664293.9804                 
                
  20451643.438   109287396.825                    85001317.678    20451647.629  
  20451643.539  
  23614429.562   124094696.984    23614435.910    96697217.0434   23614436.078  
                
  21938036.938   117312543.965                    91243095.402    21938041.922  
  21938035.848  
  22011079.828   117744461.660                                                  
  22011077.738  
  19963152.516   106414875.601                    82767135.163    19963156.316  
  19963152.113  
  20313647.398   108588087.328                    84457405.144    20313651.320  
  20313647.020  
 21  8 16 21 34 40.0000000  0 15G17G15G13G14G30G 5R13R 4G19R15G 7R24
                                R23R14R 5
  21760068.883   114349940.768    21760075.441    89103885.8244   21760075.348  
                
  21892503.586   115045883.429    21892510.402    89646176.8284   21892510.191  
                
  20445967.492   107444300.588    20445973.465    83722862.0274                 
                
  20277614.742   106559629.798    20277621.008    83033517.2864   20277621.102  
                
  21300999.711   111937561.149    21301008.367    87224132.7024   21301008.699  
                
  24432909.570   128395806.772    24432916.801   100048716.1364   24432917.094  
                
  23610938.695   126081102.293                    98063118.862    23610942.375  
  23610936.781  
  21173705.211   113384235.576                    88187728.707    21173708.352  
  21173704.531  
  23599236.477   124014822.931    23599241.391    96634950.0894                 
                
  20448538.414   109270804.597                    84988412.609    20448542.605  
  20448538.527  
  23619571.523   124121718.008    23619577.840    96718272.3754   23619578.023  
                
  21933169.836   117286517.574                    91222852.681    21933174.867  
  21933168.727  
  22011434.648   117746359.672                                                  
  22011432.602  
  19965673.664   106428314.718                    82777587.813    19965677.469  
  19965673.270  
  20313460.672   108587089.118                    84456628.769    20313464.586  
  20313460.281  
 21  8 16 21 34 50.0000000  0 15G17G15G13G14G30G 5R13R 4G19R15G 7R24
                                R23R14R 5
  21755699.672   114326980.465    21755706.242    89085994.6834   21755706.152  
                
  21889225.242   115028655.658    21889232.074    89632752.5914   21889231.855  
                
  20445056.898   107439515.399    20445062.879    83719133.3094                 
                
  20278837.031   106566053.004    20278843.312    83038522.3854   20278843.398  
                
  21304171.531   111954229.179    21304180.211    87237120.7714   21304180.531  
                
  24438178.242   128423493.554    24438185.461   100070290.2424   24438185.719  
                
  23616869.289   126112771.184                    98087750.200    23616872.918  
  23616867.398  
  21180475.172   113420488.424                    88215925.340    21180478.320  
  21180474.488  
  23592072.859   123977177.940    23592077.824    96605616.3484                 
                
  20445439.336   109254244.080                    84975532.216    20445443.523  
  20445439.441  
  23624717.039   124148757.861    23624723.359    96739342.3754   23624723.555  
                
  21928314.586   117260554.522                    91202659.197    21928319.594  
  21928313.465  
  22011806.438   117748348.502                                                  
  22011804.379  
  19968200.523   106441784.271                    82788064.120    19968204.340  
  19968200.137  
  20313291.469   108586184.638                    84455925.265    20313295.367  
  20313291.090  
 21  8 16 21 35  0.0000000  0 15G17G15G13G14G30G 5R13R 4G19R15G 7R24
                                R23R14R 5
  21751339.555   114304067.914    21751346.117    89068140.7514   21751346.023  
                
  21885958.188   115011487.162    21885965.023    89619374.5564   21885964.805  
                
  20444158.516   107434794.344    20444164.508    83715454.5614                 
                
  20280068.211   106572522.887    20280074.500    83043563.8554   20280074.582  
                
  21307349.656   111970930.307    21307358.367    87250134.6424   21307358.668  
                
  24443450.633   128451199.951    24443457.867   100091879.6494   24443458.102  
                
  23622799.922   126144440.411                    98112381.839    23622803.586  
  23622798.070  
  21187254.773   113456792.858                    88244162.135    21187257.945  
  21187254.074  
  23584911.852   123939546.384    23584916.828    96576293.0724                 
                
  20442346.234   109237715.527                    84962676.689    20442350.426  
  20442346.340  
  23629866.195   124175816.707    23629872.500    96760427.1864   23629872.703  
                
  21923471.297   117234655.362                    91182515.421    21923476.266  
  21923470.156  
  22012195.250   117750428.428                                                  
  22012193.211  
  19970733.117   106455284.389                    82798564.234    19970736.953  
  19970732.746  
  20313139.852   108585374.109                    84455294.853    20313143.738  
  20313139.480  
 21  8 16 21 35 10.0000000  0 15G17G15G13G14G30G 5R13R 4G19R15G 7R24
                                R23R14R 5
  21746988.445   114281202.683    21746994.969    89050323.6844   21746994.883  
                
  21882702.383   114994377.768    21882709.195    89606042.5574   21882708.980  
                
  20443272.250   107430137.014    20443278.246    83711825.4714                 
                
  20281308.180   106579038.996    20281314.480    83048641.3444   20281314.551  
                
  21310534.000   111987664.184    21310542.738    87263174.0194   21310543.023  
                
  24448726.703   128478925.442    24448733.875   100113483.9374   24448734.094  
                
  23628730.523   126176109.631                    98137013.445    23628734.211  
  23628728.730  
  21194043.914   113493148.386                    88272438.649    21194047.082  
  21194043.176  
  23577753.297   123901927.975    23577758.297    96546980.0344                 
                
  20439259.078   109221218.714                    84949845.830    20439263.273  
  20439259.199  
  23635018.883   124202894.217    23635025.207    96781526.5394   23635025.406  
                
  21918639.875   117208819.651                    91162420.987    21918644.809  
  21918638.738  
  22012601.016   117752599.007                                                  
  22012598.977  
  19973271.367   106468814.686                    82809087.790    19973275.211  
  19973271.016  
  20313005.711   108584657.033                    84454737.124    20313009.590  
  20313005.332  
 21  8 16 21 35 20.0000000  0 15G17G15G13G14G30G 5R13R 4G19R15G 7R24
                                R23R14R 5
  21742646.469   114258385.453    21742652.941    89032544.0184   21742652.895  
                
  21879457.922   114977328.017    21879464.699    89592757.0314   21879464.496  
                
  20442398.219   107425543.943    20442404.227    83708246.4544                 
                
  20282557.055   106585601.899    20282563.355    83053755.2974   20282563.434  
                
  21313724.688   112004431.381    21313733.445    87276239.3524   21313733.730  
                
  24454006.492   128506670.522    24454013.617   100135103.4744   24454013.836  
                
  23634661.320   126207779.719                    98161645.730    23634664.980  
  23634659.535  
  21200842.672   113529555.414                    88300755.227    21200845.828  
  21200841.941  
  23570597.367   123864323.378    23570602.367    96517677.7554                 
                
  20436177.938   109204754.052                    84937039.988    20436182.125  
  20436178.059  
  23640175.234   124229990.913    23640181.594    96802640.8314   23640181.742  
                
  21913820.484   117183048.257                    91142376.559    21913825.398  
  21913819.352  
  22013023.836   117754860.854                                                  
  22013021.824  
  19975815.406   106482375.826                    82819635.344    19975819.250  
  19975815.051  
  20312889.156   108584033.985                    84454252.530    20312893.027  
  20312888.785  
 21  8 16 21 35 30.0000000  0 15G17G15G13G14G30G 5R13R 4G19R15G 7R24
                                R23R14R 5
  21738313.570   114235615.901    21738320.027    89014801.5084   21738319.984  
                
  21876224.789   114960337.746    21876231.523    89579517.8574   21876231.320  
                
  20441536.398   107421015.039    20441542.406    83704717.4354                 
                
  20283814.789   106592211.347    20283821.094    83058905.5124   20283821.176  
                
  21316921.680   112021231.672    21316930.457    87289330.4864   21316930.734  
                
  24459289.914   128534434.900    24459297.043   100156738.0394   24459297.242  
                
  23640592.289   126239450.183                    98186278.296    23640595.883  
  23640590.426  
  21207650.992   113566013.631                    88329111.608    21207654.164  
  21207650.285  
  23563444.039   123826732.561    23563449.047    96488386.2164                 
                
  20433102.773   109188321.334                    84924258.988    20433106.973  
  20433102.898  
  23645335.188   124257106.607    23645341.613    96823769.9314   23645341.699  
                
  21909013.117   117157341.043                    91122382.063    21909018.016  
  21909011.980  
  22013463.688   117757213.792                                                  
  22013461.684  
  19978365.188   106495967.562                    82830206.692    19978369.027  
  19978364.832  
  20312790.180   108583504.868                    84453841.002    20312794.051  
  20312789.816  
 21  8 16 21 35 40.0000000  0 14G17G15G13G14G30G 5R 4G19R15G 7R24R23
                                R14R 5
  21733989.773   114212894.231    21733996.246    88997096.3164   21733996.195  
                
  21873002.984   114943407.027    21873009.680    89566325.0904   21873009.496  
                
  20440686.789   107416550.309    20440692.797    83701238.4224                 
                
  20285081.367   106598867.255    20285087.672    83064091.9364   20285087.758  
                
  21320124.961   112038065.065    21320133.758    87302447.4014   21320134.031  
                
  24464576.867   128562218.342    24464584.094   100178387.4794   24464584.293  
                
  21214468.805   113602522.791                    88357507.624    21214471.980  
  21214468.105  
  23556293.289   123789155.562    23556298.371    96459105.4524                 
                
  20430033.602   109171920.630                    84911502.897    20430037.793  
  20430033.719  
  23650498.727   124284241.191    23650505.152    96844913.7634   23650505.211  
                
  21904217.812   117131698.445                    91102437.830    21904222.695  
  21904216.691  
  22013920.562   117759657.723                                                  
  22013918.586  
  19980920.664   106509589.742                    82840801.719    19980924.500  
  19980920.309  
  20312708.789   108583069.747                    84453502.567    20312712.656  
  20312708.426  
 21  8 16 21 35 50.0000000  0 14G17G15G13G14G30G 5R 4G19R15G 7R24R23
                                R14R 5
  21729675.117   114190220.563    21729681.605    88979428.5244   21729681.547  
                
  21869792.516   114926535.923    21869799.184    89553178.7754   21869799.016  
                
  20439849.398   107412149.837    20439855.410    83697809.4834                 
                
  20286356.781   106605569.595    20286363.102    83069314.5374   20286363.184  
                
  21323334.547   112054931.535    21323343.367    87315590.1064   21323343.633  
                
  24469867.445   128590020.790    24469874.750   100200051.7074   24469874.938  
                
  21221296.117   113639082.829                    88385943.213    21221299.297  
  21221295.406  
  23549145.211   123751592.551    23549150.344    96429835.5804                 
                
  20426970.391   109155551.824                    84898771.603    20426974.590  
  20426970.500  
  23655665.883   124311394.722    23655672.281    96866072.3444   23655672.348  
                
  21899434.594   117106120.432                    91082543.832    21899439.445  
  21899433.492  
  22014394.461   117762192.760                                                  
  22014392.504  
  19983481.875   106523242.429                    82851420.468    19983485.715  
  19983481.504  
  20312644.961   108582728.543                    84453237.182    20312648.828  
  20312644.605  
 21  8 16 21 36  0.0000000  0 14G17G15G13G14G30G 5R 4G19R15G 7R24R23
                                R14R 5
  21725369.539   114167594.660    21725376.047    88961797.9514   21725375.988  
                
  21866593.352   114909724.188    21866599.992    89540078.7224   21866599.828  
                
  20439024.195   107407813.356    20439030.203    83694430.4044                 
                
  20287640.953   106612317.983    20287647.297    83074573.0234   20287647.363  
                
  21326550.359   112071830.754    21326559.203    87328758.3054   21326559.457  
                
  24475161.602   128617841.758    24475168.883   100221730.3824   24475169.070  
                
  21228132.859   113675693.171                    88414417.923    21228136.047  
  21228132.195  
  23541999.742   123714043.260    23542004.914    96400576.3984                 
                
  20423913.117   109139214.678                    84886064.945    20423917.312  
  20423913.230  
  23660836.602   124338566.877    23660842.918    96887245.4564   23660843.023  
                
  21894663.383   117080606.627                    91062699.789    21894668.223  
  21894662.293  
  22014885.305   117764818.426                                                  
  22014883.367  
  19986048.727   106536925.180                    82862062.616    19986052.590  
  19986048.340  
  20312598.609   108582480.786                    84453044.472    20312602.496  
  20312598.227  
 21  8 16 21 36 10.0000000  0 14G17G15G13G14G30G 5R 4G19R15G 7R24R23
                                R14R 5
  21721073.094   114145016.769    21721079.609    88944204.8014   21721079.555  
                
  21863405.516   114892972.024    21863412.121    89527025.0984   21863411.953  
                
  20438211.188   107403541.007    20438217.195    83691101.3024                 
                
  20288933.914   106619112.588    20288940.277    83079867.5224   20288940.324  
                
