     2.11           OBSERVATION DATA    M (MIXED)           RINEX VERSION / TYPE
EFT-CORS.RU                             20210817 144921 UTC PGM / RUN BY / DATE 
MDNG                                                        MARKER NAME         
                                                            MARKER NUMBER       
MDNG                EFT-CORS.RU                             OBSERVER / AGENCY   
0                   TRIMBLE BD970       2.0                 REC # / TYPE / VERS 
0                   UNKNOWN EXT NONE                        ANT # / TYPE        
  3463911.2830  3030468.2400  4402179.3760                  APPROX POSITION XYZ 
        0.0000        0.0000        0.0000                  ANTENNA: DELTA H/E/N
     1     1                                                WAVELENGTH FACT L1/2
     6    C1    L1    P2    L2    C2    P1                  # / TYPES OF OBSERV 
    10.000                                                  INTERVAL            
  2021     8    16    18    30    0.0000000     GPS         TIME OF FIRST OBS   
  2021     8    16    19    30    0.0000000     GPS         TIME OF LAST OBS    
     0                                                      RCV CLOCK OFFS APPL 
                                                            END OF HEADER       
 21  8 16 18 30  0.0000000  0 16G 4G16G14G30G 9G 5R13G 8R 4G20R12G 7
                                G27R 3R14R 2
  23244733.234   122151929.013    23244741.648    95183367.8784   23244741.645  
                
  24237409.508   127368491.709    24237415.938    99248221.6534                 
                
  24515388.531   128829242.760    24515397.469   100386452.3484   24515397.457  
                
  21679634.938   113927294.342    21679644.152    88774572.3204   21679644.379  
                
  20821705.352   109418836.265    20821714.137    85261484.5234   20821713.977  
                
  24332451.961   127867898.616    24332459.586    99637358.9114   24332459.629  
                
  19204086.312   102548767.385                    79760194.456    19204089.105  
  19204084.266  
  24145396.117   126884917.070    24145406.285    98871409.1424   24145406.680  
                
  22331017.719   119581589.107                    93007891.997    22331020.996  
  22331017.086  
  22127162.922   116279030.047    22127169.602    90607070.8044                 
                
  20830592.883   111273334.064                    86545929.656    20830596.383  
  20830592.316  
  20561465.547   108051275.995    20561471.957    84195853.2694   20561471.789  
                
  24100010.586   126646405.605    24100019.871    98685561.7714   24100020.020  
                
  19280038.242   103207573.846                    80272564.771    19280042.375  
  19280037.105  
  22182321.258   118244263.490                    91967763.190    22182326.207  
  22182320.781  
  20406350.648   108892206.311                    84693940.988    20406354.172  
  20406348.711  
 21  8 16 18 30 10.0000000  0 16G 4G16G14G30G 9G 5R13G 8R 4G20R12G 7
                                G27R 3R14R 2
  23250236.117   122180846.645    23250244.480    95205901.0934   23250244.492  
                
  24243910.750   127402655.876    24243917.129    99274843.0824                 
                
  24508119.164   128791042.268    24508128.230   100356685.7594   24508128.152  
                
  21675857.172   113907442.102    21675866.348    88759103.0454   21675866.570  
                
  20824479.383   109433413.939    20824488.156    85272843.7394   20824488.004  
                
  24326715.992   127837755.876    24326723.605    99613871.0764   24326723.645  
                
  19203246.469   102544282.695                    79756706.378    19203249.266  
  19203244.422  
  24140977.016   126861694.626    24140987.219    98853313.7344   24140987.629  
                
  22323795.922   119542916.630                    92977813.410    22323799.125  
  22323795.258  
  22124637.133   116265756.954    22124643.789    90596728.1224                 
                
  20836519.258   111304991.706                    86570552.267    20836522.750  
  20836518.691  
  20561391.617   108050887.509    20561398.023    84195550.5574   20561397.859  
                
  24097828.797   126634940.234    24097838.090    98676627.7374   24097838.242  
                
  19278089.016   103197139.496                    80264449.161    19278093.141  
  19278087.883  
  22175422.914   118207492.178                    91939163.315    22175427.980  
  22175422.570  
  20411713.594   108920824.060                    84716199.223    20411717.121  
  20411711.660  
 21  8 16 18 30 20.0000000  0 16G 4G16G14G30G 9G 5R13G 8R 4G20R12G 7
                                G27R 3R14R 2
  23255743.281   122209786.729    23255751.609    95228451.8074   23255751.633  
                
  24250418.180   127436852.533    24250424.527    99301489.8354                 
                
  24500850.875   128752847.212    24500860.016   100326923.4034   24500859.895  
                
  21672085.234   113887620.469    21672094.359    88743657.6254   21672094.594  
                
  20827261.523   109448034.160    20827270.281    85284236.1084   20827270.129  
                
  24320986.945   127807649.395    24320994.516    99590411.4974   24320994.555  
                
  19202420.430   102539871.698                    79753275.597    19202423.242  
  19202418.371  
  24136564.289   126838506.169    24136574.637    98835244.8274   24136575.051  
                
  22316577.523   119504262.452                    92947749.041    22316580.684  
  22316576.840  
  22122123.305   116252546.653    22122129.930    90586434.3774                 
                
  20842452.516   111336686.140                    86595203.510    20842456.016  
  20842451.949  
  20561323.969   108050532.017    20561330.363    84195273.5444   20561330.199  
                
  24095658.047   126623532.803    24095667.328    98667738.8464   24095667.465  
                
  19276153.062   103186776.172                    80256388.788    19276157.184  
  19276151.926  
  22168531.242   118170755.850                    91910590.624    22168536.301  
  22168530.949  
  20417087.250   108949498.883                    84738501.860    20417090.805  
  20417085.309  
 21  8 16 18 30 30.0000000  0 16G 4G16G14G30G 9G 5R13G 8R 4G20R12G 7
                                G27R 3R14R 2
  23261254.711   122238749.334    23261263.047    95251020.0564   23261263.090  
                
  24256931.766   127471081.635    24256938.023    99328161.8714                 
                
  24493583.695   128714657.812    24493592.848   100297165.4594   24493592.684  
                
  21668319.141   113867829.583    21668328.234    88728236.1644   21668328.480  
                
  20830051.773   109462697.018    20830060.516    85295661.7044   20830060.375  
                
  24315264.844   127777579.497    24315272.363    99566980.4284   24315272.434  
                
  19201608.211   102535534.536                    79749902.258    19201611.031  
  19201606.148  
  24132158.141   126815352.077    24132168.605    98817202.6994   24132169.004  
                
  22309362.555   119465626.799                    92917699.106    22309365.719  
  22309361.875  
  22119621.438   116239399.280    22119628.062    90576189.6724                 
                
  20848392.648   111368417.292                    86619883.285    20848396.160  
  20848392.074  
  20561262.609   108050209.590    20561269.000    84195022.3084   20561268.828  
                
  24093498.328   126612183.458    24093507.625    98658895.2144   24093507.734  
                
  19274230.438   103176484.248                    80248383.963    19274234.555  
  19274229.297  
  22161646.195   118134054.713                    91882045.313    22161651.227  
  22161645.879  
  20422471.539   108978230.486                    84760848.658    20422475.105  
  20422469.578  
 21  8 16 18 30 40.0000000  0 16G 4G16G14G30G 9G 5R13G 8R 4G20R12G 7
                                G27R 3R14R 2
  23266770.383   122267734.260    23266778.773    95273605.7064   23266778.820  
                
  24263451.492   127505342.891    24263457.633    99354858.9684                 
                
  24486317.547   128676473.944    24486326.715   100267411.8464   24486326.523  
                
  21664558.867   113848069.256    21664567.949    88712838.5184   21664568.195  
                
  20832850.102   109477402.317    20832858.832    85307120.3814   20832858.691  
                
  24309549.711   127747546.063    24309557.133    99543577.7564   24309557.223  
                
  19200809.742   102531270.742                    79746585.982    19200812.562  
  19200807.711  
  24127758.539   126792232.149    24127769.055    98799187.1744   24127769.465  
                
  22302151.016   119427009.536                    92887663.469    22302154.203  
  22302150.379  
  22117131.531   116226314.655    22117138.148    90565993.8634                 
                
  20854339.594   111400184.801                    86644591.344    20854343.117  
  20854338.996  
  20561207.516   108049920.016    20561213.898    84194796.6694   20561213.723  
                
  24091349.641   126600892.081    24091358.965    98650096.7574   24091359.051  
                
  19272321.133   103166263.619                    80240434.588    19272325.242  
  19272319.988  
  22154767.695   118097388.716                    91853527.347    22154772.762  
  22154767.422  
  20427866.469   109007018.798                    84783239.562    20427870.039  
  20427864.480  
 21  8 16 18 30 50.0000000  0 16G 4G16G14G30G 9G 5R13G 8R 4G20R12G 7
                                G27R 3R14R 2
  23272290.320   122296741.604    23272298.754    95296208.8164   23272298.777  
                
  24269977.328   127539636.363    24269983.375    99381581.1654                 
                
  24479052.477   128638295.871    24479061.652   100237662.6894   24479061.453  
                
  21660804.445   113828339.663    21660813.539    88697464.8134   21660813.773  
                
  20835656.539   109492150.223    20835665.254    85318612.2444   20835665.117  
                
  24303841.531   127717549.283    24303848.875    99520203.6414   24303848.961  
                
  19200025.055   102527080.593                    79743326.972    19200027.898  
  19200023.027  
  24123365.500   126769146.762    24123376.066    98781198.5734   24123376.480  
                
  22294942.969   119388410.953                    92857642.364    22294946.184  
  22294942.352  
  22114653.602   116213293.096    22114660.215    90555847.1934                 
                
  20860293.352   111431988.744                    86669327.731    20860296.852  
  20860292.750  
  20561158.688   108049663.453    20561165.055    84194596.7504   20561164.883  
                
  24089212.031   126589658.940    24089221.387    98641343.6684   24089221.453  
                
  19270425.172   103156114.403                    80232540.747    19270429.281  
  19270424.023  
  22147895.789   118060757.871                    91825036.713    22147900.918  
  22147895.539  
  20433271.953   109035863.517                    84805674.331    20433275.527  
  20433269.949  
 21  8 16 18 31  0.0000000  0 16G 4G16G14G30G 9G 5R13G 8R 4G20R12G 7
                                G27R 3R14R 2
  23277814.602   122325771.556    23277822.988    95318829.5694   23277823.023  
                
  24276509.328   127573962.183    24276515.238    99408328.5754                 
                
  24471788.555   128600123.897    24471797.730   100207918.3084   24471797.531  
                
  21657055.922   113808641.076    21657065.031    88682115.2714   21657065.250  
                
  20838471.125   109506940.948    20838479.836    85330137.4864   20838479.695  
                
  24298140.430   127687589.640    24298147.715    99496858.4824   24298147.809  
                
  19199254.172   102522964.183                    79740125.333    19199256.988  
  19199252.125  
  24118979.094   126746096.307    24118989.715    98763237.1834   24118990.156  
                
  22287738.508   119349831.395                    92827636.059    22287741.777  
  22287737.914  
  22112187.727   116200334.822    22112194.328    90545749.8404                 
                
  20866253.953   111463829.220                    86694092.561    20866257.457  
  20866253.363  
  20561116.195   108049440.157    20561122.547    84194422.7574   20561122.387  
                
  24087085.547   126578484.293    24087094.941    98632636.1764   24087095.008  
                
  19268542.664   103146037.183                    80224702.915    19268546.773  
  19268541.500  
  22141030.555   118024162.729                    91796573.856    22141035.770  
  22141030.352  
  20438688.180   109064765.481                    84828153.631    20438691.770  
  20438686.184  
 21  8 16 18 31 10.0000000  0 16G 4G16G14G30G 9G 5R13G 8R 4G20R12G 7
                                G27R 3R14R 2
  23283343.078   122354823.779    23283351.449    95341467.6584   23283351.523  
                
  24283047.359   127608319.790    24283053.160    99435100.7474                 
                
  24464525.766   128561957.747    24464534.902   100178178.4684   24464534.719  
                
  21653313.211   113788973.072    21653322.301    88666789.5534   21653322.520  
                
  20841293.789   109521774.115    20841302.496    85341695.7874   20841302.344  
                
  24292446.312   127657666.743    24292453.551    99473541.9534   24292453.641  
                
  19198497.070   102518921.324                    79736980.894    19198499.848  
  19198495.023  
  24114599.258   126723080.354    24114609.914    98745302.6864   24114610.352  
                
  22280537.578   119311270.668                    92797644.406    22280540.867  
  22280536.977  
  22109733.836   116187439.536    22109740.438    90535701.5624                 
                
  20872221.297   111495705.784                    86718885.441    20872224.793  
  20872220.703  
  20561079.945   108049249.681    20561086.277    84194274.3354   20561086.141  
                
  24084970.148   126567367.858    24084979.547    98623974.0434   24084979.609  
                
  19266673.484   103136031.336                    80216920.585    19266677.582  
  19266672.320  
  22134171.922   117987602.770                    91768138.356    22134177.180  
  22134171.738  
  20444114.977   109093723.899                    84850676.831    20444118.562  
  20444113.004  
 21  8 16 18 31 20.0000000  0 16G 4G16G14G30G 9G 5R13G 8R 4G20R12G 7
                                G27R 3R14R 2
  23288875.789   122383898.304    23288884.223    95364123.1294   23288884.305  
                
  24289591.430   127642709.140    24289597.148    99461897.6434                 
                
  24457264.125   128523797.583    24457273.191   100148443.2914   24457273.039  
                
  21649576.359   113769335.794    21649585.422    88651487.7804   21649585.652  
                
  20844124.523   109536649.771    20844133.227    85353287.2014   20844133.062  
                
  24286759.242   127627780.988    24286766.500    99450254.3874   24286766.605  
                
  19197753.711   102514951.868                    79733893.554    19197756.496  
  19197751.664  
  24110226.086   126700099.317    24110236.762    98727395.3964   24110237.207  
                
  22273340.156   119272728.885                    92767667.470    22273343.469  
  22273339.531  
  22107291.945   116174607.312    22107298.547    90525702.4224                 
                
  20878195.398   111527618.372                    86743706.332    20878198.863  
  20878194.812  
  20561049.961   108049092.143    20561056.281    84194151.5794   20561056.160  
                
  24082865.859   126556309.760    24082875.250    98615357.3684   24082875.297  
                
  19264817.703   103126097.226                    80209194.046    19264821.793  
  19264816.516  
  22127319.945   117951078.286                    91739730.429    22127325.227  
  22127319.785  
  20449552.391   109122738.938                    84873244.076    20449555.953  
  20449550.438  
 21  8 16 18 31 30.0000000  0 16G 4G16G14G30G 9G 5R13G 8R 4G20R12G 7
                                G27R 3R14R 2
  23294412.742   122412995.180    23294421.281    95386795.9994   23294421.348  
                
  24296141.578   127677130.250    24296147.234    99488719.3214                 
                
  24450003.695   128485643.552    24450012.656   100118712.8864   24450012.539  
                
  21645845.352   113749729.271    21645854.395    88636209.9794   21645854.633  
                
  20846963.375   109551567.982    20846972.059    85364911.7684   20846971.895  
                
  24281079.203   127597932.296    24281086.457    99426995.7014   24281086.602  
                
  19197024.117   102511055.857                    79730863.321    19197026.891  
  19197022.055  
  24105859.578   126677153.357    24105870.301    98709515.4404   24105870.738  
                
  22266146.289   119234206.222                    92737705.418    22266149.613  
  22266145.609  
  22104862.086   116161838.276    22104868.676    90515752.5344                 
                
  20884176.227   111559566.862                    86768555.162    20884179.660  
  20884175.648  
  20561026.242   108048967.481    20561032.551    84194054.4404   20561032.441  
                
  24080772.711   126545310.158    24080782.066    98606786.2644   24080782.105  
                
  19262975.320   103116234.829                    80201523.296    19262979.402  
  19262974.121  
  22120474.719   117914589.525                    91711350.292    22120480.004  
  22120474.562  
  20455000.312   109151809.991                    84895854.875    20455003.863  
  20454998.363  
 21  8 16 18 31 40.0000000  0 16G 4G16G14G30G 9G 5R13G 8R 4G20R12G 7
                                G27R 3R14R 2
  23299953.930   122442114.263    23299962.574    95409486.1664   23299962.613  
                
  24302697.734   127711582.972    24302703.359    99515565.5774                 
                
  24442744.422   128447495.635    24442753.293   100088987.2554   24442753.172  
                
  21642120.195   113730153.471    21642129.223    88620956.1164   21642129.477  
                
  20849810.305   109566528.679    20849818.969    85376569.4524   20849818.816  
                
  24275406.211   127568120.692    24275413.465    99403765.8914   24275413.656  
                
  19196308.281   102507233.402                    79727890.304    19196311.062  
  19196306.211  
  24101499.750   126654242.358    24101510.449    98691662.7224   24101510.895  
                
  22258956.031   119195702.910                    92707758.399    22258959.371  
  22258955.289  
  22102444.227   116149132.375    22102450.809    90505851.8274                 
                
  20890163.750   111591551.136                    86793431.835    20890167.156  
  20890163.148  
  20561008.750   108048875.620    20561015.043    84193982.8604   20561014.938  
                
  24078690.695   126534369.068    24078699.973    98598260.7464   24078700.031  
                
  19261146.367   103106444.315                    80193908.448    19261150.453  
  19261145.148  
  22113636.195   117878136.374                    91682997.848    22113641.465  
  22113636.031  
  20460458.836   109180937.661                    84918509.720    20460462.391  
  20460456.902  
 21  8 16 18 31 50.0000000  0 16G 4G16G14G30G 9G 5R13G 8R 4G20R12G 7
                                G27R 3R14R 2
  23305499.406   122471255.764    23305508.125    95432193.8234   23305508.129  
                
  24309259.914   127746067.346    24309265.547    99542436.5464                 
                
  24435486.375   128409354.198    24435495.168   100059266.6774   24435495.055  
                
  21638400.938   113710608.658    21638409.973    88605726.3984   21638410.215  
                
  20852665.367   109581532.091    20852674.008    85388260.4164   20852673.863  
                
  24269740.359   127538346.559    24269747.594    99380565.3094   24269747.816  
                
  19195606.266   102503484.665                    79724974.618    19195609.059  
  19195604.211  
  24097146.656   126631366.717    24097157.312    98673837.5534   24097157.766  
                
  22251769.445   119157219.173                    92677826.638    22251772.816  
  22251768.652  
  22100038.445   116136489.916    22100045.023    90496000.5604                 
                
  20896157.961   111623571.156                    86818336.277    20896161.371  
  20896157.352  
  20560997.578   108048816.884    20561003.867    84193937.0904   20561003.766  
                
  24076619.883   126523486.808    24076629.102    98589781.0594   24076629.156  
                
  19259330.898   103096725.982                    80186349.737    19259334.980  
  19259329.664  
  22106804.383   117841719.090                    91654673.325    22106809.672  
  22106804.199  
  20465927.906   109210121.539                    84941208.302    20465931.465  
  20465926.008  
 21  8 16 18 32  0.0000000  0 16G 4G16G14G30G 9G 5R13G 8R 4G20R12G 7
                                G27R 3R14R 2
  23311049.078   122500419.272    23311057.859    95454918.6364   23311057.801  
                
  24315828.008   127780582.875    24315833.586    99569331.7994                 
                
  24428229.516   128371218.935    24428238.184   100029550.8914   24428238.113  
                
  21634687.492   113691094.427    21634696.527    88590520.5074   21634696.762  
                
  20855528.469   109596577.812    20855537.082    85399984.3474   20855536.949  
                
  24264081.602   127508609.557    24264088.750    99357393.6144   24264088.996  
                
  19194917.914   102499808.966                    79722115.745    19194920.723  
  19194915.852  
  24092800.227   126608526.130    24092810.855    98656039.7114   24092811.320  
                
  22244586.453   119118754.707                    92647909.853    22244589.828  
  22244585.668  
  22097644.688   116123910.628    22097651.254    90486198.5194                 
                
  20902158.789   111655626.555                    86843268.248    20902162.184  
  20902158.156  
  20560992.609   108048790.800    20560998.902    84193916.7654   20560998.797  
                
  24074560.180   126512663.010    24074569.363    98581346.9384   24074569.406  
                
  19257528.836   103087079.451                    80178846.880    19257532.922  
  19257527.590  
  22099979.336   117805337.441                    91626376.512    22099984.562  
  22099979.043  
  20471407.508   109239361.695                    84963950.634    20471411.047  
  20471405.641  
 21  8 16 18 32 10.0000000  0 16G 4G16G14G30G 9G 5R13G 8R 4G20R12G 7
                                G27R 3R14R 2
  23316603.000   122529605.121    23316611.793    95477660.8594   23316611.715  
                
  24322402.078   127815129.807    24322407.609    99596251.4684                 
                
  24420973.930   128333090.273    24420982.477    99999840.2674   24420982.469  
                
  21630979.945   113671611.157    21630988.973    88575338.7404   21630989.227  
                
  20858399.695   109611666.169    20858408.289    85411741.5024   20858408.164  
                
  24258430.016   127478910.217    24258437.086    99334251.2934   24258437.359  
                
  19194243.344   102496206.830                    79719314.096    19194246.172  
  19194241.289  
  24088460.555   126585720.979    24088471.133    98638269.4534   24088471.590  
                
  22237407.188   119080310.011                    92618008.406    22237410.523  
  22237406.422  
  22095263.023   116111394.876    22095269.582    90476445.9904                 
                
  20908166.273   111687717.442                    86868227.828    20908169.660  
  20908165.625  
  20560993.914   108048797.667    20561000.223    84193922.1194   20561000.113  
                
  24072511.688   126501898.125    24072520.824    98572958.7304   24072520.883  
                
  19255740.281   103077505.230                    80171400.260    19255744.367  
  19255739.027  
  22093160.938   117768991.842                    91598107.721    22093166.227  
  22093160.672  
  20476897.609   109268657.750                    84986736.450    20476901.145  
  20476895.777  
 21  8 16 18 32 20.0000000  0 16G 4G16G14G30G 9G 5R13G 8R 4G20R12G 7
                                G27R 3R14R 2
  23322161.094   122558813.150    23322169.922    95500420.3444   23322169.828  
                
  24328982.086   127849707.881    24328987.625    99623195.4284                 
                
  24413719.562   128294968.168    24413728.016    99970134.7494   24413728.055  
                
  21627278.258   113652158.696    21627287.277    88560180.9844   21627287.547  
                
  20861279.016   109626797.058    20861287.605    85423531.7974   20861287.484  
                
  24252785.547   127449248.316    24252792.531    99311138.1274   24252792.848  
                
  19193582.508   102492678.050                    79716569.495    19193585.340  
  19193580.461  
  24084127.672   126562951.324    24084138.145    98620526.8754   24084138.605  
                
  22230231.609   119041885.063                    92588122.355    22230234.949  
  22230230.891  
  22092893.414   116098942.508    22092899.949    90466742.8454                 
                
  20914180.375   111719843.672                    86893214.894    20914183.754  
  20914179.738  
  20561001.461   108048837.338    20561007.781    84193953.0304   20561007.664  
                
  24070474.391   126491192.071    24070483.496    98564616.3574   24070483.551  
                
  19253965.219   103068003.190                    80164009.770    19253969.301  
  19253963.961  
  22086349.336   117732682.217                    91569866.915    22086354.617  
  22086349.047  
  20482398.266   109298010.201                    85009566.115    20482401.785  
  20482396.453  
 21  8 16 18 32 30.0000000  0 16G 4G16G14G30G 9G 5R13G 8R 4G20R12G 7
                                G27R 3R14R 2
  23327723.406   122588043.381    23327732.246    95523197.1324   23327732.160  
                
  24335568.008   127884317.072    24335573.574    99650163.6404                 
                
  24406466.484   128256852.769    24406474.902    99940434.4624   24406474.957  
                
  21623582.461   113632737.158    21623591.477    88545047.3194   21623591.758  
                
  20864166.430   109641970.509    20864175.020    85435355.2654   20864174.898  
                
  24247148.258   127419624.145    24247155.223    99288054.3664   24247155.555  
                
  19192935.406   102489222.623                    79713881.949    19192938.262  
  19192933.352  
  24079801.539   126540217.383    24079811.992    98602812.1354   24079812.469  
                
  22223059.750   119003480.088                    92558251.850    22223063.109  
  22223059.066  
  22090535.906   116086553.660    22090542.410    90457089.1994                 
                
  20920201.070   111752005.090                    86918229.342    20920204.434  
  20920200.449  
  20561015.250   108048909.825    20561021.586    84194009.5124   20561021.457  
                
  24068448.312   126480545.024    24068457.453    98556319.9754   24068457.473  
                
  19252203.688   103058573.579                    80156675.634    19252207.773  
  19252202.422  
  22079544.594   117696408.754                    91541654.250    22079549.797  
  22079544.242  
  20487909.383   109327418.439                    85032439.193    20487912.918  
  20487907.598  
 21  8 16 18 32 40.0000000  0 16G 4G16G14G30G 9G 5R13G 8R 4G20R12G 7
                                G27R 3R14R 2
  23333289.961   122617295.760    23333298.793    95545991.1894   23333298.727  
                
  24342159.820   127918957.274    24342165.430    99677156.0404                 
                
  24399214.695   128218744.159    24399223.082    99910739.4674   24399223.145  
                
  21619892.539   113613346.534    21619901.578    88529937.7454   21619901.855  
                
  20867061.945   109657186.515    20867070.547    85447211.8834   20867070.422  
                
  24241518.180   127390037.821    24241525.082    99265000.0894   24241525.426  
                
  19192302.016   102485840.361                    79711251.312    19192304.879  
  19192299.969  
  24075482.188   126517519.080    24075492.602    98585125.1454   24075493.086  
                
  22215891.641   118965095.166                    92528396.925    22215895.012  
  22215890.945  
  22088190.492   116074228.392    22088196.934    90447485.0914                 
                
  20926228.320   111784201.516                    86943270.999    20926231.676  
  20926227.703  
  20561035.289   108049015.154    20561041.641    84194091.5864   20561041.508  
                
  24066433.461   126469956.981    24066442.641    98548069.5784   24066442.641  
                
  19250455.688   103049216.402                    80149397.828    19250459.789  
  19250454.422  
  22072746.547   117660171.412                    91513469.683    22072751.758  
  22072746.191  
  20493431.031   109356882.892                    85055355.976    20493434.555  
  20493429.246  
 21  8 16 18 32 50.0000000  0 16G 4G16G14G30G 9G 5R13G 8R 4G20R12G 7
                                G27R 3R14R 2
  23338860.719   122646570.184    23338869.535    95568802.4264   23338869.465  
                
  24348757.484   127953628.271    24348763.156    99704172.3754                 
                
  24391964.203   128180642.338    24391972.555    99881049.7574   24391972.613  
                
  21616208.477   113593986.705    21616217.547    88514852.1744   21616217.789  
                
  20869965.539   109672444.963    20869974.148    85459101.5814   20869974.016  
                
  24235895.305   127360489.417    24235902.195    99241975.3694   24235902.574  
                
  19191682.312   102482531.264                    79708677.583    19191685.195  
  19191680.262  
  24071169.680   126494856.856    24071180.098    98567466.2674   24071180.543  
                
  22208727.289   118926730.353                    92498557.623    22208730.609  
  22208726.582  
  22085857.172   116061966.693    22085863.543    90437930.5244                 
                
  20932262.109   111816432.890                    86968339.833    20932265.457  
  20932261.492  
  20561061.555   108049153.197    20561067.922    84194199.1564   20561067.773  
                
  24064429.844   126459427.965    24064438.977    98539865.1694   24064439.020  
                
  19248721.227   103039931.764                    80142176.446    19248725.340  
  19248719.965  
  22065955.320   117623970.408                    91485313.352    22065960.531  
  22065954.930  
  20498963.148   109386403.220                    85078316.215    20498966.660  
  20498961.355  
 21  8 16 18 33  0.0000000  0 16G 4G16G14G30G 9G 5R13G 8R 4G20R12G 7
                                G27R 3R14R 2
  23344435.672   122675866.577    23344444.441    95591630.8004   23344444.371  
                
  24355360.969   127988329.973    24355366.742    99731212.6294                 
                
  24384714.992   128142547.365    24384723.336    99851365.3774   24384723.355  
                
  21612530.281   113574657.721    21612539.379    88499790.6384   21612539.613  
                
  20872877.203   109687745.838    20872885.805    85471024.3324   20872885.684  
                
  24230279.648   127330979.006    24230286.523    99218980.2374   24230286.895  
                
  19191076.266   102479295.059                    79706160.533    19191079.133  
  19191074.207  
  24066863.992   126472230.415    24066874.414    98549835.2904   24066874.848  
                
  22201566.719   118888385.798                    92468734.102    22201570.008  
  22201566.023  
  22083535.945   116049768.546    22083542.273    90428425.4764                 
                
  20938302.367   111848698.844                    86993435.574    20938305.730  
  20938301.777  
  20561094.055   108049323.965    20561100.418    84194332.2174   20561100.262  
                
  24062437.477   126448958.026    24062446.570    98531706.7914   24062446.621  
                
  19247000.312   103030719.601                    80135011.422    19247004.418  
  19246999.059  
  22059170.875   117587805.435                    91457185.080    22059176.090  
  22059170.477  
  20504505.703   109415979.256                    85101319.790    20504509.207  
  20504503.918  
 21  8 16 18 33 10.0000000  0 16G 4G16G14G30G 9G 5R13G 8R 4G20R12G 7
                                G27R 3R14R 2
  23350014.820   122705185.211    23350023.566    95614476.4794   23350023.492  
                
  24361970.281   128023062.485    24361976.156    99758276.9154                 
                
  24377467.102   128104459.560    24377475.457    99821686.5794   24377475.465  
                
  21608858.000   113555359.784    21608867.109    88484753.2894   21608867.332  
                
  20875796.984   109703089.356    20875805.578    85482980.3144   20875805.465  
                
  24224671.297   127301506.917    24224678.148    99196014.9674   24224678.539  
                
  19190484.039   102476132.612                    79703700.858    19190486.918  
  19190481.973  
  24062565.219   126449640.241    24062575.637    98532232.5744   24062576.078  
                
  22194409.969   118850061.774                    92438926.537    22194413.266  
  22194409.305  
  22081226.867   116037634.237    22081233.176    90418970.1714                 
                
  20944349.156   111880999.726                    87018558.485    20944352.512  
  20944348.602  
  20561132.797   108049527.572    20561139.160    84194490.8794   20561139.008  
                
  24060456.414   126438547.449    24060465.434    98523594.6584   24060465.516  
                
  19245293.023   103021580.314                    80127903.090    19245297.129  
  19245291.773  
  22052393.375   117551677.097                    91429085.284    22052398.504  
  22052392.934  
  20510058.781   109445611.453                    85124367.049    20510062.285  
  20510056.996  
 21  8 16 18 33 20.0000000  0 16G 4G16G14G30G 9G 5R13G 8R 4G20R12G 7
                                G27R 3R14R 2
  23355598.172   122734525.828    23355606.906    95637339.2854   23355606.836  
                
  24368585.406   128057825.430    24368591.332    99785364.9184                 
                
  24370220.570   128066378.837    24370228.961    99792013.3124   24370228.930  
                
  21605191.594   113536092.748    21605200.715    88469740.0174   21605200.941  
                
  20878724.844   109718475.337    20878733.438    85494969.3834   20878733.336  
                
  24219070.172   127272072.906    24219077.035    99173079.4084   24219077.430  
                
  19189905.484   102473043.214                    79701297.996    19189908.355  
  19189903.438  
  24058273.336   126427086.270    24058283.742    98514658.0624   24058284.207  
                
  22187257.039   118811758.198                    92409134.882    22187260.375  
  22187256.434  
  22078929.898   116025563.605    22078936.238    90409564.5074                 
                
  20950402.422   111913335.138                    87043708.235    20950405.793  
  20950401.867  
  20561177.758   108049763.847    20561184.102    84194674.9894   20561183.945  
                
  24058486.625   126428196.144    24058495.590    98515528.7094   24058495.688  
                
  19243599.289   103012513.655                    80120851.237    19243603.387  
  19243598.047  
  22045622.625   117515585.317                    91401013.923    22045627.750  
  22045622.219  
  20515622.219   109475299.006                    85147457.366    20515625.746  
  20515620.418  
 21  8 16 18 33 30.0000000  0 16G 4G16G14G30G 9G 5R13G 8R 4G20R12G 7
                                G27R 3R14R 2
  23361185.742   122763888.502    23361194.469    95660219.2774   23361194.398  
                
  24375206.375   128092618.883    24375212.293    99812476.7134                 
                
  24362975.320   128028305.380    24362983.844    99762345.6914   24362983.789  
                
  21601531.094   113516856.724    21601540.215    88454750.9234   21601540.430  
                
  20881660.805   109733903.870    20881669.398    85506991.6094   20881669.316  
                
  24213476.328   127242677.165    24213483.211    99150173.6464   24213483.586  
                
  19189340.609   102470026.796                    79698951.909    19189343.492  
  19189338.582  
  24053988.406   126404568.837    24053998.812    98497112.0084   24053999.273  
                
  22180107.977   118773475.298                    92379359.273    22180111.293  
  22180107.387  
  22076645.086   116013556.852    22076651.441    90400208.5934                 
                
  20956462.125   111945704.951                    87068884.786    20956465.508  
  20956461.566  
  20561228.953   108050032.901    20561235.270    84194884.6404   20561235.129  
                
  24056528.141   126417904.272    24056537.125    98507509.0804   24056537.238  
                
  19241919.203   103003520.023                    80113856.192    19241923.301  
  19241917.957  
  22038858.727   117479530.011                    91372970.895    22038863.859  
  22038858.324  
  20521196.102   109505042.335                    85170591.038    20521199.641  
  20521194.301  
 21  8 16 18 33 40.0000000  0 16G 4G16G14G30G 9G 5R13G 8R 4G20R12G 7
                                G27R 3R14R 2
  23366777.484   122793273.152    23366786.203    95683116.4134   23366786.148  
                
  24381833.109   128127442.669    24381839.043    99839612.1284                 
                
  24355731.492   127990239.214    24355740.039    99732683.7594   24355740.012  
                
  21597876.492   113497651.668    21597885.621    88439785.9484   21597885.832  
                
  20884604.844   109749374.905    20884613.449    85519046.9454   20884613.375  
                
  24207889.812   127213319.853    24207896.754    99127297.8414   24207897.078  
                
  19188789.430   102467083.532                    79696662.716    19188792.289  
  19188787.434  
  24049710.367   126382087.691    24049720.793    98479594.2334   24049721.246  
                
  22172962.805   118735213.279                    92349599.944    22172966.113  
  22172962.215  
  22074372.398   116001613.774    22074378.742    90390902.3004                 
                
  20962528.258   111978109.120                    87094088.007    20962531.637  
  20962527.711  
  20561286.375   108050334.648    20561292.660    84195119.7674   20561292.527  
                
  24054580.969   126407671.829    24054589.988    98499535.7794   24054590.090  
                
  19240252.734   102994599.300                    80106917.841    19240256.832  
  19240251.488  
  22032101.711   117443511.373                    91344956.446    22032106.836  
  22032101.309  
  20526780.398   109534841.209                    85193767.928    20526783.957  
  20526778.566  
 21  8 16 18 33 50.0000000  0 16G 4G16G14G30G 9G 5R13G 8R 4G20R12G 7
                                G27R 3R14R 2
  23372373.406   122822679.744    23372382.141    95706030.6364   23372382.098  
                
  24388465.578   128162296.610    24388471.547    99866771.0354                 
                
  24348489.055   127952180.419    24348497.625    99703027.5874   24348497.629  
                
  21594227.773   113478477.579    21594236.906    88424845.1104   21594237.125  
                
  20887556.961   109764888.403    20887565.590    85531135.3864   20887565.512  
                
  24202310.594   127184000.991    24202317.609    99104451.9714   24202317.918  
                
  19188251.953   102464213.528                    79694430.500    19188254.801  
  19188249.961  
  24045439.281   126359643.222    24045449.758    98462105.0684   24045450.172  
                
  22165821.570   118696972.263                    92319856.920    22165824.859  
  22165821.004  
  22072111.875   115989734.644    22072118.191    90381645.8264                 
                
  20968600.773   112010547.422                    87119317.797    20968604.148  
  20968600.246  
  20561350.008   108050669.068    20561356.258    84195380.3614   20561356.141  
                
  24052645.125   126397498.897    24052654.168    98491608.8254   24052654.230  
                
  19238599.898   102985751.682                    80100036.362    19238604.020  
  19238598.660  
  22025351.586   117407529.521                    91316970.595    22025356.688  
  22025351.203  
  20532375.125   109564695.730                    85216988.107    20532378.688  
  20532373.266  
 21  8 16 18 34  0.0000000  0 16G 4G16G14G30G 9G 5R13G 8R 4G20R12G 7
                                G27R 3R14R 2
  23377973.508   122852108.262    23377982.305    95728961.9254   23377982.219  
                
  24395103.766   128197180.657    24395109.805    99893953.4314                 
                
  24341248.008   127914129.087    24341256.648    99673377.2224   24341256.676  
                
  21590584.961   113459334.477    21590594.086    88409928.4014   21590594.305  
                
  20890517.172   109780444.371    20890525.824    85543256.9094   20890525.750  
                
  24196738.766   127154720.804    24196745.832    99081636.2504   24196746.117  
                
  19187728.109   102461416.202                    79692254.812    19187730.945  
  19187726.105  
  24041175.211   126337235.353    24041185.684    98444644.4044   24041186.094  
                
  22158684.203   118658752.119                    92290130.183    22158687.504  
  22158683.629  
  22069863.523   115977919.495    22069869.812    90372439.2124                 
                
  20974679.695   112043019.870                    87144574.134    20974683.055  
  20974679.180  
  20561419.859   108051036.140    20561426.078    84195666.3884   20561425.996  
                
  24050720.617   126387385.533    24050729.695    98483728.2964   24050729.754  
                
  19236960.711   102976977.108                    80093211.691    19236964.855  
  19236959.484  
  22018608.352   117371584.376                    91289013.260    22018613.402  
  22018607.980  
  20537980.203   109594605.503                    85240251.247    20537983.785  
  20537978.309  
 21  8 16 18 34 10.0000000  0 16G 4G16G14G30G 9G 5R13G 8R 4G20R12G 7
                                G27R 3R14R 2
  23383577.734   122881558.690    23383586.609    95751910.3034   23383586.461  
                
  24401747.672   128232094.782    24401753.805    99921159.2284                 
                
  24334008.391   127876085.360    24334017.133    99643732.7844   24334017.176  
                
  21586948.047   113440222.419    21586957.160    88395035.8914   21586957.398  
                
  20893485.461   109796042.847    20893494.152    85555411.5624   20893494.066  
                
  24191174.320   127125479.488    24191181.398    99058850.8344   24191181.680  
                
  19187217.992   102458692.241                    79690136.175    19187220.836  
  19187215.988  
  24036918.141   126314864.309    24036928.594    98427212.4264   24036929.066  
                
  22151550.773   118620553.191                    92260419.916    22151554.117  
  22151550.148  
  22067627.352   115966168.326    22067633.609    90363282.4764                 
                
  20980764.977   112075526.310                    87169856.929    20980768.312  
  20980764.453  
  20561495.922   108051435.866    20561502.109    84195977.8654   20561502.051  
                
  24048807.453   126377331.880    24048816.578    98475894.3034   24048816.613  
                
  19235335.188   102968275.793                    80086444.002    19235339.379  
  19235333.980  
  22011872.016   117335676.142                    91261084.634    22011877.062  
  22011871.652  
  20543595.641   109624570.549                    85263557.385    20543599.227  
  20543593.719  
 21  8 16 18 34 20.0000000  0 16G 4G16G14G30G 9G 5R13G 8R 4G20R12G 7
                                G27R 3R14R 2
  23389186.117   122911030.949    23389194.996    95774875.6824   23389194.820  
                
  24408397.195   128267038.702    24408403.449    99948388.2204                 
                
  24326770.305   127838049.233    24326779.070    99614094.2714   24326779.121  
                
  21583317.031   113421141.316    21583326.145    88380167.5104   21583326.391  
                
  20896461.828   109811683.734    20896470.570    85567599.2664   20896470.465  
                
  24185617.234   127096276.833    24185624.336    99036095.5394   24185624.598  
                
  19186721.516   102456041.115                    79688074.196    19186724.367  
  19186719.508  
  24032668.078   126292529.999    24032678.488    98409809.1004   24032678.988  
                
  22144421.336   118582375.547                    92230726.214    22144424.738  
  22144420.645  
  22065403.359   115954481.185    22065409.574    90354175.6114                 
                
  20986856.555   112108066.396                    87195165.858    20986859.879  
  20986856.027  
  20561578.203   108051868.234    20561584.371    84196314.7764   20561584.312  
                
  24046905.664   126367337.901    24046914.812    98468106.8004   24046914.844  
                
  19233723.328   102959647.722                    80079733.273    19233727.574  
  19233722.160  
  22005142.656   117299804.821                    91233184.747    22005147.637  
  22005142.285  
  20549221.484   109654591.074                    85286906.679    20549225.070  
  20549219.559  
 21  8 16 18 34 30.0000000  0 16G 4G16G14G30G 9G 5R13G 8R 4G20R12G 7
                                G27R 3R14R 2
  23394798.648   122940524.983    23394807.508    95797858.0354   23394807.352  
                
  24415052.359   128302012.313    24415058.711    99975640.3964                 
                
  24319533.727   127800020.783    24319542.473    99584461.7434   24319542.543  
                
  21579691.906   113402091.161    21579701.027    88365323.2414   21579701.281  
                
  20899446.250   109827366.986    20899455.047    85579819.9814   20899454.910  
                
  24180067.539   127067112.983    24180074.668    99013370.5004   24180074.898  
                
  19186238.656   102453462.698                    79686068.770    19186241.500  
  19186236.648  
  24028425.047   126270232.633    24028435.395    98392434.5254   24028435.902  
                
  22137295.891   118544219.218                    92201049.073    22137299.332  
  22137295.211  
  22063191.547   115942858.026    22063197.723    90345118.6094                 
                
  20992954.445   112140640.146                    87220501.020    20992957.750  
  20992953.934  
  20561666.672   108052333.119    20561672.820    84196677.0284   20561672.766  
                
  24045015.234   126357403.656    24045024.375    98460365.8524   24045024.441  
                
  19232125.188   102951092.872                    80073079.502    19232129.453  
  19232124.027  
  21998420.148   117263970.513                    91205313.651    21998425.168  
  21998419.844  
  20554857.602   109684666.501                    85310298.680    20554861.191  
  20554855.672  
 21  8 16 18 34 40.0000000  0 16G 4G16G14G30G 9G 5R13G 8R 4G20R12G 7
                                G27R 3R14R 2
  23400415.328   122970040.623    23400424.129    95820857.2324   23400423.996  
                
  24421713.133   128337015.424    24421719.543   100002915.5344                 
                
  24312298.602   127761999.987    24312307.395    99554835.1854   24312307.430  
                
  21576072.656   113383071.887    21576081.789    88350503.0354   21576082.039  
                
  20902438.719   109843092.512    20902447.566    85592073.6344   20902447.410  
                
  24174525.250   127037987.962    24174532.379    98990675.6874   24174532.586  
                
  19185769.445   102450957.144                    79684120.020    19185772.262  
  19185767.457  
  24024189.016   126247972.174    24024199.336    98375088.7224   24024199.848  
                
  22130174.453   118506084.296                    92171388.589    22130177.902  
  22130173.801  
  22060991.898   115931298.797    22060998.039    90336111.4164                 
                
  20999058.578   112173247.218                    87245862.070    20999061.871  
  20999058.070  
  20561761.305   108052830.406    20561767.445    84197064.5324   20561767.387  
                
  24043136.164   126347529.073    24043145.270    98452671.3884   24043145.359  
                
  19230540.727   102942611.319                    80066482.744    19230545.043  
  19230539.590  
  21991704.477   117228173.057                    91177471.208    21991709.605  
  21991704.262  
  20560504.062   109714797.152                    85333733.633    20560507.684  
  20560502.117  
 21  8 16 18 34 50.0000000  0 16G 4G16G14G30G 9G 5R13G 8R 4G20R12G 7
                                G27R 3R14R 2
  23406036.172   122999578.163    23406044.914    95843873.4944   23406044.758  
                
  24428379.531   128372048.155    24428386.012   100030213.7304                 
                
  24305065.023   127723987.220    24305073.867    99525214.8774   24305073.844  
                
  21572459.320   113364083.757    21572468.469    88335707.0934   21572468.703  
                
  20905439.289   109858860.585    20905448.172    85604360.4394   20905448.000  
                
  24168990.398   127008902.225    24168997.551    98968011.4884   24168997.766  
                
  19185313.852   102448524.309                    79682227.827    19185316.668  
  19185311.883  
  24019960.094   126225749.112    24019970.391    98357772.0684   24019970.926  
                
  22123057.086   118467971.125                    92141745.009    22123060.516  
  22123056.438  
  22058804.484   115919803.875    22058810.574    90327154.3434                 
                
  21005168.992   112205887.950                    87271249.301    21005172.281  
  21005168.469  
  20561862.141   108053360.327    20561868.266    84197477.4634   20561868.211  
                
  24041268.531   126337714.557    24041277.621    98445023.7024   24041277.707  
                
  19228970.070   102934203.488                    80059943.306    19228974.383  
  19228968.918  
  21984995.938   117192412.874                    91149657.750    21985001.055  
  21984995.707  
  20566160.898   109744983.132                    85357211.596    20566164.523  
  20566158.941  
 21  8 16 18 35  0.0000000  0 16G 4G16G14G30G 9G 5R13G 8R 4G20R12G 7
                                G27R 3R14R 2
  23411661.172   123029137.409    23411669.859    95866906.6724   23411669.676  
                
  24435051.602   128407110.184    24435058.121   100057534.8144                 
                
  24297832.953   127685982.415    24297841.852    99495600.7784   24297841.773  
                
  21568851.898   113345126.643    21568861.035    88320935.3294   21568861.281  
                
  20908447.914   109874671.006    20908456.820    85616680.2454   20908456.629  
                
  24163462.992   126979855.557    24163470.141    98945377.7224   24163470.340  
                
  19184871.914   102446164.365                    79680392.326    19184874.723  
  19184869.969  
  24015738.320   126203563.485    24015748.602    98340484.5654   24015749.145  
                
  22115943.742   118429879.645                    92112118.295    22115947.148  
  22115943.109  
  22056629.281   115908373.108    22056635.336    90318247.2654                 
                
  21011285.602   112238561.746                    87296662.250    21011288.902  
  21011285.086  
  20561969.156   108053922.712    20561975.270    84197915.6894   20561975.219  
                
  24039412.289   126327959.952    24039421.363    98437422.7304   24039421.445  
                
  19227413.148   102925869.137                    80053461.048    19227417.469  
  19227411.996  
  21978294.336   117156689.979                    91121873.293    21978299.523  
  21978294.129  
  20571827.977   109775223.775                    85380732.093    20571831.598  
  20571826.020  
 21  8 16 18 35 10.0000000  0 16G 4G16G14G30G 9G 5R13G 8R 4G20R12G 7
                                G27R 3R14R 2
  23417290.258   123058718.249    23417298.887    95889956.6734   23417298.684  
                
  24441729.250   128442201.402    24441735.793   100084878.6384                 
                
  24290602.414   127647985.563    24290611.301    99465992.8694   24290611.215  
                
  21565250.375   113326200.474    21565259.488    88306187.6634   21565259.742  
                
  20911464.578   109890523.726    20911473.508    85629033.0114   20911473.312  
                
  24157943.039   126950848.033    24157950.125    98922774.4624   24157950.359  
                
  19184443.586   102443877.122                    79678613.370    19184446.387  
  19184441.645  
  24011523.648   126181415.280    24011533.984    98323226.2424   24011534.496  
                
  22108834.500   118391810.003                    92082508.580    22108837.895  
  22108833.848  
  22054466.289   115897006.480    22054472.293    90309390.1524                 
                
  21017408.438   112271268.792                    87322101.059    21017411.754  
  21017407.938  
  20562082.344   108054517.496    20562088.434    84198379.1614   20562088.398  
                
  24037567.445   126318265.268    24037576.520    98429868.4434   24037576.605  
                
  19225869.992   102917608.422                    80047036.037    19225874.309  
  19225868.840  
  21971599.711   117121004.260                    91094117.769    21971604.977  
  21971599.547  
  20577505.352   109805519.350                    85404295.314    20577508.980  
  20577503.379  
 21  8 16 18 35 20.0000000  0 16G 4G16G14G30G 9G 5R13G 8R 4G20R12G 7
                                G27R 3R14R 2
  23422923.469   123088320.693    23422931.973    95913023.5184   23422931.801  
                
  24448412.469   128477321.739    24448419.000   100112245.1504                 
                
  24283373.492   127609996.805    24283382.281    99436391.2634   24283382.168  
                
  21561654.742   113307305.310    21561663.836    88291464.1604   21561664.090  
                
  20914489.312   109906418.756    20914498.258    85641418.7374   20914498.062  
                
  24152430.570   126921879.768    24152437.586    98900201.7554   24152437.840  
                
  19184028.875   102441662.556                    79676890.932    19184031.645  
  19184026.910  
  24007316.070   126159304.499    24007326.414    98305997.0654   24007326.898  
                
  22101729.359   118353762.272                    92052915.901    22101732.727  
  22101728.684  
  22052315.508   115885704.079    22052321.480    90300583.0874                 
                
  21023537.414   112304008.726                    87347565.443    21023540.746  
  21023536.938  
  20562201.688   108055144.629    20562207.754    84198867.8414   20562207.727  
                
  24035734.047   126308630.655    24035743.133    98422360.9654   24035743.199  
                
  19224340.625   102909421.436                    80040668.377    19224344.910  
  19224339.473  
  21964912.133   117085355.751                    91066391.182    21964917.395  
  21964911.945  
  20583192.977   109835869.653                    85427901.096    20583196.609  
  20583190.973  
 21  8 16 18 35 30.0000000  0 16G 4G16G14G30G 9G 5R13G 8R 4G20R12G 7
                                G27R 3R14R 2
  23428560.789   123117944.640    23428569.156    95936107.1084   23428569.039  
                
  24455101.188   128512471.057    24455107.723   100139634.2184                 
                
  24276146.016   127572016.179    24276154.793    99406795.9984   24276154.645  
                
  21558064.992   113288441.080    21558074.074    88276764.7684   21558074.352  
                
  20917522.070   109922356.021    20917531.027    85653837.3814   20917530.824  
                
  24146925.562   126892950.845    24146932.527    98877659.7444   24146932.816  
                
  19183627.695   102439520.388                    79675224.801    19183630.465  
  19183625.734  
  24003115.672   126137231.226    24003125.992    98288797.1284   24003126.453  
                
  22094628.250   118315736.375                    92023340.224    22094631.621  
  22094627.586  
  22050176.938   115874465.855    22050182.887    90291826.0314                 
                
  21029672.531   112336781.441                    87373055.333    21029675.863  
  21029672.039  
  20562327.172   108055804.117    20562333.207    84199381.7254   20562333.207  
                
  24033912.047   126299056.060    24033921.184    98414900.2634   24033921.219  
                
  19222824.984   102901307.938                    80034357.876    19222829.246  
  19222823.836  
  21958231.547   117049744.638                    91038693.662    21958236.828  
  21958231.355  
  20588890.828   109866274.555                    85451549.354    20588894.469  
  20588888.832  
 21  8 16 18 35 40.0000000  0 16G 4G16G14G30G 9G 5R13G 8R 4G20R12G 7
                                G27R 3R14R 2
  23434202.211   123147590.358    23434210.543    95959207.6694   23434210.430  
                
  24461795.453   128547649.558    24461802.020   100167046.0244                 
                
  24268920.164   127534044.047    24268928.891    99377207.3504   24268928.738  
                
  21554481.195   113269608.109    21554490.285    88262089.7314   21554490.566  
                
  20920562.938   109938335.837    20920571.895    85666289.1824   20920571.691  
                
  24141428.156   126864061.776    24141435.086    98855148.8054   24141435.395  
                
  19183240.125   102437450.783                    79673615.114    19183242.883  
  19183238.164  
  23998922.484   126115195.917    23998932.820    98271626.7644   23998933.254  
                
  22087531.375   118277733.079                    91993782.123    22087534.746  
  22087530.742  
  22048050.656   115863292.202    22048056.594    90283119.2924                 
                
  21035813.828   112369587.130                    87398570.863    21035817.180  
  21035813.320  
  20562458.883   108056496.233    20562464.887    84199921.0444   20562464.906  
                
  24032101.547   126289541.880    24032110.777    98407486.6394   24032110.789  
                
  19221323.227   102893268.831                    80028105.237    19221327.484  
  19221322.094  
