     2.11           OBSERVATION DATA    M (MIXED)           RINEX VERSION / TYPE
EFT-CORS.RU                             20210817 144931 UTC PGM / RUN BY / DATE 
MDNG                                                        MARKER NAME         
                                                            MARKER NUMBER       
MDNG                EFT-CORS.RU                             OBSERVER / AGENCY   
0                   TRIMBLE BD970       2.0                 REC # / TYPE / VERS 
0                   UNKNOWN EXT NONE                        ANT # / TYPE        
  3463911.2830  3030468.2400  4402179.3760                  APPROX POSITION XYZ 
        0.0000        0.0000        0.0000                  ANTENNA: DELTA H/E/N
     1     1                                                WAVELENGTH FACT L1/2
     6    C1    L1    P2    L2    C2    P1                  # / TYPES OF OBSERV 
    10.000                                                  INTERVAL            
  2021     8    16    20    30    0.0000000     GPS         TIME OF FIRST OBS   
  2021     8    16    21    30    0.0000000     GPS         TIME OF LAST OBS    
     0                                                      RCV CLOCK OFFS APPL 
                                                            END OF HEADER       
 21  8 16 20 30  0.0000000  0 18G17G15G13G14G30G 9G 5R13G 8R 4G20R15
                                G 7R22R23R 3R14R 5
  23954827.383   125883466.735    23954834.863    98091046.4934   23954834.746  
                
  23859713.594   125383634.916    23859720.047    97701566.0494   23859720.020  
                
  21611231.430   113567803.132    21611237.762    88494421.9864                 
                
  20535171.883   107913096.203    20535178.941    84088164.8124   20535178.961  
                
  20550482.820   107993570.896    20550491.609    84150894.1424   20550491.777  
                
  24613638.406   129345568.573    24613647.859   100788805.9094   24613647.832  
                
  22876718.438   120217973.243    22876725.305    93676379.9214   22876725.535  
                
  21366471.305   114095785.986                    88741209.754    21366474.188  
  21366469.512  
  23609570.117   124069160.011    23609578.566    96677319.7654   23609579.227  
                
  19524214.219   104551290.749                    81317661.471    19524216.980  
  19524213.305  
  23383304.047   122880089.293    23383310.973    95750751.3764                 
                
  22096846.508   118078852.971                    91839114.334    22096851.059  
  22096846.512  
  21916119.805   115170031.373    21916126.379    89742934.7254   21916126.359  
                
  23465012.125   125257848.824                    97422781.387    23465014.129  
  23465010.109  
  23051513.977   123310064.859                                                  
  23051512.281  
  21581725.273   115528676.768                    89855642.538    21581729.902  
  21581724.156  
  19493687.977   103912363.030                    80820735.896    19493691.797  
  19493687.559  
  21600170.820   115465291.426                    89806341.514    21600174.613  
  21600170.516  
 21  8 16 20 30 10.0000000  0 18G17G15G13G14G30G 9G 5R13G 8R 4G20R15
                                G 7R22R23R 3R14R 5
  23948388.719   125849631.772    23948396.262    98064681.6034   23948396.133  
                
  23853295.969   125349910.164    23853302.484    97675287.0274   23853302.441  
                
  21606488.188   113542877.263    21606494.551    88474999.2374                 
                
  20532541.383   107899272.836    20532548.402    84077393.3604   20532548.438  
                
  20551181.781   107997243.915    20551190.566    84153756.2294   20551190.738  
                
  24620682.844   129382587.637    24620692.367   100817651.9284   24620692.312  
                
  22878988.555   120229902.759    22878995.406    93685675.6444   22878995.656  
                
  21371921.953   114124892.079                    88763847.832    21371924.789  
  21371920.164  
  23613094.820   124087682.415    23613103.270    96691752.8094   23613103.898  
                
  19525465.344   104557990.465                    81322872.356    19525468.105  
  19525464.438  
  23388467.195   122907221.741    23388474.109    95771893.5344                 
                
  22091484.961   118050202.565                    91816830.713    22091489.527  
  22091485.000  
  21919716.258   115188930.773    21919722.840    89757661.5254   21919722.812  
                
  23466979.688   125268352.124                    97430950.635    23466981.746  
  23466977.793  
  23046256.086   123281938.434                                                  
  23046254.367  
  21589322.664   115569346.200                    89887274.320    21589327.301  
  21589321.566  
  19493393.953   103910795.712                    80819516.878    19493397.785  
  19493393.555  
  21594179.078   115433262.145                    89781429.864    21594182.902  
  21594178.742  
 21  8 16 20 30 20.0000000  0 18G17G15G13G14G30G 9G 5R13G 8R 4G20R15
                                G 7R22R23R 3R14R 5
  23941951.484   125815804.094    23941959.008    98038322.3714   23941958.898  
                
  23846882.992   125316209.825    23846889.527    97649027.0174   23846889.453  
                
  21601751.938   113517988.117    21601758.340    88455605.1044                 
                
  20529921.086   107885503.097    20529928.066    84066663.6994   20529928.121  
                
  20551887.102   108000950.394    20551895.871    84156644.3904   20551896.047  
                
  24627729.578   129419618.550    24627739.098   100846507.1754   24627739.035  
                
  22881269.867   120241891.058    22881276.699    93695017.1724   22881276.953  
                
  21377375.609   114154014.214                    88786498.374    21377378.438  
  21377373.836  
  23616630.555   124106262.809    23616638.980    96706231.0384   23616639.609  
                
  19526733.539   104564781.597                    81328154.346    19526736.297  
  19526732.652  
  23393635.633   122934381.747    23393642.520    95793057.1704                 
                
  22086128.891   118021581.309                    91794569.744    22086133.441  
  22086128.953  
  21923317.000   115207852.712    21923323.590    89772405.8894   21923323.555  
                
  23468963.062   125278939.199                    97439185.015    23468965.047  
  23468961.102  
  23041008.312   123253866.024                                                  
  23041006.523  
  21596927.555   115610055.453                    89918937.069    21596932.145  
  21596926.469  
  19493108.758   103909275.430                    80818334.440    19493112.586  
  19493108.359  
  21588198.023   115401290.098                    89756562.717    21588201.891  
  21588197.648  
 21  8 16 20 30 30.0000000  0 18G17G15G13G14G30G 9G 5R13G 8R 4G20R15
                                G 7R22R23R 3R14R 5
  23935515.758   125781983.967    23935523.176    98011969.0294   23935523.094  
                
  23840474.664   125282534.081    23840481.246    97622786.1724   23840481.195  
                
  21597022.719   113493135.931    21597029.176    88436239.7644                 
                
  20527311.016   107871787.113    20527317.945    84055975.9224   20527318.023  
                
  20552598.805   108004690.425    20552607.555    84159558.7034   20552607.738  
                
  24634778.680   129456661.351    24634788.086   100875371.7104   24634788.016  
                
  22883562.305   120253937.897    22883569.113    93704404.2984   22883569.355  
                
  21382832.281   114183152.520                    88809161.500    21382835.082  
  21382830.504  
  23620177.344   124124901.229    23620185.750    96720754.4834   23620186.383  
                
  19528018.828   104571664.290                    81333507.554    19528021.602  
  19528017.957  
  23398809.297   122961569.374    23398816.164    95814242.3364                 
                
  22080778.289   117992989.328                    91772331.543    22080782.832  
  22080778.379  
  21926922.031   115226797.264    21926928.609    89787167.8664   21926928.578  
                
  23470962.039   125289610.012                    97447484.533    23470964.031  
  23470960.109  
  23035770.594   123225847.770                                                  
  23035768.742  
  21604539.977   115650804.630                    89950630.868    21604544.480  
  21604538.820  
  19492832.430   103907802.474                    80817188.807    19492836.258  
  19492832.035  
  21582227.781   115369375.801                    89731740.485    21582231.676  
  21582227.418  
 21  8 16 20 30 40.0000000  0 18G17G15G13G14G30G 9G 5R13G 8R 4G20R15
                                G 7R22R23R 3R14R 5
  23929081.523   125748171.685    23929088.871    97985621.8044   23929088.809  
                
  23834071.055   125248883.157    23834077.727    97596564.7034   23834077.691  
                
  21592300.625   113468321.171    21592307.129    88416903.5984                 
                
  20524711.219   107858125.125    20524718.090    84045330.2244   20524718.188  
                
  20553316.945   108008464.250    20553325.664    84162499.3484   20553325.879  
                
  24641829.969   129493716.180    24641839.336   100904245.6124   24641839.277  
                
  22885865.914   120266043.436    22885872.672    93713837.1954   22885872.914  
                
  21388291.984   114212307.096                    88831837.283    21388294.789  
  21388290.203  
  23623735.195   124143597.795    23623743.594    96735323.2434   23623744.250  
                
  19529321.242   104578638.670                    81338932.067    19529324.031  
  19529320.375  
  23403988.172   122988784.645    23403995.082    95835449.0304                 
                
  22075433.227   117964426.864                    91750116.278    22075437.734  
  22075433.340  
  21930531.414   115245764.614    21930537.984    89801947.6144   21930537.969  
                
  23472976.797   125300364.852                    97455849.430    23472978.758  
  23472974.879  
  23030543.078   123197884.107                                                  
  23030541.211  
  21612159.844   115691593.728                    89982355.699    21612164.293  
  21612158.641  
  19492565.031   103906377.072                    80816080.156    19492568.867  
  19492564.641  
  21576268.383   115337519.500                    89706963.374    21576272.305  
  21576268.016  
 21  8 16 20 30 50.0000000  0 18G17G15G13G14G30G 9G 5R13G 8R 4G20R15
                                G 7R22R23R 3R14R 5
  23922648.688   125714366.873    23922655.992    97959280.4204   23922655.949  
                
  23827672.117   125215256.690    23827678.812    97570362.2594   23827678.793  
                
  21587585.531   113443543.233    21587592.062    88397596.1194                 
                
  20522121.602   107844516.645    20522128.414    84034726.2194   20522128.543  
                
  20554041.406   108012271.340    20554050.094    84165465.9184   20554050.328  
                
  24648883.445   129530782.472    24648892.797   100933128.4484   24648892.754  
                
  22888180.664   120278207.544    22888187.383    93723315.7074   22888187.660  
                
  21393754.641   114241477.325                    88854525.230    21393757.426  
  21393752.816  
  23627303.938   124162351.688    23627312.332    96749936.6614   23627313.004  
                
  19530640.688   104585704.301                    81344427.554    19530643.480  
  19530639.820  
  23409172.156   123016026.991    23409179.141    95856676.8064                 
                
  22070093.570   117935893.404                    91727923.598    22070098.086  
  22070093.691  
  21934145.016   115264754.201    21934151.613    89816744.6884   21934151.586  
                
  23475007.289   125311202.988                    97464279.077    23475009.051  
  23475005.285  
  23025325.703   123169974.737                                                  
  23025323.859  
  21619787.031   115732422.094                    90014111.090    21619791.434  
  21619785.789  
  19492306.406   103904998.473                    80815007.920    19492310.254  
  19492306.023  
  21570319.750   115305720.731                    89682231.021    21570323.711  
  21570319.352  
 21  8 16 20 31  0.0000000  0 18G17G15G13G14G30G 9G 5R13G 8R 4G20R15
                                G 7R22R23R 3R14R 5
  23916217.312   125680569.650    23916224.570    97932944.9334   23916224.543  
                
  23821277.867   125181654.775    23821284.582    97544178.9814   23821284.594  
                
  21582877.477   113418802.249    21582884.012    88378317.4324                 
                
  20519542.172   107830961.686    20519548.930    84024163.9194   20519549.090  
                
  20554772.211   108016111.742    20554780.871    84168458.4384   20554781.125  
                
  24655939.070   129567860.165    24655948.441   100962020.1594   24655948.410  
                
  22890506.477   120290429.721    22890513.191    93732839.4894   22890513.453  
                
  21399220.156   114270662.912                    88877225.131    21399222.926  
  21399218.332  
  23630883.672   124181163.312    23630892.031    96764595.0544   23630892.738  
                
  19531977.164   104592861.023                    81349993.890    19531979.973  
  19531976.324  
  23414361.312   123043296.278    23414368.281    95877925.6094                 
                
  22064759.352   117907389.006                    91705753.524    22064763.863  
  22064759.504  
  21937762.891   115283766.132    21937769.504    89831559.1654   21937769.469  
                
  23477053.367   125322124.539                    97472773.643    23477054.977  
  23477051.395  
  23020118.500   123142119.851                                                  
  23020116.660  
  21627421.508   115773289.578                    90045896.913    21627425.867  
  21627420.234  
  19492056.586   103903666.786                    80813972.163    19492060.438  
  19492056.215  
  21564381.953   115273979.928                    89657543.726    21564385.945  
  21564381.543  
 21  8 16 20 31 10.0000000  0 18G17G15G13G14G30G 9G 5R13G 8R 4G20R15
                                G 7R22R23R 3R14R 5
  23909787.406   125646780.311    23909794.672    97906615.6034   23909794.645  
                
  23814888.414   125148077.810    23814895.102    97518015.0994   23814895.133  
                
  21578176.469   113394098.266    21578182.996    88359067.5874                 
                
  20516972.977   107817460.448    20516979.695    84013643.4844   20516979.875  
                
  20555509.383   108019985.587    20555518.020    84171477.0214   20555518.289  
                
  24662996.906   129604949.386    24663006.336   100990920.8424   24663006.273  
                
  22892843.359   120302710.171    22892850.078    93742408.6544   22892850.336  
                
  21404688.625   114299864.258                    88899937.280    21404691.395  
  21404686.820  
  23634474.383   124200032.599    23634482.723    96779298.3904   23634483.445  
                
  19533330.719   104600109.223                    81355631.369    19533333.535  
  19533329.902  
  23419555.578   123070592.549    23419562.602    95899195.4294                 
                
  22059430.641   117878913.963                    91683606.280    22059435.137  
  22059430.801  
  21941385.031   115302800.529    21941391.664    89846391.1694   21941391.621  
                
  23479115.023   125333129.641                    97481333.152    23479116.574  
  23479113.078  
  23014921.547   123114319.733                                                  
  23014919.719  
  21635063.227   115814196.332                    90077713.276    21635067.609  
  21635061.969  
  19491815.586   103902382.130                    80812972.995    19491819.441  
  19491815.219  
  21558455.023   115242297.143                    89632901.578    21558459.027  
  21558454.570  
 21  8 16 20 31 20.0000000  0 18G17G15G13G14G30G 9G 5R13G 8R 4G20R15
                                G 7R22R23R 3R14R 5
  23903359.000   125612998.888    23903366.277    97880292.4374   23903366.246  
                
  23808503.664   125114525.701    23808510.297    97491870.6004   23808510.375  
                
  21573482.523   113369431.423    21573489.047    88339846.6684                 
                
  20514413.977   107804012.882    20514420.660    84003164.8634   20514420.859  
                
  20556252.906   108023892.824    20556261.531    84174521.6224   20556261.801  
                
  24670056.883   129642049.965    24670066.395   101019830.3774   24670066.293  
                
  22895191.297   120315048.692    22895197.996    93752023.0734   22895198.234  
                
  21410159.992   114329081.147                    88922661.519    21410162.785  
  21410158.184  
  23638076.000   124218959.208    23638084.332    96794046.4074   23638085.043  
                
  19534701.312   104607448.633                    81361339.806    19534704.121  
  19534700.539  
  23424754.961   123097915.680    23424762.070    95920486.1684                 
                
  22054107.375   117850468.087                    91661481.736    22054111.887  
  22054107.512  
  21945011.414   115321857.310    21945018.094    89861240.5984   21945018.031  
                
  23481192.227   125344217.960                    97489957.393    23481193.684  
  23481190.316  
  23009734.781   123086574.381                                                  
  23009733.016  
  21642712.172   115855142.052                    90109559.949    21642716.602  
  21642710.980  
  19491583.414   103901144.497                    80812010.392    19491587.254  
  19491583.066  
  21552538.992   115210672.687                    89608304.767    21552543.004  
  21552538.508  
 21  8 16 20 31 30.0000000  0 18G17G15G13G14G30G 9G 5R13G 8R 4G20R15
                                G 7R22R23R 3R14R 5
  23896932.211   125579225.650    23896939.457    97853975.6394   23896939.438  
                
  23802123.711   125080998.731    23802130.297    97465745.6944   23802130.406  
                
  21568795.703   113344802.053    21568802.223    88320654.9574                 
                
  20511865.227   107790619.132    20511871.906    83992728.1834   20511872.117  
                
  20557002.812   108027833.600    20557011.422    84177592.3574   20557011.707  
                
  24677119.047   129679162.002    24677128.648   101048748.8444   24677128.488  
                
  22897550.320   120327445.428    22897557.000    93761682.8874   22897557.211  
                
  21415634.320   114358313.755                    88945397.989    21415637.133  
  21415632.496  
  23641688.633   124237943.676    23641696.938    96808839.5024   23641697.645  
                
  19536088.945   104614879.320                    81367119.241    19536091.766  
  19536088.199  
  23429959.445   123125265.648    23429966.602    95941797.8294                 
                
  22048789.578   117822051.511                    91639379.968    22048794.125  
  22048789.703  
  21948642.109   115340936.639    21948648.805    89876107.5904   21948648.719  
                
  23483285.148   125355389.849                    97498646.644    23483286.566  
  23483283.219  
  23004558.383   123058884.308                                                  
  23004556.652  
  21650368.469   115896126.775                    90141436.947    21650372.875  
  21650367.289  
  19491360.031   103899953.745                    80811084.258    19491363.867  
  19491359.688  
  21546633.930   115179106.744                    89583753.450    21546637.914  
  21546633.477  
 21  8 16 20 31 40.0000000  0 18G17G15G13G14G30G 9G 5R13G 8R 4G20R15
                                G 7R22R23R 3R14R 5
  23890506.961   125545460.462    23890514.141    97827665.1214   23890514.102  
                
  23795748.500   125047496.734    23795755.051    97439640.2214   23795755.184  
                
  21564115.992   113320210.031    21564122.496    88301492.3434                 
                
  20509326.680   107777279.009    20509333.359    83982333.2984   20509333.559  
                
  20557759.062   108031807.702    20557767.656    84180689.0644   20557767.953  
                
  24684183.406   129716285.189    24684193.000   101077675.9924   24684192.812  
                
  22899920.367   120339900.149    22899927.027    93771387.8384   22899927.215  
                
  21421111.531   114387561.813                    88968146.463    21421114.387  
  21421109.699  
  23645312.109   124256985.179    23645320.418    96823677.0424   23645321.145  
                
  19537493.602   104622401.179                    81372969.565    19537496.438  
  19537492.867  
  23435169.055   123152642.153    23435176.133    95963130.1634                 
                
  22043477.266   117793664.131                    91617300.889    22043481.805  
  22043477.367  
  21952277.047   115360038.259    21952283.777    89890991.9734   21952283.664  
                
  23485393.633   125366644.852                    97507400.528    23485395.023  
  23485391.703  
  22999392.305   123031249.294                                                  
  22999390.590  
  21658031.859   115937150.109                    90173343.979    21658036.352  
  21658030.762  
  19491145.430   103898809.750                    80810194.474    19491149.258  
  19491145.086  
  21540739.820   115147599.260                    89559247.642    21540743.777  
  21540739.355  
 21  8 16 20 31 50.0000000  0 18G17G15G13G14G30G 9G 5R13G 8R 4G20R15
                                G 7R22R23R 3R14R 5
  23884083.219   125511703.606    23884090.406    97801361.1004   23884090.352  
                
  23789378.109   125014020.022    23789384.641    97413554.4864   23789384.785  
                
  21559443.438   113295655.599    21559449.930    88282359.0224                 
                
  20506798.375   107763992.685    20506805.074    83971980.3274   20506805.262  
                
  20558521.680   108035815.303    20558530.266    84183811.8714   20558530.566  
                
  24691249.852   129753419.624    24691259.445   101106611.9204   24691259.234  
                
  22902301.477   120352413.026    22902308.082    93781138.1394   22902308.293  
                
  21426591.648   114416825.269                    88990906.928    21426594.520  
  21426589.852  
  23648946.484   124276083.967    23648954.824    96838559.2164   23648955.547  
                
  19538915.305   104630014.313                    81378890.891    19538918.145  
  19538914.590  
  23440383.711   123180045.166    23440390.730    95984483.1784                 
                
  22038170.422   117765306.117                    91595244.691    22038174.980  
  22038170.535  
  21955916.227   115379162.296    21955922.988    89905893.8034   21955922.867  
                
  23487517.688   125377983.129                    97516219.165    23487519.094  
  23487515.785  
  22994236.609   123003669.788                                                  
  22994234.891  
  21665702.422   115978211.958                    90205280.975    21665707.023  
  21665701.438  
  19490939.609   103897712.629                    80809341.158    19490943.445  
  19490939.277  
  21534856.656   115116150.474                    89534787.483    21534860.609  
  21534856.164  
 21  8 16 20 32  0.0000000  0 18G17G15G13G14G30G 9G 5R13G 8R 4G20R15
                                G 7R22R23R 3R14R 5
  23877661.094   125477955.088    23877668.246    97775063.5554   23877668.188  
                
  23783012.531   124980568.538    23783019.035    97387488.3814   23783019.168  
                
  21554778.062   113271138.867    21554784.531    88263255.0864                 
                
  20504280.289   107750760.109    20504287.008    83961669.2344   20504287.180  
                
  20559290.648   108039856.286    20559299.230    84186960.6904   20559299.531  
                
  24698318.445   129790565.176    24698327.996   101135556.4984   24698327.785  
                
  22904693.594   120364983.742    22904700.133    93790933.5004   22904700.375  
                
  21432074.633   114446104.046                    89013679.310    21432077.523  
  21432072.883  
  23652591.797   124295240.145    23652600.129    96853486.1074   23652600.836  
                
  19540354.031   104637718.589                    81384883.095    19540356.887  
  19540353.328  
  23445603.359   123207474.552    23445610.418    96005856.7104                 
                
  22032869.062   117736977.323                    91573211.219    22032873.625  
  22032869.195  
  21959559.633   115398308.503    21959566.398    89920812.9164   21959566.297  
                
  23489657.242   125389404.457                    97525102.446    23489658.727  
  23489655.422  
  22989091.281   122976145.738                                                  
  22989089.570  
  21673380.188   116019312.328                    90237247.928    21673384.930  
  21673379.309  
  19490742.570   103896662.278                    80808524.228    19490746.418  
  19490742.258  
  21528984.492   115084760.450                    89510373.008    21528988.422  
  21528984.008  
 21  8 16 20 32 10.0000000  0 18G17G15G13G14G30G 9G 5R13G 8R 4G20R15
                                G 7R22R23R 3R14R 5
  23871240.445   125444214.963    23871247.688    97748772.5684   23871247.617  
                
  23776651.797   124947142.522    23776658.293    97361442.1504   23776658.418  
                
  21550119.875   113246659.912    21550126.320    88244180.5744                 
                
  20501772.461   107737581.391    20501779.191    83951400.1114   20501779.352  
                
  20560066.016   108043930.836    20560074.598    84190135.6624   20560074.902  
                
  24705389.164   129827721.895    24705398.680   101164509.7834   24705398.453  
                
  22907096.750   120377612.405    22907103.223    93800774.0064   22907103.488  
                
  21437560.508   114475398.086                    89036463.551    21437563.395  
  21437558.793  
  23656247.969   124314453.415    23656256.305    96868457.4794   23656256.992  
                
  19541809.820   104645514.221                    81390946.352    19541812.684  
  19541809.148  
  23450828.086   123234930.353    23450835.109    96027250.8334                 
                
  22027573.219   117708677.919                    91551200.574    22027577.785  
  22027573.348  
  21963207.344   115417477.312    21963214.133    89935749.6374   21963214.016  
                
  23491812.516   125400909.265                    97534050.599    23491813.973  
  23491810.676  
  22983956.375   122948677.466                                                  
  22983954.617  
  21681065.258   116060451.056                    90269244.702    21681070.012  
  21681064.340  
  19490554.328   103895658.844                    80807743.775    19490558.180  
  19490554.016  
  21523123.406   115053429.585                    89486004.560    21523127.312  
  21523122.930  
 21  8 16 20 32 20.0000000  0 18G17G15G13G14G30G 9G 5R13G 8R 4G20R15
                                G 7R22R23R 3R14R 5
  23864821.516   125410483.476    23864828.781    97722488.3224   23864828.723  
                
  23770295.938   124913742.102    23770302.367    97335415.8404   23770302.484  
                
  21545468.883   113222218.740    21545475.312    88225135.5114                 
                
  20499274.891   107724456.594    20499281.633    83941173.0014   20499281.797  
                
  20560847.758   108048038.940    20560856.352    84193336.7804   20560856.648  
                
  24712462.039   129864889.736    24712471.477   101193471.7394   24712471.230  
                
  22909510.922   120390298.948    22909517.328    93810659.6344   22909517.637  
                
  21443049.227   114504707.503                    89059259.768    21443052.102  
  21443047.512  
  23659915.016   124333723.862    23659923.371    96883473.4254   23659924.055  
                
  19543282.648   104653401.080                    81397080.573    19543285.516  
  19543282.008  
  23456057.781   123262412.383    23456064.754    96048665.3994                 
                
  22022282.867   117680408.035                    91529212.919    22022287.469  
  22022282.984  
  21966859.336   115436668.669    21966866.129    89950703.9334   21966866.020  
                
  23493983.336   125412497.205                    97543063.488    23493984.758  
  23493981.520  
  22978831.945   122921265.165                                                  
  22978830.160  
  21688757.562   116101627.922                    90301271.142    21688762.223  
  21688756.555  
  19490374.859   103894702.188                    80806999.714    19490378.711  
  19490374.551  
  21517273.375   115022157.850                    89461682.096    21517277.270  
  21517272.926  
 21  8 16 20 32 30.0000000  0 18G17G15G13G14G30G 9G 5R13G 8R 4G20R15
                                G 7R22R23R 3R14R 5
  23858404.375   125376760.907    23858411.582    97696211.0094   23858411.516  
                
  23763944.969   124880367.362    23763951.363    97309409.5544   23763951.480  
                
  21540825.102   113197815.488    21540831.527    88206119.9864                 
                
  20496787.586   107711385.712    20496794.352    83930987.9074   20496794.512  
                
  20561635.891   108052180.591    20561644.504    84196564.0424   20561644.789  
                
  24719536.953   129902068.597    24719546.355   101222442.2814   24719546.098  
                
  22911936.094   120403043.270    22911942.453    93820590.2704   22911942.789  
                
  21448540.875   114534032.504                    89082068.089    21448543.762  
  21448539.148  
  23663592.953   124353051.517    23663601.312    96898533.9294   23663601.992  
                
  19544772.523   104661379.227                    81403285.801    19544775.395  
  19544771.906  
  23461292.367   123289920.490    23461299.375    96070100.2814                 
                
  22016998.039   117652167.679                    91507248.238    22017002.676  
  22016998.180  
  21970515.625   115455882.576    21970522.391    89965675.8044   21970522.297  
                
  23496169.797   125424168.297                    97552140.997    23496171.051  
  23496167.973  
  22973718.000   122893908.905                                                  
  22973716.176  
  21696457.008   116142843.086                    90333327.375    21696461.609  
  21696455.949  
  19490204.172   103893792.279                    80806292.025    19490208.027  
  19490203.871  
  21511434.477   114990945.559                    89437405.876    21511438.387  
  21511434.043  
 21  8 16 20 32 40.0000000  0 18G17G15G13G14G30G 9G 5R13G 8R 4G20R15
                                G 7R22R23R 3R14R 5
  23851988.938   125343047.208    23851996.078    97669940.6004   23851995.992  
                
  23757598.906   124847018.341    23757605.238    97283423.3014   23757605.371  
                
  21536188.555   113173450.240    21536194.984    88187134.0894                 
                
  20494310.531   107698368.688    20494317.332    83920844.7844   20494317.473  
                
  20562430.391   108056355.733    20562439.027    84199817.4014   20562439.301  
                
  24726613.906   129939258.376    24726623.301   101251421.3304   24726623.043  
                
  22914372.227   120415845.208    22914378.578    93830565.8254   22914378.914  
                
  21454035.312   114563372.383                    89104888.000    21454038.219  
  21454033.602  
  23667281.719   124372436.195    23667290.086    96913638.8674   23667290.770  
                
  19546279.414   104669448.523                    81409561.924    19546282.293  
  19546278.809  
  23466531.914   123317454.596    23466538.941    96091555.4224                 
                
  22011718.773   117623956.780                    91485306.426    22011723.352  
  22011718.891  
  21974176.180   115475118.904    21974182.941    89980665.1384   21974182.836  
                
  23498371.672   125435922.350                    97561283.017    23498372.984  
  23498369.926  
  22968614.531   122866608.870                                                  
  22968612.660  
  21704163.516   116184096.016                    90365412.988    21704168.062  
  21704162.379  
  19490042.234   103892929.073                    80805620.654    19490046.094  
  19490041.938  
  21505606.695   114959792.792                    89413175.944    21505610.617  
  21505606.285  
 21  8 16 20 32 50.0000000  0 18G17G15G13G14G30G 9G 5R13G 8R 4G20R15
                                G 7R22R23R 3R14R 5
  23845575.203   125309342.404    23845582.266    97643677.1124   23845582.148  
                
  23751257.727   124813695.074    23751264.008    97257457.1114   23751264.156  
                
  21531559.242   113149123.022    21531565.684    88168177.8114                 
                
  20491843.711   107685405.463    20491850.539    83910743.5764   20491850.676  
                
  20563231.250   108060564.276    20563239.906    84203096.7834   20563240.168  
                
  24733692.930   129976458.911    24733702.293   101280408.7564   24733702.062  
                
  22916819.344   120428704.885    22916825.703    93840586.3344   22916826.016  
                
  21459532.539   114592727.100                    89127719.437    21459535.387  
  21459530.852  
  23670981.312   124391877.738    23670989.652    96928788.1174   23670990.328  
                
  19547803.305   104677608.821                    81415908.813    19547806.191  
  19547802.699  
  23471776.430   123345014.487    23471783.422    96113030.6574                 
                
  22006444.969   117595775.127                    91463387.375    22006449.496  
  22006445.066  
  21977840.984   115494377.571    21977847.734    89995671.8684   21977847.633  
                
  23500589.156   125447759.364                    97570489.586    23500590.484  
  23500587.352  
  22963521.609   122839365.219                                                  
  22963519.734  
  21711876.883   116225386.682                    90397527.936    21711881.523  
  21711875.789  
  19489889.047   103892112.492                    80804985.531    19489892.898  
  19489888.754  
  21499790.070   114928699.594                    89388992.339    21499794.008  
  21499789.676  
 21  8 16 20 33  0.0000000  0 18G17G15G13G14G30G 9G 5R13G 8R 4G20R15
                                G 7R22R23R 3R14R 5
  23839163.164   125275646.489    23839170.129    97617420.5624   23839170.008  
                
  23744921.438   124780397.570    23744927.684    97231510.9964   23744927.848  
                
  21526937.164   113124833.866    21526943.621    88149251.2014                 
                
  20489387.125   107672495.999    20489393.992    83900684.2674   20489394.102  
                
  20564038.453   108064806.175    20564047.125    84206402.1604   20564047.387  
                
  24740773.953   130013670.045    24740783.305   101309404.4404   24740783.102  
                
  22919277.367   120441621.942    22919283.730    93850651.5784   22919284.051  
                
  21465032.578   114622096.873                    89150562.601    21465035.398  
  21465030.891  
  23674691.672   124411375.920    23674699.969    96943981.5034   23674700.668  
                
  19549344.172   104685860.072                    81422326.448    19549347.066  
  19549343.559  
  23477025.789   123372600.036    23477032.734    96134525.8924                 
                
  22001176.680   117567622.922                    91441491.233    22001181.160  
  22001176.773  
  21981510.008   115513658.426    21981516.719    90010695.9014   21981516.633  
                
  23502822.125   125459679.220                    97579760.584    23502823.465  
  23502820.297  
  22958439.227   122812177.995                                                  
  22958437.383  
  21719597.289   116266714.947                    90429672.141    21719601.996  
  21719596.230  
  19489744.562   103891342.326                    80804386.529    19489748.410  
  19489744.246  
  21493984.602   114897666.054                    89364855.156    21493988.555  
  21493984.234  
 21  8 16 20 33 10.0000000  0 18G17G15G13G14G30G 9G 5R13G 8R 4G20R15
                                G 7R22R23R 3R14R 5
  23832752.883   125241959.811    23832759.781    97591171.2044   23832759.625  
                
  23738590.047   124747126.067    23738596.340    97205585.1624   23738596.488  
                
  21522322.422   113100583.224    21522328.871    88130354.6024                 
                
  20486940.805   107659640.495    20486947.711    83890667.0064   20486947.797  
                
  20564852.039   108069081.616    20564860.723    84209733.6764   20564860.977  
                
  24747857.141   130050891.957    24747866.414   101338408.5114   24747866.223  
                
  22921746.336   120454596.474    22921752.711    93860761.6054   22921753.031  
                
  21470535.383   114651481.625                    89173417.387    21470538.195  
  21470533.719  
  23678412.836   124430930.872    23678421.102    96959219.1364   23678421.805  
                
  19550902.047   104694202.419                    81428814.934    19550904.965  
  19550901.449  
  23482280.094   123400211.308    23482286.926    96156041.1784                 
                
  21995913.891   117539500.158                    91419617.995    21995918.328  
  21995914.016  
  21985183.312   115532961.786    21985189.992    90025737.4674   21985189.922  
                
  23505070.594   125471682.040                    97589096.128    23505072.043  
  23505068.793  
  22953367.422   122785047.532                                                  
  22953365.613  
  21727324.734   116308080.684                    90461845.497    21727329.438  
  21727323.707  
  19489608.812   103890618.731                    80803823.748    19489612.648  
  19489608.484  
  21488190.352   114866692.479                    89340764.574    21488194.305  
  21488189.977  
 21  8 16 20 33 20.0000000  0 18G17G15G13G14G30G 9G 5R13G 8R 4G20R15
                                G 7R22R23R 3R14R 5
  23826344.336   125208282.574    23826351.258    97564929.2214   23826351.074  
                
  23732263.602   124713880.802    23732269.984    97179679.7714   23732270.102  
                
  21517714.977   113076370.883    21517721.441    88111487.8474                 
                
  20484504.781   107646839.071    20484511.723    83880691.8734   20484511.785  
                
  20565672.023   108073390.691    20565680.719    84213091.3904   20565680.973  
                
  24754942.266   130088124.626    24754951.570   101367420.9834   24754951.371  
                
  22924226.250   120467628.454    22924232.629    93870916.3904   22924232.965  
                
  21476041.023   114680881.383                    89196283.881    21476043.832  
  21476039.371  
  23682144.805   124450542.620    23682153.066    96974501.0024   23682153.785  
                
  19552476.961   104702635.960                    81435374.341    19552479.887  
  19552476.391  
  23487539.305   123427848.403    23487546.074    96177576.5834                 
                
  21990656.680   117511407.149                    91397767.880    21990661.090  
  21990656.801  
  21988860.914   115552287.677    21988867.578    90040796.5964   21988867.508  
                
  23507334.602   125483767.786                    97598496.155    23507336.086  
  23507332.836  
  22948306.297   122757974.026                                                  
  22948304.512  
  21735059.109   116349483.784                    90494047.903    21735063.867  
  21735058.156  
  19489481.828   103889941.826                    80803297.263    19489485.664  
  19489481.500  
  21482407.328   114835778.874                    89316720.674    21482411.309  
  21482406.957  
 21  8 16 20 33 30.0000000  0 18G17G15G13G14G30G 9G 5R13G 8R 4G20R15
                                G 7R22R23R 3R14R 5
  23819937.523   125174614.548    23819944.500    97538694.4084   23819944.309  
                
  23725942.125   124680661.657    23725948.598    97153794.7454   23725948.707  
                
  21513114.781   113052196.716    21513121.250    88092650.8314                 
                
  20482078.984   107634091.402    20482085.949    83870758.6344   20482085.996  
                
  20566498.359   108077733.090    20566507.062    84216475.0744   20566507.320  
                
  24762029.344   130125367.700    24762038.703   101396441.5564   24762038.508  
                
  22926717.039   120480717.656    22926723.430    93881115.7554   22926723.754  
                
  21481549.438   114710296.012                    89219161.903    21481552.254  
  21481547.773  
  23685887.508   124470210.792    23685895.758    96989826.8544   23685896.496  
                
  19554068.820   104711160.291                    81442004.381    19554071.766  
  19554068.266  
  23492803.312   123455510.638    23492810.020    96199131.5684                 
                
  21985404.945   117483343.423                    91375940.562    21985409.332  
  21985405.066  
  21992542.727   115571635.736    21992549.355    90055872.9994   21992549.305  
                
  23509614.172   125495935.922                    97607960.249    23509615.527  
  23509612.359  
  22943255.781   122730957.265                                                  
  22943254.035  
  21742800.422   116390924.040                    90526279.207    21742805.258  
  21742799.543  
  19489363.523   103889311.205                    80802806.783    19489367.367  
  19489363.195  
  21476635.570   114804925.525                    89292723.601    21476639.527  
  21476635.234  
 21  8 16 20 33 40.0000000  0 18G17G15G13G14G30G 9G 5R13G 8R 4G20R15
                                G 7R22R23R 3R14R 5
  23813532.547   125140956.065    23813539.535    97512467.0334   23813539.336  
                
  23719625.672   124647468.791    23719632.254    97127930.2004   23719632.352  
                
  21508521.922   113028061.063    21508528.398    88073843.8354                 
                
  20479663.453   107621397.722    20479670.445    83860867.4674   20479670.484  
                
  20567331.062   108082109.043    20567339.777    84219884.9014   20567340.031  
                
  24769118.484   130162621.318    24769127.836   101425470.3464   24769127.641  
                
  22929218.742   120493864.164    22929225.145    93891359.7824   22929225.445  
                
  21487060.609   114739725.343                    89242051.375    21487063.395  
  21487058.906  
  23689641.000   124489935.575    23689649.230    97005196.8084   23689649.992  
                
  19555677.695   104719775.711                    81448705.257    19555680.652  
  19555677.164  
  23498072.047   123483198.171    23498078.770    96220706.2584                 
                
  21980158.727   117455309.317                    91354136.279    21980163.098  
  21980158.844  
  21996228.789   115591006.139    21996235.402    90070966.8114   21996235.348  
                
  23511909.172   125508186.958                    97617488.852    23511910.504  
  23511907.402  
  22938216.008   122703997.796                                                  
  22938214.227  
  21750548.797   116432401.233                    90558539.230    21750553.586  
  21750547.848  
  19489253.945   103888727.132                    80802352.515    19489257.793  
  19489253.605  
  21470875.094   114774132.531                    89268773.496    21470879.062  
  21470874.734  
 21  8 16 20 33 50.0000000  0 18G17G15G13G14G30G 9G 5R13G 8R 4G20R15
                                G 7R22R23R 3R14R 5
  23807129.383   125107307.173    23807136.398    97486247.1414   23807136.176  
                
  23713314.258   124614302.269    23713320.902    97102086.1544   23713320.988  
                
  21503936.406   113003964.017    21503942.887    88055066.9204                 
                
  20477258.195   107608757.968    20477265.215    83851018.3184   20477265.246  
                
  20568170.148   108086518.454    20568178.879    84223320.8084   20568179.129  
                
  24776209.617   130199885.315    24776218.934   101454507.2104   24776218.734  
                
  22931731.320   120507067.756    22931737.715    93901648.3084   22931738.004  
                
  21492574.453   114769169.017                    89264952.014    21492577.207  
  21492572.707  
  23693405.234   124509716.772    23693413.469    97020610.7264   23693414.254  
                
  19557303.547   104728482.024                    81455476.837    19557306.516  
  19557303.012  
  23503345.516   123510910.769    23503352.277    96242300.4684                 
                
  21974918.023   117427304.644                    91332354.891    21974922.387  
  21974918.129  
  21999919.109   115610398.824    21999925.711    90086077.9854   21999925.645  
                
  23514219.648   125520520.464                    97627081.547    23514221.020  
  23514217.883  
  22933186.938   122677095.576                                                  
  22933185.129  
  21758304.031   116473915.415                    90590828.034    21758308.828  
  21758303.066  
  19489153.055   103888189.296                    80801934.218    19489156.906  
  19489152.707  
  21465125.945   114743400.043                    89244870.465    21465129.934  
  21465125.555  
 21  8 16 20 34  0.0000000  0 18G17G15G13G14G30G 9G 5R13G 8R 4G20R15
                                G 7R22R23R 3R14R 5
  23800728.031   125073668.050    23800735.086    97460034.8444   23800734.875  
                
  23707007.875   124581162.278    23707014.613    97076262.8144   23707014.699  
                
  21499358.250   112979905.653    21499364.711    88036320.1474                 
                
  20474863.211   107596172.239    20474870.250    83841211.2664   20474870.273  
                
  20569015.617   108090961.428    20569024.355    84226782.8614   20569024.598  
                
  24783302.750   130237159.715    24783312.008   101483552.1984   24783311.820  
                
  22934254.781   120520328.628    22934261.156    93911981.4384   22934261.445  
                
  21498091.039   114798627.327                    89287864.035    21498093.758  
  21498089.285  
  23697180.211   124529554.474    23697188.465    97036068.6874   23697189.266  
                
  19558946.398   104737279.401                    81462319.235    19558949.383  
  19558945.844  
  23508623.820   123538648.434    23508630.547    96263914.2344                 
                
  21969682.898   117399329.793                    91310596.674    21969687.262  
  21969682.969  
  22003613.703   115629814.030    22003620.285    90101206.7124   22003620.242  
                
  23516545.750   125532936.656                    97636738.576    23516547.000  
  23516543.875  
  22928168.617   122650250.931                                                  
  22928166.773  
  21766066.148   116515466.267                    90623145.356    21766070.898  
  21766065.141  
  19489060.867   103887697.911                    80801552.031    19489064.719  
  19489060.512  
  21459388.164   114712728.338                    89221014.697    21459392.188  
  21459387.766  
 21  8 16 20 34 10.0000000  0 18G17G15G13G14G30G 9G 5R13G 8R 4G20R15
                                G 7R22R23R 3R14R 5
  23794328.625   125040038.627    23794335.570    97433830.1064   23794335.398  
                
  23700706.594   124548048.803    23700713.359    97050460.1174   23700713.449  
                
  21494787.469   112955886.005    21494793.898    88017603.5464                 
                
  20472478.492   107583640.464    20472485.543    83831446.2614   20472485.551  
                
  20569867.453   108095437.887    20569876.199    84230271.0164   20569876.449  
                
  24790397.859   130274444.384    24790407.043   101512605.1804   24790406.875  
                
  22936789.086   120533646.451    22936795.434    93922358.9654   22936795.750  
                
  21503610.453   114828100.535                    89310787.639    21503613.141  
  21503608.695  
  23700965.922   124549448.519    23700974.184    97051570.5384   23700975.008  
                
  19560606.195   104746167.581                    81469232.271    19560609.199  
  19560605.609  
  23513906.844   123566410.986    23513913.562    96285547.3924                 
                
  21964453.266   117371384.358                    91288861.363    21964457.641  
  21964453.348  
  22007312.562   115649251.636    22007319.164    90116352.8974   22007319.109  
                
  23518887.258   125545435.317                    97646459.772    23518888.391  
  23518885.324  
  22923161.023   122623463.872                                                  
  22923159.184  
  21773835.109   116557053.756                    90655491.171    21773839.812  
  21773834.039  
  19488977.359   103887252.799                    80801205.835    19488981.203  
  19488976.992  
  21453661.727   114682117.246                    89197206.073    21453665.754  
  21453661.324  
 21  8 16 20 34 20.0000000  0 18G17G15G13G14G30G 9G 5R13G 8R 4G20R15
                                G 7R22R23R 3R14R 5
  23787931.148   125006419.142    23787937.930    97407633.1024   23787937.805  
                
  23694410.391   124514962.047    23694417.152    97024678.2414   23694417.262  
                
  21490224.102   112931905.368    21490230.473    87998917.3264                 
                
  20470104.062   107571162.709    20470111.109    83821723.3394   20470111.117  
                
  20570725.680   108099947.858    20570734.438    84233785.2844   20570734.680  
                
  24797494.836   130311739.254    24797504.000   101541666.1324   24797503.855  
                
  22939334.203   120547021.134    22939340.543    93932780.7864   22939340.863  
                
  21509132.531   114857588.037                    89333722.369    21509135.195  
  21509130.762  
  23704762.367   124569398.866    23704770.645    97067116.2644   23704771.438  
                
  19562282.969   104755146.614                    81476215.956    19562286.008  
  19562282.363  
  23519194.578   123594198.385    23519201.297    96307199.9074                 
                
  21959229.203   117343468.606                    91267149.113    21959233.586  
  21959229.289  
  22011015.680   115668711.614    22011022.289    90131516.4994   22011022.227  
                
  23521244.055   125558016.526                    97656245.188    23521245.266  
  23521242.219  
  22918164.281   122596734.540                                                  
  22918162.410  
  21781610.781   116598677.801                    90687865.416    21781615.539  
  21781609.730  
  19488902.562   103886854.053                    80800895.721    19488906.422  
  19488902.180  
  21447946.680   114651567.077                    89173444.828    21447950.703  
  21447946.277  
 21  8 16 20 34 30.0000000  0 18G17G15G13G14G30G 9G 5R13G 8R 4G20R15
                                G 7R22R23R 3R14R 5
  23781535.469   124972809.686    23781542.199    97381443.9114   23781542.102  
                
  23688119.312   124481902.051    23688126.027    96998917.2034   23688126.156  
                
  21485668.133   112907963.564    21485674.441    87980261.3714                 
                
  20467739.906   107558738.977    20467746.938    83812042.5134   20467746.949  
                
  20571590.281   108104491.352    20571599.051    84237325.6724   20571599.297  
                
  24804593.766   130349044.329    24804602.914   101570735.0174   24804602.777  
                
  22941890.148   120560452.742    22941896.508    93943246.9654   22941896.809  
                
  21514657.297   114887089.925                    89356668.273    21514659.973  
  21514655.531  
  23708569.461   124589405.324    23708577.738    97082705.7174   23708578.535  
                
  19563976.703   104764216.466                    81483270.281    19563979.754  
  19563976.074  
  23524487.023   123622010.457    23524493.719    96328871.6374                 
                
  21954010.680   117315582.543                    91245460.008    21954015.074  
  21954010.766  
  22014723.047   115688193.916    22014729.621    90146697.5144   22014729.590  
                
  23523616.289   125570680.075                    97666094.612    23523617.633  
  23523614.520  
  22913178.328   122570063.200                                                  
  22913176.441  
  21789393.227   116640338.136                    90720267.891    21789398.023  
  21789392.215  
  19488836.398   103886501.346                    80800621.398    19488840.238  
  19488836.020  
  21442243.102   114621078.104                    89149731.166    21442247.109  
  21442242.699  
 21  8 16 20 34 40.0000000  0 17G17G15G13G14G30G 5R13G 8R 4G20R15G 7
                                R22R23R 3R14R 5
  23775141.625   124939209.933    23775148.316    97355262.2874   23775148.266  
                
  23681833.258   124448868.478    23681839.949    96973176.7694   23681840.074  
                
  21481119.484   112884060.276    21481125.738    87961635.4364                 
                
  20465385.938   107546368.829    20465392.957    83802403.4414   20465392.969  
                
  20572461.164   108109067.930    20572469.945    84240891.8384   20572470.180  
                
  22944456.828   120573940.753    22944463.211    93953757.1174   22944463.516  
                
  21520184.703   114916606.006                    89379625.200    21520187.402  
  21520182.965  
  23712387.156   124609467.490    23712395.449    97098338.5854   23712396.246  
                
  19565687.305   104773376.719                    81490394.918    19565690.383  
  19565686.664  
  23529784.117   123649846.629    23529790.750    96350562.1764                 
                
  21948797.641   117287725.671                    91223793.590    21948802.039  
  21948797.707  
  22018434.586   115707698.149    22018441.145    90161895.6164   22018441.125  
                
  23526004.008   125583425.656                    97676007.856    23526005.355  
  23526002.254  
  22908203.203   122543449.707                                                  
  22908201.312  
  21797182.500   116682034.233                    90752698.191    21797187.188  
  21797181.402  
  19488778.820   103886194.488                    80800382.727    19488782.664  
  19488778.434  
  21436550.883   114590649.959                    89126064.832    21436554.902  
  21436550.500  
 21  8 16 20 34 50.0000000  0 17G17G15G13G14G30G 5R13G 8R 4G20R15G 7
                                R22R23R 3R14R 5
  23768749.773   124905620.649    23768756.469    97329088.8324   23768756.438  
                
  23675552.367   124415862.021    23675558.992    96947457.4534   23675559.129  
                
  21476578.328   112860196.309    21476584.527    87943040.1334                 
                
  20463042.297   107534052.901    20463049.305    83792806.6214   20463049.312  
                
  20573338.477   108113678.192    20573347.270    84244484.2594   20573347.504  
                
  22947034.359   120587485.795    22947040.789    93964311.6934   22947041.070  
                
  21525714.883   114946136.667                    89402593.510    21525717.602  
  21525713.125  
  23716215.586   124629586.006    23716223.922    97114015.3444   23716224.711  
                
  19567414.906   104782627.948                    81497590.312    19567418.004  
  19567414.242  
  23535085.906   123677707.485    23535092.500    96372271.9324                 
                
  21943590.219   117259898.688                    91202150.362    21943594.598  
  21943590.305  
  22022150.414   115727224.913    22022156.969    90177111.2714   22022156.957  
                
  23528407.172   125596253.572                    97685985.101    23528408.453  
  23528405.379  
  22903239.008   122516894.549                                                  
  22903237.121  
  21804978.531   116723766.522                    90785156.633    21804983.105  
  21804977.348  
  19488729.953   103885933.957                    80800180.097    19488733.793  
  19488729.566  
  21430870.180   114560283.336                    89102446.353    21430874.180  
  21430869.797  
 21  8 16 20 35  0.0000000  0 17G17G15G13G14G30G 5R13G 8R 4G20R15G 7
                                R22R23R 3R14R 5
  23762359.898   124872041.919    23762366.621    97302923.5924   23762366.605  
                
  23669276.633   124382882.753    23669283.223    96921759.3414   23669283.348  
                
  21472044.656   112836371.725    21472050.812    87924475.5204                 
                
  20460708.961   107521791.156    20460715.945    83783252.0264   20460715.973  
                
  20574222.180   108118322.132    20574230.977    84248102.9134   20574231.203  
                
  22949622.688   120601087.583    22949629.160    93974910.4774   22949629.430  
                
  21531247.672   114975681.545                    89425572.872    21531250.414  
  21531245.965  
  23720054.672   124649760.601    23720063.043    97129735.8014   23720063.824  
                
  19569159.484   104791970.153                    81504856.471    19569162.590  
  19569158.789  
  23540392.281   123705592.910    23540398.961    96394000.8324                 
                
  21938388.344   117232101.510                    91180530.376    21938392.738  
  21938388.453  
  22025870.516   115746774.135    22025877.055    90192344.4304   22025877.043  
                
  23530825.773   125609163.888                    97696026.459    23530827.059  
  23530823.910  
  22898285.711   122490397.927                                                  
  22898283.801  
  21812781.234   116765534.836                    90817643.109    21812785.754  
  21812780.039  
  19488689.742   103885719.630                    80800013.388    19488693.566  
  19488689.359  
  21425201.023   114529978.460                    89078875.892    21425205.008  
  21425200.645  
 21  8 16 20 35 10.0000000  0 17G17G15G13G14G30G 5R13G 8R 4G20R15G 7
                                R22R23R 3R14R 5
  23755972.102   124838473.697    23755978.770    97276766.5324   23755978.738  
                
  23663006.070   124349930.601    23663012.566    96896082.3354   23663012.707  
                
  21467518.453   112812586.350    21467524.574    87905941.4634                 
                
  20458385.906   107509583.492    20458392.859    83773739.5654   20458392.898  
                
  20575112.273   108122999.584    20575121.070    84251747.6874   20575121.301  
