     2.11           OBSERVATION DATA    M (MIXED)           RINEX VERSION / TYPE
EFT-CORS.RU                             20210817 150559 UTC PGM / RUN BY / DATE 
MDNG                                                        MARKER NAME         
                                                            MARKER NUMBER       
MDNG                EFT-CORS.RU                             OBSERVER / AGENCY   
0                   TRIMBLE BD970       2.0                 REC # / TYPE / VERS 
0                   UNKNOWN EXT NONE                        ANT # / TYPE        
  3463911.2830  3030468.2400  4402179.3760                  APPROX POSITION XYZ 
        0.0000        0.0000        0.0000                  ANTENNA: DELTA H/E/N
     1     1                                                WAVELENGTH FACT L1/2
     6    C1    L1    P2    L2    C2    P1                  # / TYPES OF OBSERV 
    10.000                                                  INTERVAL            
  2021     8    14     6    30    0.0000000     GPS         TIME OF FIRST OBS   
  2021     8    14     7    30    0.0000000     GPS         TIME OF LAST OBS    
     0                                                      RCV CLOCK OFFS APPL 
                                                            END OF HEADER       
 21  8 14  6 30  0.0000000  0 16G15G26R16R 2G29G18R15G 5R 3R 9G23G16
                                R18R17G25R19
  24043587.664   126349914.698    24043596.172    98454514.6894   24043596.086  
                
  21462680.570   112787147.404    21462690.152    87886144.1854   21462689.996  
                
  21044592.406   112416439.399                    87435032.124    21044594.824  
  21044592.133  
  20972280.117   111912114.384                    87042793.147    20972283.199  
  20972277.914  
  21149851.898   111143216.034    21149858.691    86605131.2484   21149858.984  
                
  20275866.672   106550403.968    20275873.418    83026330.3994   20275873.391  
                
  23204378.703   123997114.115                    96442186.531    23204384.980  
  23204378.691  
  22240866.398   116876544.026    22240873.422    91072671.0834   22240873.398  
                
  22079631.117   118194008.048                    91928679.306    22079635.562  
  22079629.773  
  22124295.359   118142522.636                    91888615.182    22124298.406  
  22124294.777  
  22237356.555   116858102.092    22237364.570    91058309.0164   22237364.406  
                
  23008603.070   120911040.197    23008609.219    94216422.2194                 
                
  19799173.445   105689333.921                    82202818.447    19799176.559  
  19799171.891  
  20890361.375   111788524.750                    86946624.337    20890364.699  
  20890359.625  
  24410303.938   128276963.479    24410315.547    99956107.0084   24410315.875  
                
  22115520.695   118303143.397                    92013582.203    22115524.277  
  22115518.277  
 21  8 14  6 30 10.0000000  0 16G15G26R16R 2G29G18R15G 5R 3R 9G23G16
                                R18R17G25R19
  24038519.047   126323278.337    24038527.426    98433759.1024   24038527.336  
                
  21461741.531   112782212.712    21461751.109    87882298.9624   21461750.965  
                
  21048185.492   112435632.947                    87449960.448    21048187.898  
  21048185.211  
  20971151.523   111906091.982                    87038109.052    20971154.605  
  20971149.324  
  21152976.656   111159636.638    21152983.445    86617926.5234   21152983.738  
                
  20274754.047   106544557.058    20274760.789    83021774.3744   20274760.777  
                
  23212558.820   124040825.712                    96476184.425    23212565.082  
  23212558.777  
  22245307.953   116899884.499    22245315.039    91090858.4624   22245314.992  
                
  22072548.766   118156094.991                    91899191.377    22072553.121  
  22072547.332  
  22120841.992   118124081.855                    91874272.352    22120845.070  
  22120841.359  
  22231249.422   116826008.838    22231257.496    91033301.3084   22231257.309  
                
  23003610.820   120884805.841    23003616.957    94195979.8804                 
                
  19798256.328   105684438.236                    82199010.702    19798259.453  
  19798254.773  
  20894356.344   111809902.619                    86963251.534    20894359.695  
  20894354.578  
  24417654.094   128315588.595    24417665.656    99986204.4774   24417665.980  
                
  22110659.461   118277138.667                    91993356.298    22110662.945  
  22110657.031  
 21  8 14  6 30 20.0000000  0 16G15G26R16R 2G29G18R15G 5R 3R 9G23G16
                                R18R17G25R19
  24033455.578   126296669.575    24033463.945    98413025.0514   24033463.855  
                
  21460814.656   112777342.180    21460824.270    87878503.7374   21460824.141  
                
  21051793.055   112454903.836                    87464948.913    21051795.445  
  21051792.770  
  20970039.570   111900158.410                    87033494.062    20970042.648  
  20970037.379  
  21156108.438   111176094.223    21156115.250    86630750.6044   21156115.516  
                
  20273649.344   106538751.838    20273656.094    83017250.8324   20273656.078  
                
  23220740.406   124084545.579                    96510188.722    23220746.680  
  23220740.371  
  22249759.414   116923277.111    22249766.520    91109086.4554   22249766.473  
                
  22065473.250   118118218.802                    91869732.117    22065477.578  
  22065471.777  
  22117403.445   118105720.354                    91859991.197    22117406.566  
  22117402.754  
  22225148.797   116793949.778    22225156.895    91008320.2194   22225156.715  
                
  22998627.266   120858617.151    22998633.383    94175573.1214                 
                
  19797345.242   105679574.830                    82195228.059    19797348.375  
  19797343.680  
  20898355.281   111831301.806                    86979895.338    20898358.641  
  20898353.480  
  24425004.945   128354217.707    24425016.488   100016305.0664   24425016.828  
                
  22105801.062   118251149.795                    91973142.738    22105804.559  
  22105798.699  
 21  8 14  6 30 30.0000000  0 16G15G26R16R 2G29G18R15G 5R 3R 9G23G16
                                R18R17G25R19
  24028397.523   126270089.335    24028405.875    98392313.2104   24028405.801  
                
  21459900.172   112772536.663    21459909.824    87874759.1834   21459909.707  
                
  21055415.195   112474252.650                    87479997.975    21055417.578  
  21055414.906  
  20968944.375   111894314.275                    87028948.625    20968947.449  
  20968942.172  
  21159247.422   111192589.636    21159254.277    86643604.1714   21159254.516  
                
  20272552.734   106532989.106    20272559.500    83012760.3944   20272559.480  
                
  23228923.727   124128274.232                    96544199.848    23228929.945  
  23228923.637  
  22254220.953   116946722.627    22254228.062    91127355.6824   22254228.035  
                
  22058404.773   118080380.595                    91840302.410    22058409.125  
  22058403.297  
  22113979.922   118087439.004                    91845772.376    22113983.055  
  22113979.191  
  22219054.836   116761925.804    22219062.941    90983366.4764   22219062.734  
                
  22993652.570   120832474.996    22993658.691    94155202.6194                 
                
  19796440.359   105674744.515                    82191471.142    19796443.484  
  19796438.801  
  20902358.344   111852722.995                    86996556.255    20902361.719  
  20902356.512  
  24432356.727   128392851.493    24432368.238   100046409.2934   24432368.613  
                
  22100945.734   118225177.412                    91952942.009    22100949.262  
  22100943.422  
 21  8 14  6 30 40.0000000  0 16G15G26R16R 2G29G18R15G 5R 3R 9G23G16
                                R18R17G25R19
  24023344.859   126243537.673    24023353.254    98371623.6394   24023353.180  
                
  21458998.062   112767796.102    21459007.758    87871065.2494   21459007.629  
                
  21059051.891   112493679.225                    87495107.532    21059054.277  
  21059051.609  
  20967865.953   111888559.628                    87024472.797    20967869.027  
  20967863.738  
  21162393.578   111209122.744    21162400.480    86656487.1004   21162400.688  
                
  20271464.188   106527268.766    20271470.973    83008302.9844   20271470.941  
                
  23237108.602   124172011.655                    96578217.802    23237114.832  
  23237108.512  
  22258692.500   116970220.833    22258699.625    91145665.9694   22258699.594  
                
  22051343.203   118042580.306                    91810902.229    22051347.730  
  22051341.836  
  22110571.391   118069237.761                    91831615.838    22110574.527  
  22110570.676  
  22212967.547   116729936.908    22212975.656    90958440.0664   22212975.426  
                
  22988686.734   120806379.372    22988692.828    94134868.3864                 
                
  19795541.648   105669947.158                    82187739.868    19795544.781  
  19795540.082  
  20906365.508   111874166.145                    87013234.228    20906368.879  
  20906363.664  
  24439709.375   128431489.816    24439720.867   100076517.0574   24439721.258  
                
  22096093.555   118199221.415                    91932754.023    22096097.043  
  22096091.180  
 21  8 14  6 30 50.0000000  0 16G15G26R16R 2G29G18R15G 5R 3R 9G23G16
                                R18R17G25R19
  24018297.344   126217013.558    24018305.855    98350955.5284   24018305.797  
                
  21458108.094   112763119.291    21458117.812    87867420.9744   21458117.668  
                
  21062702.922   112513182.370                    87510276.631    21062705.301  
  21062702.645  
  20966804.047   111882893.077                    87020065.483    20966807.125  
  20966801.832  
  21165546.672   111225692.277    21165553.633    86669398.4214   21165553.805  
                
  20270383.469   106521589.562    20270390.277    83003877.6384   20270390.230  
                
  23245294.789   124215756.250                    96612241.341    23245301.105  
  23245294.734  
  22263173.812   116993770.353    22263180.965    91164016.2364   22263180.918  
                
  22044288.430   118004816.825                    91781530.636    22044293.180  
  22044287.211  
  22107177.680   118051115.526                    91817520.759    22107180.816  
  22107177.008  
  22206886.711   116697981.962    22206894.820    90933540.1194   22206894.594  
                
  22983729.523   120780329.090    22983735.586    94114569.4644                 
                
  19794648.891   105665181.592                    82184033.315    19794652.027  
  19794647.324  
  20910376.555   111895630.053                    87029928.366    20910379.934  
  20910374.719  
  24447062.664   128470131.330    24447074.105   100106627.3004   24447074.504  
                
  22091244.141   118173280.438                    91912577.711    22091247.637  
  22091241.742  
 21  8 14  6 31  0.0000000  0 16G15G26R16R 2G29G18R15G 5R 3R 9G23G16
                                R18R17G25R19
  24013255.320   126190517.589    24013263.770    98330309.3414   24013263.730  
                
  21457230.359   112758506.776    21457240.090    87863826.8064   21457239.930  
                
  21066368.352   112532762.359                    87525505.495    21066370.734  
  21066368.062  
  20965758.875   111877315.887                    87015727.687    20965761.961  
  20965756.652  
  21168706.797   111242298.772    21168713.828    86682338.5394   21168713.973  
                
  20269310.680   106515952.014    20269317.500    82999484.7454   20269317.445  
                
  23253482.352   124259508.554                    96646270.872    23253488.828  
  23253482.445  
  22267664.977   117017371.549    22267672.160    91182406.7634   22267672.102  
                
  22037240.766   117967090.959                    91752188.303    22037245.656  
  22037239.625  
  22103798.875   118033072.847                    91803487.588    22103802.016  
  22103798.230  
  22200812.461   116666061.606    22200820.574    90908667.1164   22200820.359  
                
  22978781.078   120754324.836    22978787.082    94094306.4024                 
                
  19793762.164   105660448.192                    82180351.787    19793765.309  
  19793760.594  
  20914391.578   111917115.175                    87046639.014    20914394.930  
  20914389.758  
  24454416.562   128508776.494    24454428.035   100136740.3964   24454428.441  
                
  22086397.609   118147355.037                    91892413.508    22086401.156  
  22086395.242  
 21  8 14  6 31 10.0000000  0 16G15G26R16R 2G29G18R15G 5R 3R 9G23G16
                                R18R17G25R19
  24008218.680   126164049.921    24008227.109    98309685.2004   24008227.066  
                
  21456364.852   112753958.584    21456374.586    87860282.7514   21456374.441  
                
  21070048.109   112552418.996                    87540793.976    21070050.504  
  21070047.797  
  20964730.297   111871827.223                    87011458.737    20964733.352  
  20964728.078  
  21171873.945   111258942.213    21171881.043    86695307.4504   21171881.156  
                
  20268245.812   106510356.114    20268252.641    82995124.3084   20268252.582  
                
  23261671.367   124303268.259                    96680306.155    23261677.914  
  23261671.520  
  22272165.961   117041024.455    22272173.168    91200837.5874   22272173.121  
                
  22030200.258   117929402.945                    91722875.392    22030205.246  
  22030199.180  
  22100435.016   118015109.953                    91789516.447    22100438.160  
  22100434.367  
  22194744.805   116634175.919    22194752.941    90883821.1314   22194752.723  
                
  22973841.414   120728366.693    22973847.352    94074079.2934                 
                
  19792881.516   105655747.248                    82176695.509    19792884.656  
  19792879.949  
  20918410.547   111938621.444                    87063366.100    20918413.875  
  20918408.746  
  24461771.172   128547425.214    24461782.637   100166856.2594   24461783.059  
                
  22081554.031   118121445.174                    91872261.398    22081557.594  
  22081551.625  
 21  8 14  6 31 20.0000000  0 16G15G26R16R 2G29G18R15G 5R 3R 9G23G16
                                R18R17G25R19
  24003187.492   126137610.791    24003195.938    98289083.3304   24003195.883  
                
  21455511.625   112749474.882    21455521.359    87856788.9594   21455521.223  
                
  21073742.266   112572152.493                    87556142.251    21073744.664  
  21073741.949  
  20963718.438   111866427.730                    87007259.127    20963721.488  
  20963716.215  
  21175048.156   111275622.775    21175055.320    86708305.2794   21175055.406  
                
  20267188.898   106504802.011    20267195.719    82990796.4364   20267195.664  
                
  23269861.797   124347035.526                    96714347.312    23269868.426  
  23269862.020  
  22276676.797   117064729.089    22276684.047    91219308.7284   22276684.027  
                
  22023166.891   117891753.014                    91693592.136    22023171.969  
  22023165.840  
  22097086.086   117997226.848                    91775607.387    22097089.238  
  22097085.445  
  22188683.805   116602325.150    22188692.000    90859002.3594   22188691.750  
                
  22968910.570   120702454.944    22968916.469    94053888.3064                 
                
  19792006.945   105651078.702                    82173064.414    19792010.074  
  19792005.387  
  20922433.531   111960149.070                    87080109.799    20922436.824  
  20922431.750  
  24469126.484   128586077.587    24469137.949   100196974.9594   24469138.398  
                
  22076713.312   118095551.082                    91852121.574    22076716.965  
  22076710.941  
 21  8 14  6 31 30.0000000  0 16G15G26R16R 2G29G18R15G 5R 3R 9G23G16
                                R18R17G25R19
  23998161.750   126111200.376    23998170.223    98268503.8004   23998170.160  
                
  21454670.680   112745055.735    21454680.406    87853345.4604   21454680.285  
                
  21077450.766   112591962.596                    87571550.089    21077453.180  
  21077450.449  
  20962723.250   111861117.287                    87003128.796    20962726.293  
  20962721.012  
  21178229.438   111292340.493    21178236.664    86721332.0614   21178236.723  
                
  20266139.945   106499289.726    20266146.758    82986501.1514   20266146.707  
                
  23278053.562   124390810.144                    96748394.183    23278060.293  
  23278053.859  
  22281197.445   117088485.306    22281204.723    91237820.0594   22281204.707  
                
  22016140.562   117854141.250                    91664338.586    22016145.812  
  22016139.535  
  22093752.156   117979423.858                    91761760.629    22093755.273  
  22093751.547  
  22182629.461   116570509.433    22182637.719    90834210.9084   22182637.445  
                
  22963988.555   120676589.603    22963994.438    94033733.5204                 
                
  19791138.453   105646442.630                    82169458.580    19791141.578  
  19791136.891  
  20926460.492   111981698.099                    87096870.154    20926463.762  
  20926458.734  
  24476482.438   128624733.529    24476493.969   100227096.4494   24476494.410  
                
  22071875.688   118069672.859                    91831994.092    22071879.328  
  22071873.277  
 21  8 14  6 31 40.0000000  0 16G15G26R16R 2G29G18R15G 5R 3R 9G23G16
                                R18R17G25R19
  23993141.438   126084818.775    23993149.953    98247946.7414   23993149.891  
                
  21453842.031   112740701.141    21453851.754    87849952.2784   21453851.652  
                
  21081173.648   112611849.461                    87587017.653    21081176.102  
  21081173.312  
  20961744.812   111855896.204                    86999067.938    20961747.855  
  20961742.555  
  21181417.805   111309095.422    21181425.094    86734387.8464   21181425.125  
                
  20265098.938   106493819.225    20265105.746    82982238.4284   20265105.703  
                
  23286246.727   124434591.943                    96782446.663    23286253.508  
  23286247.047  
  22285727.930   117112293.151    22285735.211    91256371.6144   22285735.184  
                
  22009121.484   117816568.018                    91635114.970    22009126.832  
  22009120.445  
  22090433.234   117961700.949                    91747976.157    22090436.332  
  22090432.637  
  22176581.820   116538728.860    22176590.125    90809446.8364   22176589.832  
                
  22959075.422   120650770.912    22959081.277    94013615.0514                 
                
  19790276.062   105641839.116                    82165878.070    19790279.176  
  19790274.512  
  20930491.461   112003268.482                    87113647.102    20930494.688  
  20930489.727  
  24483839.086   128663392.953    24483850.652   100257220.6434   24483851.105  
                
  22067041.039   118043810.597                    91811879.015    22067044.648  
  22067038.566  
 21  8 14  6 31 50.0000000  0 16G15G26R16R 2G29G18R15G 5R 3R 9G23G16
                                R18R17G25R19
  23988126.734   126058465.977    23988135.172    98227412.1154   23988135.086  
                
  21453025.641   112736411.005    21453035.359    87846609.3154   21453035.258  
                
  21084910.781   112631812.515                    87602544.480    21084913.258  
  21084910.430  
  20960783.031   111850764.018                    86995076.228    20960786.102  
  20960780.750  
  21184613.203   111325887.351    21184620.559    86747472.4514   21184620.559  
                
  20264065.859   106488390.358    20264072.668    82978008.1444   20264072.629  
                
  23294441.242   124478380.649                    96816504.532    23294447.973  
  23294441.547  
  22290268.172   117136152.377    22290275.441    91274963.2064   22290275.438  
                
  22002109.625   117779033.323                    91605921.315    22002115.020  
  22002108.613  
  22087129.305   117944058.115                    91734253.926    22087132.371  
  22087128.746  
  22170540.859   116506983.398    22170549.152    90784710.1044   22170548.844  
                
  22954171.133   120624998.823    22954176.988    93993532.9324                 
                
  19789419.719   105637267.903                    82162322.685    19789422.820  
  19789418.168  
  20934526.359   112024859.986                    87130440.497    20934529.578  
  20934524.633  
  24491196.359   128702055.640    24491207.988   100287347.3754   24491208.438  
                
  22062209.328   118017964.110                    91791776.199    22062212.922  
  22062206.848  
 21  8 14  6 32  0.0000000  0 16G15G26R16R 2G29G18R15G 5R 3R 9G23G16
                                R18R17G25R19
  23983117.477   126032142.074    23983125.930    98206900.0084   23983125.801  
                
  21452221.523   112732185.339    21452231.234    87843316.5864   21452231.125  
                
  21088662.195   112651851.875                    87618130.639    21088664.727  
  21088661.848  
  20959837.984   111845721.130                    86991153.986    20959841.059  
  20959835.703  
  21187815.641   111342716.269    21187823.070    86760585.8874   21187823.066  
                
  20263040.695   106483003.108    20263047.496    82973810.2934   20263047.473  
                
  23302636.883   124522176.115                    96850567.646    23302643.738  
  23302637.266  
  22294818.180   117160062.823    22294825.449    91293594.7254   22294825.441  
                
  21995104.977   117741537.200                    91576757.681    21995110.402  
  21995104.008  
  22083840.398   117926495.538                    91720594.148    22083843.477  
  22083839.895  
  22164506.586   116475273.102    22164514.832    90760000.7894   22164514.551  
                
  22949275.734   120599273.390    22949281.648    93973487.1464                 
                
  19788569.438   105632729.014                    82158792.446    19788572.531  
  19788567.883  
  20938565.227   112046472.652                    87147250.359    20938568.414  
  20938563.512  
  24498554.219   128740721.475    24498565.914   100317476.5684   24498566.379  
                
  22057380.547   117992133.171                    91771685.500    22057384.137  
  22057377.996  
 21  8 14  6 32 10.0000000  0 16G15G26R16R 2G29G18R15G 5R 3R 9G23G16
                                R18R17G25R19
  23978113.773   126005847.329    23978122.211    98186410.6284   23978122.027  
                
  21451429.703   112728024.254    21451439.402    87840074.1834   21451439.297  
                
  21092427.859   112671967.382                    87633776.003    21092430.434  
  21092427.512  
  20958909.711   111840767.688                    86987301.321    20958912.805  
  20958907.426  
  21191025.148   111359582.306    21191032.656    86773728.2464   21191032.621  
                
  20262023.477   106477657.567    20262030.266    82969644.9434   20262030.250  
                
  23310833.867   124565978.452                    96884636.085    23310840.777  
  23310834.207  
  22299377.938   117184024.571    22299385.215    91312266.2144   22299385.199  
                
  21988107.773   117704080.136                    91547624.423    21988113.102  
  21988106.727  
  22080566.539   117909013.262                    91706996.838    22080569.629  
  22080566.043  
  22158479.039   116443598.176    22158487.305    90735319.0324   22158487.020  
                
  22944389.258   120573594.794    22944395.238    93953477.8724                 
                
  19787725.234   105628222.608                    82155287.474    19787728.324  
  19787723.688  
  20942608.055   112068106.685                    87164076.809    20942611.254  
  20942606.328  
  24505912.766   128779390.475    24505924.465   100347608.2214   24505924.922  
                
  22052554.703   117966318.344                    91751607.296    22052558.289  
  22052552.172  
 21  8 14  6 32 20.0000000  0 16G15G26R16R 2G29G18R15G 5R 3R 9G23G16
                                R18R17G25R19
  23973115.648   125979581.931    23973124.102    98165944.1174   23973123.895  
                
  21450650.180   112723927.813    21450659.863    87836882.1534   21450659.762  
                
  21096207.797   112692159.084                    87649480.655    21096210.375  
  21096207.438  
  20957998.148   111835903.446                    86983518.045    20958001.258  
  20957995.848  
  21194241.703   111376485.437    21194249.273    86786899.5024   21194249.223  
                
  20261014.195   106472353.767    20261020.973    82965512.1124   20261020.969  
                
  23319032.055   124609787.221                    96918709.530    23319039.023  
  23319032.355  
  22303947.453   117208037.533    22303954.746    91330977.6104   22303954.727  
                
  21981117.703   117666662.138                    91518521.556    21981123.098  
  21981116.707  
  22077307.742   117891611.501                    91693462.123    22077310.867  
  22077307.242  
  22152458.258   116411958.778    22152466.590    90710664.9774   22152466.293  
                
  22939511.719   120547963.186    22939517.734    93933505.1904                 
                
  19786887.125   105623748.739                    82151807.798    19786890.211  
  19786885.582  
  20946654.867   112089761.936                    87180919.776    20946658.086  
  20946653.145  
  24513271.852   128818062.639    24513283.594   100377742.3424   24513284.059  
                
  22047731.898   117940519.307                    91731541.374    22047735.418  
  22047729.348  
 21  8 14  6 32 30.0000000  0 16G15G26R16R 2G29G18R15G 5R 3R 9G23G16
                                R18R17G25R19
  23968123.008   125953345.909    23968131.512    98145500.5144   23968131.363  
                
  21449882.953   112719896.011    21449892.613    87833740.4874   21449892.516  
                
  21100001.945   112712426.752                    87665244.402    21100004.531  
  21100001.594  
  20957103.352   111831128.714                    86979804.345    20957106.457  
  20957101.047  
  21197465.305   111393425.601    21197472.934    86800099.6174   21197472.871  
                
  20260012.836   106467091.648    20260019.605    82961411.7674   20260019.613  
                
  23327231.531   124653602.559                    96952788.092    23327238.508  
  23327231.770  
  22308526.680   117232101.602    22308534.004    91349728.8194   22308533.969  
                
  21974134.906   117629283.317                    91489449.160    21974140.379  
  21974133.980  
  22074064.039   117874290.310                    91679990.098    22074067.207  
  22074063.520  
  22146444.242   116380354.945    22146452.637    90686038.6344   22146452.316  
                
  22934643.133   120522378.616    22934649.141    93913569.1654                 
                
  19786055.078   105619307.219                    82148353.281    19786058.156  
  19786053.539  
  20950705.648   112111438.438                    87197779.261    20950708.879  
  20950703.930  
  24520631.547   128856737.803    24520643.289   100407878.8034   24520643.746  
                
  22042912.000   117914736.205                    91711487.859    22042915.520  
  22042909.484  
 21  8 14  6 32 40.0000000  0 16G15G26R16R 2G29G18R15G 5R 3R 9G23G16
                                R18R17G25R19
  23963136.070   125927139.401    23963144.512    98125079.8664   23963144.398  
                
  21449128.031   112715928.827    21449137.688    87830649.1744   21449137.598  
                
  21103810.281   112732770.116                    87681067.021    21103812.840  
  21103809.934  
  20956225.289   111826443.213                    86976160.078    20956228.434  
  20956222.965  
  21200695.953   111410402.773    21200703.625    86813328.5734   21200703.559  
                
  20259019.414   106461871.186    20259026.172    82957343.8724   20259026.188  
                
  23335432.195   124697424.109                    96986871.497    23335439.156  
  23335432.414  
  22313115.625   117256216.671    22313122.953    91368519.7694   22313122.910  
                
  21967159.664   117591943.972                    91460407.454    21967165.035  
  21967158.695  
  22070835.406   117857049.598                    91666580.657    22070838.609  
  22070834.879  
  22140437.023   116348786.764    22140445.453    90661440.0574   22140445.117  
                
  22929783.508   120496841.136    22929789.539    93893669.8394                 
                
  19785229.117   105614898.209                    82144924.045    19785232.191  
  19785227.578  
  20954760.406   112133136.205                    87214655.312    20954763.645  
  20954758.688  
  24527991.750   128895415.869    24528003.543   100438017.5234   24528004.004  
                
  22038095.031   117888969.068                    91691446.748    22038098.621  
  22038092.582  
 21  8 14  6 32 50.0000000  0 16G15G26R16R 2G29G18R15G 5R 3R 9G23G16
                                R18R17G25R19
  23958154.664   125900962.450    23958163.156    98104682.2944   23958163.047  
                
  21448385.406   112712026.280    21448395.059    87827608.2224   21448394.973  
                
  21107632.797   112753189.332                    87696948.615    21107635.336  
  21107632.434  
  20955364.008   111821847.324                    86972585.494    20955367.160  
  20955361.672  
  21203933.664   111427417.022    21203941.367    86826586.4214   21203941.285  
                
  20258033.906   106456692.320    20258040.656    82953308.3944   20258040.680  
                
  23343634.023   124741251.750                    97020959.630    23343640.926  
  23343634.211  
  22317714.227   117280382.543    22317721.535    91387350.3134   22317721.492  
                
  21960191.758   117554644.245                    91431396.579    21960197.164  
  21960190.793  
  22067621.883   117839889.622                    91653234.006    22067625.129  
  22067621.332  
  22134436.594   116317254.283    22134445.020    90636869.3054   22134444.684  
                
  22924932.852   120471350.711    22924938.922    93873807.1834                 
                
  19784409.250   105610521.686                    82141520.093    19784412.312  
  19784407.703  
  20958819.117   112154855.074                    87231547.747    20958822.355  
  20958817.406  
  24535352.492   128934096.725    24535364.320   100468158.4054   24535364.758  
                
  22033281.078   117863217.706                    91671417.915    22033284.660  
  22033278.629  
 21  8 14  6 33  0.0000000  0 16G15G26R16R 2G29G18R15G 5R 3R 9G23G16
                                R18R17G25R19
  23953179.047   125874815.182    23953187.480    98084307.8374   23953187.363  
                
  21447655.047   112708188.201    21447664.699    87824617.5124   21447664.609  
                
  21111469.461   112773684.055                    87712888.951    21111472.000  
  21111469.086  
  20954519.477   111817340.809                    86969080.435    20954522.637  
  20954517.141  
  21207178.422   111444468.358    21207186.156    86839873.1614   21207186.066  
                
  20257056.289   106451554.912    20257063.031    82949305.2184   20257063.051  
                
  23351836.938   124785085.236                    97055052.328    23351843.777  
  23351837.078  
  22322322.469   117304599.063    22322329.730    91406220.3204   22322329.695  
                
  21953231.172   117517384.038                    91402416.436    21953236.680  
  21953230.238  
  22064423.445   117822810.192                    91639950.006    22064426.715  
  22064422.902  
  22128442.953   116285757.468    22128451.344    90612326.3244   22128451.016  
                
  22920091.156   120445907.421    22920097.250    93853981.2544                 
                
  19783595.391   105606177.304                    82138141.132    19783598.457  
  19783593.836  
  20962881.750   112176594.968                    87248456.546    20962884.984  
  20962880.035  
  24542713.734   128972780.141    24542725.570   100498301.2934   24542725.992  
                
  22028470.055   117837482.163                    91651401.401    22028473.688  
  22028467.613  
 21  8 14  6 33 10.0000000  0 16G15G26R16R 2G29G18R15G 5R 3R 9G23G16
                                R18R17G25R19
  23948209.133   125848697.810    23948217.488    98063956.6504   23948217.383  
                
  21446936.992   112704414.815    21446946.645    87821677.2084   21446946.551  
                
  21115320.242   112794254.218                    87728887.963    21115322.770  
  21115319.852  
  20953691.680   111812923.526                    86965644.760    20953694.840  
  20953689.336  
  21210430.211   111461556.605    21210437.973    86853188.6704   21210437.879  
                
  20256086.586   106446459.087    20256093.316    82945334.4504   20256093.344  
                
  23360040.828   124828924.586                    97089149.559    23360047.742  
  23360041.027  
  22326940.383   117328866.339    22326947.586    91425129.8824   22326947.578  
                
  21946278.039   117480163.743                    91373467.358    21946283.621  
  21946277.129  
  22061240.164   117805811.579                    91626728.863    22061243.453  
  22061239.621  
  22122456.141   116254296.568    22122464.512    90587811.3444   22122464.188  
                
  22915258.469   120420511.554    22915264.590    93834192.2924                 
                
  19782787.672   105601865.614                    82134787.593    19782790.738  
  19782786.102  
  20966948.328   112198355.995                    87265381.761    20966951.555  
  20966946.613  
  24550075.516   129011466.200    24550087.332   100528446.2464   24550087.746  
                
  22023661.883   117811762.270                    91631397.065    22023665.664  
  22023659.516  
 21  8 14  6 33 20.0000000  0 16G15G26R16R 2G29G18R15G 5R 3R 9G23G16
                                R18R17G25R19
  23943244.906   125822610.454    23943253.172    98043628.8474   23943253.070  
                
  21446231.258   112700706.129    21446240.914    87818787.3254   21446240.824  
                
  21119185.148   112814899.786                    87744945.609    21119187.656  
  21119184.758  
  20952880.688   111808595.991                    86962278.921    20952883.855  
  20952878.352  
  21213689.031   111478681.837    21213696.805    86866532.9984   21213696.715  
                
  20255124.789   106441404.858    20255131.508    82941396.0914   20255131.543  
                
  23368245.984   124872769.515                    97123251.129    23368252.758  
  23368246.059  
  22331567.922   117353184.199    22331575.070    91444078.8634   22331575.094  
                
  21939332.508   117442983.623                    91344549.491    21939338.031  
  21939331.562  
  22058072.047   117788893.974                    91613570.740    22058075.355  
  22058071.508  
  22116476.164   116222871.677    22116484.508    90563324.4274   22116484.191  
                
  22910434.836   120395163.227    22910440.992    93814440.3604                 
                
  19781986.008   105597586.300                    82131459.232    19781989.062  
  19781984.434  
  20971018.859   112220138.181                    87282323.479    20971022.090  
  20971017.145  
  24557437.773   129050154.810    24557449.547   100558593.1814   24557449.965  
                
  22018856.789   117786058.432                    91611405.202    22018860.598  
  22018854.367  
 21  8 14  6 33 30.0000000  0 16G15G26R16R 2G29G18R15G 5R 3R 9G23G16
                                R18R17G25R19
  23938286.391   125796553.073    23938294.613    98023324.4174   23938294.469  
                
  21445537.812   112697062.020    21445547.488    87815947.7594   21445547.383  
                
  21123064.070   112835620.260                    87761061.532    21123066.562  
  21123063.688  
  20952086.453   111804357.786                    86958982.530    20952089.609  
  20952084.129  
  21216954.875   111495843.976    21216962.637    86879906.0864   21216962.543  
                
  20254170.883   106436392.085    20254177.594    82937490.0344   20254177.637  
                
  23376452.102   124916619.759                    97157356.839    23376458.777  
  23376452.094  
  22336205.031   117377552.338    22336212.137    91463067.0194   22336212.184  
                
  21932394.562   117405843.644                    91315662.838    21932399.934  
  21932393.523  
  22054919.062   117772057.213                    91600475.495    22054922.375  
  22054918.535  
  22110503.039   116191482.776    22110511.340    90538865.5444   22110511.047  
                
  22905620.211   120369862.247    22905626.418    93794725.3084                 
                
  19781190.406   105593339.301                    82128156.013    19781193.445  
  19781188.824  
  20975093.305   112241941.387                    87299281.512    20975096.559  
  20975091.555  
  24564800.516   129088845.773    24564812.199   100588741.9724   24564812.652  
                
  22014054.664   117760370.571                    91591425.763    22014058.484  
  22014052.211  
 21  8 14  6 33 40.0000000  0 16G15G26R16R 2G29G18R15G 5R 3R 9G23G16
                                R18R17G25R19
  23933333.586   125770525.641    23933341.715    98003043.3214   23933341.570  
                
  21444856.641   112693482.461    21444866.340    87813158.4924   21444866.211  
                
  21126957.078   112856415.939                    87777235.947    21126959.547  
  21126956.719  
  20951308.953   111800208.975                    86955755.672    20951312.094  
  20951306.621  
  21220227.734   111513042.932    21220235.473    86893307.8634   21220235.402  
                
  20253224.852   106431420.671    20253231.566    82933616.2074   20253231.598  
                
  23384659.297   124960475.169                    97191466.568    23384665.762  
  23384659.078  
  22340851.703   117401970.748    22340858.781    91482094.3434   22340858.828  
                
  21925464.031   117368743.658                    91286807.315    21925469.340  
  21925462.926  
  22051781.211   117755301.261                    91587443.094    22051784.527  
  22051780.668  
  22104536.766   116160129.873    22104545.047    90514434.7214   22104544.750  
                
  22900814.633   120344608.766    22900820.879    93775047.2914                 
                
  19780400.836   105589124.504                    82124877.841    19780403.867  
  19780399.258  
  20979171.633   112263765.424                    87316255.738    20979174.902  
  20979169.832  
  24572163.633   129127538.892    24572175.266   100618892.4344   24572175.730  
                
  22009255.523   117734698.487                    91571458.569    22009259.301  
  22009253.086  
 21  8 14  6 33 50.0000000  0 17G15G26R16R 2G29G18R15G 5R 3R 9G10G23
                                G16R18R17G25R19
  23928386.578   125744528.632    23928394.594    97982785.9214   23928394.434  
                
  21444187.812   112689967.705    21444197.531    87810419.7144   21444197.391  
                
  21130864.117   112877286.558                    87793468.652    21130866.559  
  21130863.781  
  20950548.328   111796150.140                    86952598.809    20950551.473  
  20950546.004  
  21223507.641   111530278.945    21223515.340    86906738.5144   21223515.289  
                
  20252286.742   106426490.856    20252293.461    82929774.7944   20252293.480  
                
  23392867.203   125004335.852                    97225580.406    23392873.754  
  23392867.027  
  22345507.977   117426439.489    22345515.043    91501160.8974   22345515.078  
                
  21918541.078   117331684.504                    91257983.547    21918546.391  
  21918539.938  
  22048658.586   117738626.595                    91574473.913    22048661.875  
  22048658.066  
  24805661.461   130354625.548    24805673.277   101575085.3414   24805672.820  
                
  22098577.438   116128813.334    22098585.691    90490032.2234   22098585.395  
                
  22896018.172   120319403.199    22896024.445    93755406.6014                 
                
  19779617.359   105584942.240                    82121624.969    19779620.398  
  19779615.801  
  20983253.930   112285610.609                    87333246.420    20983257.195  
  20983252.098  
  24579527.180   129166234.375    24579538.797   100649044.7264   24579539.266  
                
  22004459.398   117709042.289                    91551503.777    22004463.141  
  22004456.922  
 21  8 14  6 34  0.0000000  0 17G15G26R16R 2G29G18R15G 5R 3R 9G10G23
                                G16R18R17G25R19
  23923445.359   125718562.306    23923453.238    97962552.4504   23923453.129  
                
  21443531.352   112686517.983    21443541.086    87807731.6154   21443540.945  
                
  21134785.219   112898232.410                    87809759.869    21134787.656  
  21134784.887  
  20949804.523   111792181.116                    86949511.796    20949807.656  
  20949802.207  
  21226794.648   111547552.251    21226802.301    86920198.2364   21226802.270  
                
  20251356.570   106421602.844    20251363.301    82925965.9564   20251363.309  
                
  23401076.031   125048201.862                    97259698.380    23401082.719  
  23401075.945  
  22350173.852   117450958.793    22350180.914    91520266.8444   22350180.941  
                
  21911625.719   117294666.315                    91229191.664    21911631.102  
  21911624.566  
  22045551.219   117722033.477                    91561568.160    22045554.512  
  22045550.691  
  24798565.883   130317338.196    24798577.793   101546030.2744   24798577.199  
                
  22092625.062   116097533.433    22092633.250    90465658.2744   22092632.992  
                
  22891230.875   120294245.774    22891237.168    93735803.4154                 
                
  19778840.023   105580792.770                    82118397.610    19778843.078  
  19778838.484  
  20987340.211   112307477.205                    87350253.773    20987343.484  
  20987338.340  
  24586891.211   129204932.323    24586902.820   100679198.9584   24586903.270  
                
  21999666.297   117683402.422                    91531561.659    21999670.016  
  21999663.801  
 21  8 14  6 34 10.0000000  0 17G15G26R16R 2G29G18R15G 5R 3R 9G10G23
                                G16R18R17G25R19
  23918510.031   125692626.513    23918517.664    97942342.7544   23918517.621  
                
  21442887.195   112683132.911    21442896.930    87805093.8984   21442896.801  
                
  21138720.312   112919252.936                    87826109.149    21138722.730  
  21138719.977  
  20949077.547   111788301.809                    86946494.563    20949080.676  
  20949075.258  
  21230088.672   111564862.399    21230096.270    86933686.6624   21230096.262  
                
  20250434.289   106416756.225    20250441.035    82922189.3704   20250441.039  
                
  23409285.648   125092072.705                    97293820.110    23409292.605  
  23409285.762  
  22354849.234   117475528.055    22354856.309    91539411.7174   22354856.355  
                
  21904717.961   117257688.951                    91200431.527    21904723.410  
  21904716.793  
  22042459.062   117705521.552                    91548725.553    22042462.363  
  22042458.539  
  24791471.180   130280055.265    24791483.098   101516978.6494   24791482.473  
                
  22086679.602   116066289.880    22086687.715    90441312.6654   22086687.500  
                
  22886452.695   120269136.205    22886458.984    93716237.5274                 
                
  19778068.758   105576675.666                    82115195.414    19778071.809  
  19778067.223  
  20991430.422   112329364.784                    87367277.416    20991433.703  
  20991428.516  
  24594255.648   129243632.277    24594267.230   100709354.7284   24594267.680  
                
  21994876.172   117657778.321                    91511631.793    21994879.840  
  21994873.637  
 21  8 14  6 34 20.0000000  0 17G15G26R16R 2G29G18R15G 5R 3R 9G10G23
                                G16R18R17G25R19
  23913580.477   125666721.399    23913587.965    97922156.9574   23913587.961  
                
  21442255.352   112679812.542    21442265.066    87802506.6014   21442264.969  
                
  21142669.344   112940347.963                    87842516.376    21142671.738  
  21142668.992  
  20948367.344   111784512.061                    86943546.961    20948370.469  
  20948365.059  
  21233389.727   111582209.499    21233397.250    86947203.8784   21233397.266  
                
  20249519.883   106411950.992    20249526.637    82918445.0414   20249526.641  
                
  23417496.297   125135948.084                    97327945.353    23417503.293  
  23417496.426  
  22359534.133   117500147.266    22359541.227    91558595.5084   22359541.281  
                
  21897817.914   117220752.609                    91171703.256    21897823.328  
  21897816.727  
  22039382.164   117689091.130                    91535946.334    22039385.477  
  22039381.648  
  24784377.367   130242776.858    24784389.277   101487930.5494   24784388.613  
                
  22080741.078   116035082.798    22080749.148    90416995.4654   22080748.941  
                
  22881683.625   120244074.599    22881689.906    93696709.0074                 
                
  19777303.547   105572590.900                    82112018.371    19777306.609  
  19777302.016  
  20995524.531   112351273.242                    87384317.327    20995527.832  
  20995522.594  
  24601620.391   129282334.155    24601632.027   100739512.0024   24601632.449  
                
  21990089.023   117632170.214                    91491714.408    21990092.664  
  21990086.414  
 21  8 14  6 34 30.0000000  0 17G15G26R16R 2G29G18R15G 5R 3R 9G10G23
                                G16R18R17G25R19
  23908656.797   125640847.070    23908664.234    97901995.1754   23908664.207  
                
  21441635.844   112676556.958    21441645.555    87799969.7824   21441645.461  
                
  21146632.320   112961517.433                    87858981.510    21146634.715  
  21146631.977  
  20947673.977   111780812.084                    86940669.206    20947677.090  
  20947671.699  
  21236697.805   111599593.571    21236705.250    86960749.8974   21236705.289  
                
  20248613.359   106407187.211    20248620.133    82914733.0034   20248620.137  
                
  23425707.938   125179828.127                    97362074.241    23425714.840  
  23425708.000  
  22364228.523   117524816.392    22364235.609    91577818.1954   22364235.668  
                
  21890925.617   117183857.548                    91143007.092    21890930.977  
  21890924.441  
  22036320.516   117672742.094                    91523230.417    22036323.816  
  22036320.000  
  24777284.500   130205503.132    24777296.328   101458886.0914   24777295.648  
                
  22074809.531   116003912.355    22074817.590    90392706.8184   22074817.383  
                
  22876923.711   120219061.111    22876930.000    93677217.9804                 
                
  19776544.414   105568538.592                    82108866.577    19776547.480  
  19776542.883  
  20999622.570   112373202.795                    87401373.625    20999625.883  
  20999620.609  
  24608985.461   129321037.933    24608997.164   100769670.7504   24608997.574  
                
  21985304.773   117606578.020                    91471809.389    21985308.492  
  21985302.230  
 21  8 14  6 34 40.0000000  0 17G15G26R16R 2G29G18R15G 5R 3R 9G10G23
                                G16R18R17G25R19
  23903738.945   125615003.559    23903746.352    97881857.3774   23903746.277  
                
  21441028.641   112673366.088    21441038.352    87797483.3804   21441038.250  
                
  21150609.203   112982761.267                    87875504.479    21150611.602  
  21150608.863  
  20946997.375   111777201.670                    86937861.109    20947000.484  
  20946995.129  
  21240012.898   111617014.490    21240020.262    86974324.6394   21240020.344  
                
  20247714.703   106402464.772    20247721.492    82911053.1874   20247721.492  
                
  23433920.461   125223712.419                    97396206.442    23433927.207  
  23433920.406  
  22368932.375   117549535.263    22368939.445    91597079.6564   22368939.500  
                
  21884040.977   117147003.639                    91114342.970    21884046.375  
  21884039.809  
  22033274.094   117656474.411                    91510577.784    22033277.398  
  22033273.594  
  24770192.469   130168234.077    24770204.215   101429845.2724   24770203.578  
                
  22068884.945   115972778.536    22068893.000    90368446.7154   22068892.781  
                
  22872172.938   120194095.704    22872179.199    93657764.4364                 
                
  19775791.297   105564518.456                    82105739.815    19775794.371  
  19775789.758  
  21003724.508   112395153.191                    87418446.151    21003727.812  
  21003722.492  
  24616350.922   129359743.452    24616362.621   100799830.8614   24616363.035  
                
  21980523.516   117581001.775                    91451916.746    21980527.258  
  21980521.062  
 21  8 14  6 34 50.0000000  0 17G15G26R16R 2G29G18R15G 5R 3R 9G10G23
                                G16R18R17G25R19
  23898827.000   125589191.255    23898834.379    97861743.9104   23898834.289  
                
  21440433.812   112670240.189    21440443.531    87795047.6134   21440443.414  
                
  21154600.078   113004079.715                    87892085.488    21154602.469  
  21154599.746  
  20946337.648   111773681.193                    86935122.956    20946340.762  
  20946335.426  
  21243335.055   111634472.504    21243342.340    86987928.2844   21243342.461  
                
  20246823.969   106397783.931    20246830.777    82907405.7784   20246830.773  
                
  23442133.734   125267601.154                    97430342.097    23442140.410  
  23442133.645  
  22373645.742   117574304.140    22373652.840    91616380.0744   22373652.859  
                
  21877164.117   117110191.544                    91085711.391    21877169.590  
  21877162.949  
  22030242.992   117640288.484                    91497988.726    22030246.293  
  22030242.469  
  24763101.406   130130970.028    24763113.023   101400808.3554   24763112.441  
                
  22062967.406   115941681.698    22062975.453    90344215.4134   22062975.230  
                
  22867431.414   120169178.814    22867437.605    93638348.6644                 
                
  19775044.336   105560531.131                    82102638.559    19775047.414  
  19775042.793  
  21007830.406   112417124.766                    87435535.139    21007833.734  
  21007828.352  
  24623716.680   129398450.870    24623728.441   100829992.4594   24623728.840  
                
  21975745.359   117555441.684                    91432036.699    21975749.047  
  21975742.910  
 21  8 14  6 35  0.0000000  0 17G15G26R16R 2G29G18R15G 5R 3R 9G10G23
                                G16R18R17G25R19
  23893920.961   125563410.038    23893928.301    97841654.6644   23893928.219  
                
  21439851.305   112667179.065    21439861.031    87792662.3254   21439860.914  
                
  21158604.781   113025472.047                    87908723.965    21158607.148  
  21158604.410  
  20945694.773   111770250.683                    86932454.777    20945697.898  
  20945692.566  
  21246664.242   111651967.454    21246671.453    87001560.7064   21246671.605  
                
  20245941.102   106393144.452    20245947.938    82903790.5954   20245947.918  
                
  23450347.766   125311493.935                    97464480.884    23450354.387  
  23450347.637  
  22378368.539   117599122.562    22378375.652    91635719.1064   22378375.656  
                
  21870295.023   117073421.031                    91057112.133    21870300.539  
  21870293.848  
  22027227.180   117624184.274                    91485463.225    22027230.496  
  22027226.633  
  24756011.328   130093710.871    24756022.742   101371775.2434   24756022.207  
                
  22057056.891   115910621.716    22057064.934    90320012.8434   22057064.707  
                
  22862699.070   120144310.211    22862705.238    93618970.5324                 
                
  19774303.414   105556576.076                    82099562.403    19774306.492  
  19774301.855  
  21011940.211   112439117.234                    87452640.384    21011943.551  
  21011938.152  
  24631082.805   129437159.878    24631094.566   100860155.3064   24631094.941  
                
  21970970.242   117529897.478                    91412168.973    21970973.793  
  21970967.746  
 21  8 14  6 35 10.0000000  0 17G15G26R16R 2G29G18R15G 5R 3R 9G10G23
                                G16R18R17G25R19
  23889020.852   125537660.250    23889028.281    97821589.9324   23889028.219  
                
  21439281.156   112664182.864    21439290.887    87790327.6214   21439290.762  
                
  21162623.359   113046938.497                    87925420.081    21162625.719  
  21162622.980  
  20945068.766   111766910.147                    86929856.573    20945071.895  
  20945066.559  
  21250000.469   111669499.361    21250007.609    87015221.9404   21250007.785  
                
  20245066.125   106388546.432    20245072.988    82900207.7284   20245072.961  
                
  23458562.477   125355390.723                    97498622.788    23458569.117  
  23458562.359  
  22383100.773   117623990.602    22383107.879    91655096.7894   22383107.887  
                
  21863433.828   117036692.571                    91028545.572    21863439.320  
  21863432.637  
  22024226.695   117608161.897                    91473001.390    22024230.016  
  22024226.137  
  24748922.180   130056456.804    24748933.441   101342746.0964   24748932.949  
                
  22051153.422   115879598.811    22051161.449    90295839.1594   22051161.227  
                
  22857975.977   120119490.207    22857982.137    93599630.2844                 
                
  19773568.617   105552653.672                    82096511.645    19773571.699  
  19773567.047  
  21016053.977   112461130.821                    87469762.056    21016057.336  
  21016051.883  
  24638449.266   129475870.546    24638461.008   100890319.4404   24638461.371  
                
  21966198.000   117504369.408                    91392313.833    21966201.566  
  21966195.500  
 21  8 14  6 35 20.0000000  0 17G15G26R16R 2G29G18R15G 5R 3R 9G10G23
                                G16R18R17G25R19
  23884126.758   125511941.920    23884134.277    97801549.6844   23884134.211  
                
  21438723.359   112661251.619    21438733.094    87788043.5334   21438732.961  
                
  21166655.797   113068479.036                    87942173.825    21166658.156  
  21166655.410  
  20944459.633   111763659.739                    86927328.473    20944462.750  
  20944457.418  
  21253343.719   111687068.253    21253350.809    87028911.9814   21253351.016  
                
  20244199.016   106383989.809    20244205.906    82896657.1174   20244205.867  
                
  23466777.859   125399291.312                    97532767.659    23466784.516  
  23466777.812  
  22387842.406   117648908.026    22387849.480    91674512.9594   22387849.520  
                
  21856580.500   117000006.260                    91000011.767    21856585.953  
  21856579.301  
  22021241.547   117592221.382                    91460603.219    22021244.863  
  22021240.996  
  24741833.906   130019207.855    24741845.094   101313720.9444   24741844.645  
                
  22045256.992   115848612.996    22045264.969    90271694.3824   22045264.781  
                
  22853262.125   120094718.802    22853268.312    93580327.8944                 
                
  19772839.883   105548763.670                    82093486.095    19772842.969  
  19772838.293  
  21020171.617   112483165.216                    87486899.910    21020175.004  
  21020169.508  
  24645815.938   129514582.716    24645827.703   100920484.7344   24645828.051  
                
  21961428.758   117478857.330                    91372471.114    21961432.285  
  21961426.254  
 21  8 14  6 35 30.0000000  0 17G15G26R16R 2G29G18R15G 5R 3R 9G10G23
                                G16R18R17G25R19
  23879238.633   125486255.194    23879246.309    97781534.0734   23879246.215  
                
  21438177.898   112658385.209    21438187.637    87785809.9614   21438187.512  
                
  21170702.055   113090093.358                    87958984.968    21170704.402  
  21170701.656  
  20943867.367   111760499.360                    86924870.403    20943870.492  
  20943865.152  
  21256694.008   111704674.109    21256701.070    87042630.8204   21256701.285  
                
  20243339.789   106379474.580    20243346.707    82893138.7634   20243346.641  
                
  23474994.031   125443195.661                    97566915.443    23475000.617  
  23474993.961  
  22392593.422   117673874.760    22392600.445    91693967.5564   22392600.504  
                
  21849735.070   116963362.249                    90971510.887    21849740.469  
  21849733.883  
  22018271.742   117576362.831                    91448268.791    22018275.059  
  22018271.215  
  24734746.617   129981964.128    24734757.723   101284699.8784   24734757.324  
                
  22039367.664   115817664.417    22039375.574    90247578.6104   22039375.441  
                
  22848557.539   120069996.072    22848563.730    93561063.4204                 
                
  19772117.250   105544906.243                    82090485.865    19772120.344  
  19772115.668  
  21024293.195   112505220.705                    87504054.169    21024296.609  
  21024291.074  
  24653182.891   129553296.316    24653194.672   100950651.1384   24653195.008  
                
  21956662.562   117453361.504                    91352641.020    21956666.078  
  21956660.105  
 21  8 14  6 35 40.0000000  0 17G15G26R16R 2G29G18R15G 5R 3R 9G10G23
                                G16R18R17G25R19
  23874356.508   125460600.274    23874364.355    97761543.2464   23874364.266  
                
  21437644.828   112655583.880    21437654.566    87783627.1094   21437654.434  
                
  21174762.141   113111781.513                    87975853.531    21174764.465  
