     2.11           OBSERVATION DATA    M (MIXED)           RINEX VERSION / TYPE
EFT-CORS.RU                             20210817 144926 UTC PGM / RUN BY / DATE 
MDNG                                                        MARKER NAME         
                                                            MARKER NUMBER       
MDNG                EFT-CORS.RU                             OBSERVER / AGENCY   
0                   TRIMBLE BD970       2.0                 REC # / TYPE / VERS 
0                   UNKNOWN EXT NONE                        ANT # / TYPE        
  3463911.2830  3030468.2400  4402179.3760                  APPROX POSITION XYZ 
        0.0000        0.0000        0.0000                  ANTENNA: DELTA H/E/N
     1     1                                                WAVELENGTH FACT L1/2
     6    C1    L1    P2    L2    C2    P1                  # / TYPES OF OBSERV 
    10.000                                                  INTERVAL            
  2021     8    16    19    30    0.0000000     GPS         TIME OF FIRST OBS   
  2021     8    16    20    30    0.0000000     GPS         TIME OF LAST OBS    
     0                                                      RCV CLOCK OFFS APPL 
                                                            END OF HEADER       
 21  8 16 19 30  0.0000000  0 15G13G14G30G 9G 5R13G 8R 4G20R12G 7G27
                                R 3R14R 2
  23649897.211   124281055.804    23649903.559    96842409.1114                 
                
  22094888.508   116109454.528    22094895.754    90474935.5064   22094895.973  
                
  20710466.133   108834286.747    20710475.078    84805996.7944   20710475.340  
                
  22320718.625   117296198.298    22320727.840    91399687.0654   22320727.762  
                
  22849346.156   120074133.098    22849353.062    93564297.0454   22849353.121  
                
  19714146.570   105272464.888                    81878626.915    19714148.996  
  19714144.766  
  23124428.102   121519713.316    23124437.293    94690735.5534   23124437.918  
                
  20141361.477   107856088.019                    83888059.759    20141364.387  
  20141360.738  
  22028052.570   115758199.851    22028059.066    90201228.5224                 
                
  23240792.977   124148183.781                    96559700.156    23240796.344  
  23240792.441  
  20911797.719   109892286.979    20911803.949    85630407.7004   20911803.828  
                
  24098039.625   126636065.821    24098048.895    98677508.4414   24098048.926  
                
  19522397.203   104504937.464                    81281624.604    19522401.336  
  19522396.039  
  20219179.430   107779633.006                    83828610.717    20219183.699  
  20219178.953  
  22904296.812   122221716.626                    95061336.114    22904300.598  
  22904294.633  
 21  8 16 19 30 10.0000000  0 15G13G14G30G 9G 5R13G 8R 4G20R12G 7G27
                                R 3R14R 2
  23643636.766   124248156.967    23643643.082    96816773.6704                 
                
  22089066.453   116078859.453    22089073.707    90451095.1914   22089073.895  
                
  20708890.445   108826006.484    20708899.383    84799544.6424   20708899.648  
                
  22326172.062   117324856.242    22326181.273    91422017.9324   22326181.203  
                
  22847176.859   120062733.336    22847183.793    93555414.1144   22847183.824  
                
  19717526.523   105290513.651                    81892664.844    19717528.953  
  19717524.723  
  23123536.133   121515026.016    23123545.316    94687083.1264   23123545.949  
                
  20136980.836   107832629.891                    83869814.542    20136983.746  
  20136980.105  
  22030030.227   115768592.511    22030036.711    90209326.6854                 
                
  23247840.594   124185830.951                    96588981.271    23247844.000  
  23247840.102  
  20913743.852   109902513.987    20913750.062    85638376.7914   20913749.957  
                
  24100302.203   126647955.804    24100311.418    98686773.3604   24100311.477  
                
  19525802.734   104523167.580                    81295803.580    19525806.859  
  19525801.543  
  20215384.617   107759404.527                    83812877.460    20215388.871  
  20215384.141  
  22912420.125   122265064.313                    95095050.970    22912423.918  
  22912418.012  
 21  8 16 19 30 20.0000000  0 15G13G14G30G 9G 5R13G 8R 4G20R12G 7G27
                                R 3R14R 2
  23637378.031   124215267.166    23637384.301    96791145.2514                 
                
  22083251.227   116048300.296    22083258.441    90427282.8674   22083258.637  
                
  20707321.008   108817759.044    20707329.938    84793118.0724   20707330.203  
                
  22331631.789   117353547.224    22331640.996    91444374.5384   22331640.930  
                
  22845019.750   120051397.646    22845026.699    93546581.1094   22845026.711  
                
  19720915.336   105308609.717                    81906739.564    19720917.770  
  19720913.551  
  23122656.367   121510402.803    23122665.551    94683480.6454   23122666.168  
                
  20132612.672   107809238.610                    83851621.328    20132615.586  
  20132611.930  
  22032019.617   115779046.822    22032026.074    90217472.9124                 
                
  23254888.172   124223477.757                    96618262.126    23254891.594  
  23254887.711  
  20915694.953   109912767.081    20915701.145    85646366.2204   20915701.047  
                
  24102577.102   126659910.401    24102586.281    98696088.6414   24102586.316  
                
  19529223.039   104541476.807                    81310044.093    19529227.160  
  19529221.828  
  20211599.734   107739229.036                    83797185.432    20211604.000  
  20211599.270  
  22920547.602   122308434.015                    95128782.959    22920551.391  
  22920545.484  
 21  8 16 19 30 30.0000000  0 15G13G14G30G 9G 5R13G 8R 4G20R12G 7G27
                                R 3R14R 2
  23631121.078   124182386.717    23631127.383    96765524.1434                 
                
  22077442.922   116017777.421    22077450.082    90403498.8114   22077450.277  
                
  20705757.859   108809544.688    20705766.777    84786717.2664   20705767.043  
                
  22337097.859   117382271.489    22337107.062    91466757.0784   22337106.984  
                
  22842874.922   120040126.414    22842881.883    93537798.3394   22842881.859  
                
  19724312.992   105326752.982                    81920850.986    19724315.453  
  19724311.203  
  23121788.930   121505844.326    23121798.066    94679928.5754   23121798.676  
                
  20128257.094   107785914.741                    83833480.542    20128260.016  
  20128256.367  
  22034020.797   115789563.111    22034027.246    90225667.4304                 
                
  23261935.742   124261124.378                    96647542.836    23261939.160  
  23261935.320  
  20917651.070   109923046.520    20917657.234    85654376.1704   20917657.152  
                
  24104864.352   126671929.894    24104873.484    98705454.4854   24104873.516  
                
  19532658.211   104559865.533                    81324346.428    19532662.336  
  19532657.008  
  20207824.828   107719106.679                    83781534.721    20207829.094  
  20207824.363  
  22928679.164   122351825.350                    95162531.767    22928682.941  
  22928677.000  
 21  8 16 19 30 40.0000000  0 15G13G14G30G 9G 5R13G 8R 4G20R12G 7G27
                                R 3R14R 2
  23624865.883   124149515.551    23624872.262    96739910.2714                 
                
  22071641.492   115987290.778    22071648.609    90379742.9904   22071648.805  
                
  20704200.992   108801363.299    20704209.902    84780342.1604   20704210.176  
                
  22342570.219   117411028.846    22342579.426    91489165.4004   22342579.352  
                
  22840742.328   120028919.547    22840749.281    93529065.7104   22840749.246  
                
  19727719.469   105344943.376                    81934999.074    19727721.930  
  19727717.707  
  23120933.719   121501350.177    23120942.832    94676426.6434   23120943.445  
                
  20123914.102   107762658.217                    83815392.133    20123917.027  
  20123913.379  
  22036033.727   115800141.163    22036040.148    90233910.0674                 
                
  23268983.234   124298770.598                    96676823.219    23268986.621  
  23268982.844  
  20919612.164   109933352.136    20919618.297    85662406.5234   20919618.234  
                
  24107163.930   126684014.100    24107173.012    98714870.7594   24107173.074  
                
  19536108.172   104578333.433                    81338710.340    19536112.285  
  19536106.973  
  20204059.867   107699037.361                    83765925.263    20204064.121  
  20204059.402  
  22936814.820   122395238.529                    95196297.555    22936818.594  
  22936812.629  
 21  8 16 19 30 50.0000000  0 15G13G14G30G 9G 5R13G 8R 4G20R12G 7G27
                                R 3R14R 2
  23618612.484   124116653.681    23618618.883    96714303.6074                 
                
  22065846.969   115956840.385    22065854.074    90356015.4264   22065854.266  
                
  20702650.383   108793214.814    20702659.289    84773992.6984   20702659.566  
                
  22348048.859   117439819.196    22348058.051    91511599.4354   22348057.977  
                
  22838621.961   120017776.946    22838628.902    93520383.1704   22838628.887  
                
  19731134.703   105363180.569                    81949183.562    19731137.176  
  19731132.938  
  23120090.766   121496920.463    23120099.895    94672974.9374   23120100.500  
                
  20119583.688   107739469.089                    83797356.148    20119586.613  
  20119582.969  
  22038058.398   115810780.875    22038064.812    90242200.7454                 
                
  23276030.641   124336416.299                    96706103.197    23276034.016  
  23276030.238  
  20921578.234   109943683.873    20921584.340    85670457.2284   20921584.301  
                
  24109475.805   126696162.931    24109484.832    98724337.3884   24109484.895  
                
  19539572.898   104596880.370                    81353135.748    19539577.016  
  19539571.699  
  20200304.875   107679021.135                    83750357.109    20200309.125  
  20200304.426  
  22944954.438   122438673.100                    95230079.969    22944958.277  
  22944952.254  
 21  8 16 19 31  0.0000000  0 15G13G14G30G 9G 5R13G 8R 4G20R12G 7G27
                                R 3R14R 2
  23612360.828   124083801.028    23612367.273    96688704.1634                 
                
  22060059.344   115926426.220    22060066.434    90332316.0884   22060066.602  
                
  20701106.016   108785099.140    20701114.922    84767668.8014   20701115.199  
                
  22353533.742   117468642.405    22353542.934    91534059.0704   22353542.859  
                
  22836513.828   120006698.613    22836520.727    93511750.7104   22836520.738  
                
  19734558.711   105381464.614                    81963404.479    19734561.207  
  19734556.961  
  23119260.086   121492555.200    23119269.219    94669573.4374   23119269.824  
                
  20115265.891   107716347.460                    83779372.648    20115268.816  
  20115265.180  
  22040094.773   115821482.078    22040101.168    90250539.3454                 
                
  23283077.867   124374061.329                    96735382.654    23283081.246  
  23283077.438  
  20923549.250   109954041.612    20923555.328    85678528.1954   20923555.301  
                
  24111799.930   126708376.253    24111808.926    98733854.2604   24111808.996  
                
  19543052.352   104615506.122                    81367622.426    19543056.469  
  19543051.145  
  20196559.805   107659057.812                    83734830.083    20196564.031  
  20196559.379  
  22953097.930   122482128.941                    95263878.927    22953101.918  
  22953095.848  
 21  8 16 19 31 10.0000000  0 15G13G14G30G 9G 5R13G 8R 4G20R12G 7G27
                                R 3R14R 2
  23606110.977   124050957.844    23606117.418    96663112.0814                 
                
  22054278.656   115896048.502    22054285.766    90308645.1334   22054285.906  
                
  20699567.922   108777016.430    20699576.828    84761370.5864   20699577.102  
                
  22359024.898   117497498.553    22359034.094    91556544.3774   22359034.000  
                
  22834417.969   119995684.811    22834424.812    93503168.5334   22834424.875  
                
  19737991.492   105399795.506                    81977661.837    19737993.969  
  19737989.734  
  23118441.695   121488254.562    23118450.852    94666222.3014   23118451.449  
                
  20110960.734   107693293.549                    83761441.836    20110963.664  
  20110960.055  
  22042142.883   115832245.016    22042149.266    90258926.0394                 
                
  23290124.969   124411705.676                    96764661.595    23290128.348  
  23290124.457  
  20925525.242   109964425.451    20925531.305    85686619.4984   20925531.270  
                
  24114136.320   126720654.125    24114145.348    98743421.4434   24114145.406  
                
  19546546.562   104634210.878                    81382170.577    19546550.695  
  19546545.371  
  20192824.727   107639147.718                    83719344.455    20192828.949  
  20192824.316  
  22961245.523   122525606.151                    95297694.504    22961249.574  
  22961243.395  
 21  8 16 19 31 20.0000000  0 15G13G14G30G 9G 5R13G 8R 4G20R12G 7G27
                                R 3R14R 2
  23599862.969   124018124.146    23599869.375    96637527.3684                 
                
  22048504.898   115865707.299    22048512.066    90285002.6494   22048512.172  
                
  20698036.102   108768966.683    20698045.012    84755098.0574   20698045.277  
                
  22364522.312   117526387.607    22364531.504    91579055.3164   22364531.410  
                
  22832334.352   119984735.318    22832341.152    93494636.4754   22832341.258  
                
  19741433.016   105418173.057                    81991955.481    19741435.477  
  19741431.250  
  23117635.570   121484018.296    23117644.766    94662921.3344   23117645.352  
                
  20106668.266   107670307.540                    83743563.834    20106671.184  
  20106667.621  
  22044202.688   115843069.370    22044209.070    90267360.6024                 
                
  23297171.945   124449349.311                    96793939.974    23297175.297  
  23297171.367  
  20927506.172   109974835.283    20927512.223    85694731.0484   20927512.191  
                
  24116485.016   126732996.549    24116494.070    98753038.9074   24116494.109  
                
  19550055.508   104652994.479                    81396780.037    19550059.652  
  19550054.332  
  20189099.602   107619290.687                    83703900.104    20189103.820  
  20189099.188  
  22969397.000   122569104.426                    95331526.489    22969401.172  
  22969394.891  
 21  8 16 19 31 30.0000000  0 15G13G14G30G 9G 5R13G 8R 4G20R12G 7G27
                                R 3R14R 2
  23593616.773   123985300.124    23593623.191    96611950.2104                 
                
  22042738.102   115835402.640    22042745.316    90261388.6524   22042745.391  
                
  20696510.547   108760949.860    20696519.461    84748851.1904   20696519.719  
                
  22370025.977   117555309.474    22370035.121    91601591.8324   22370035.031  
                
  22830262.984   119973850.195    22830269.793    93486154.5634   22830269.914  
                
  19744883.234   105436597.062                    82006285.263    19744885.688  
  19744881.438  
  23116841.742   121479846.713    23116851.012    94659670.7494   23116851.551  
                
  20102388.492   107647389.545                    83725738.726    20102391.395  
  20102387.867  
  22046274.172   115853955.063    22046280.555    90275842.9594                 
                
  23304218.734   124486992.196                    96823217.746    23304222.109  
  23304218.090  
  20929492.062   109985271.182    20929498.098    85702862.9134   20929498.074  
                
  24118845.977   126745403.449    24118855.066    98762706.6404   24118855.102  
                
  19553579.203   104671857.051                    81411450.925    19553583.348  
  19553578.062  
  20185384.406   107599486.596                    83688496.944    20185388.602  
  20185383.992  
  22977552.477   122612623.824                    95365374.938    22977556.676  
  22977550.348  
 21  8 16 19 31 40.0000000  0 15G13G14G30G 9G 5R13G 8R 4G20R12G 7G27
                                R 3R14R 2
  23587372.391   123952485.743    23587378.801    96586380.5474                 
                
  22036978.297   115805134.747    22036985.547    90237803.2924   22036985.613  
                
  20694991.281   108752966.090    20695000.199    84742630.0784   20695000.449  
                
  22375535.898   117584264.235    22375544.961    91624153.9884   22375544.918  
                
  22828203.914   119963029.702    22828210.746    93477723.0164   22828210.863  
                
  19748342.180   105455067.700                    82020651.321    19748344.641  
  19748340.367  
  23116060.234   121475739.923    23116069.520    94656470.6844   23116070.059  
                
  20098121.438   107624539.662                    83707966.598    20098124.328  
  20098120.824  
  22048357.328   115864902.140    22048363.715    90284373.1544                 
                
  23311265.367   124524634.359                    96852494.960    23311268.773  
  23311264.695  
  20931482.938   109995733.292    20931488.949    85711015.2064   20931488.930  
                
  24121219.203   126757874.895    24121228.316    98772424.6474   24121228.367  
                
  19557117.617   104690798.449                    81426183.121    19557121.766  
  19557116.488  
  20181679.211   107579735.871                    83673135.288    20181683.387  
  20181678.801  
  22985711.867   122656164.179                    95399239.674    22985716.090  
  22985709.785  
 21  8 16 19 31 50.0000000  0 15G13G14G30G 9G 5R13G 8R 4G20R12G 7G27
                                R 3R14R 2
  23581129.883   123919681.073    23581136.324    96560818.5004                 
                
  22031225.508   115774903.633    22031232.824    90214246.5924   22031232.855  
                
  20693478.297   108745015.321    20693487.215    84736434.6784   20693487.461  
                
  22381052.078   117613251.799    22381061.094    91646741.7024   22381061.066  
                
  22826157.148   119952273.810    22826164.000    93469341.8024   22826164.098  
                
  19751809.883   105473585.023                    82035053.683    19751812.344  
  19751808.078  
  23115291.039   121471697.755    23115300.301    94653320.9514   23115300.871  
                
  20093867.125   107601757.979                    83690247.507    20093869.996  
  20093866.516  
  22050452.172   115875910.625    22050458.555    90292951.1904                 
                
  23318311.883   124562275.636                    96881771.519    23318315.266  
  23318311.238  
  20933478.805   110006221.561    20933484.797    85719187.8804   20933484.789  
                
  24123604.727   126770410.811    24123613.836    98782192.8974   24123613.902  
                
  19560670.742   104709818.567                    81440976.545    19560674.891  
  19560669.613  
  20177984.023   107560038.461                    83657815.088    20177988.184  
  20177983.617  
  22993875.273   122699725.572                    95433120.756    22993879.484  
  22993873.223  
 21  8 16 19 32  0.0000000  0 15G13G14G30G 9G 5R13G 8R 4G20R12G 7G27
                                R 3R14R 2
  23574889.195   123886885.995    23574895.645    96535263.8904                 
                
  22025479.695   115744709.248    22025487.074    90190718.5094   22025487.082  
                
  20691971.578   108737097.452    20691980.492    84730264.9194   20691980.742  
                
  22386574.453   117642272.009    22386583.480    91669354.8464   22386583.445  
                
  22824122.656   119941582.505    22824129.508    93461010.9134   22824129.605  
                
  19755286.203   105492148.417                    82049491.877    19755288.680  
  19755284.391  
  23114534.148   121467720.328    23114543.414    94650221.6664   23114544.008  
                
  20089625.578   107579044.659                    83672581.594    20089628.449  
  20089624.965  
  22052558.656   115886980.249    22052565.051    90301576.8764                 
                
  23325358.203   124599915.858                    96911047.279    23325361.539  
  23325357.594  
  20935479.594   110016735.784    20935485.574    85727380.7834   20935485.578  
                
  24126002.469   126783011.029    24126011.543    98792011.2444   24126011.598  
                
  19564238.578   104728917.449                    81455831.231    19564242.738  
  19564237.461  
  20174298.766   107540393.978                    83642536.061    20174302.898  
  20174298.344  
  23002042.602   122743307.548                    95467017.854    23002046.711  
  23002040.508  
 21  8 16 19 32 10.0000000  0 15G13G14G30G 9G 5R13G 8R 4G20R12G 7G27
                                R 3R14R 2
  23568650.359   123854100.720    23568656.816    96509716.9084                 
                
  22019740.906   115714551.765    22019748.348    90167219.1904   22019748.348  
                
  20690471.133   108729212.566    20690480.043    84724120.8534   20690480.289  
                
  22392103.055   117671324.904    22392112.102    91691993.4534   22392112.043  
                
  22822100.484   119930955.900    22822107.328    93452730.4364   22822107.418  
                
  19758771.180   105510757.932                    82063965.941    19758773.648  
  19758769.355  
  23113789.617   121463807.812    23113798.875    94647172.9564   23113799.477  
                
  20085396.828   107556399.869                    83654968.982    20085399.684  
  20085396.234  
  22054676.789   115898111.114    22054683.207    90310250.2674                 
                
  23332404.328   124637555.020                    96940322.181    23332407.625  
  23332403.723  
  20937485.352   110027276.081    20937491.328    85735593.9974   20937491.336  
                
  24128412.453   126795675.566    24128421.520    98801879.7244   24128421.590  
                
  19567821.109   104748094.935                    81470747.048    19567825.289  
  19567820.000  
  20170623.500   107520802.753                    83627298.446    20170627.625  
  20170623.090  
  23010213.758   122786910.428                    95500931.191    23010217.879  
  23010211.660  
 21  8 16 19 32 20.0000000  0 15G13G14G30G 9G 5R13G 8R 4G20R12G 7G27
                                R 3R14R 2
  23562413.406   123821325.340    23562419.867    96484177.6444                 
                
  22014009.156   115684431.230    22014016.652    90143748.6514   22014016.641  
                
  20688976.945   108721360.649    20688985.852    84718002.4864   20688986.102  
                
  22397637.859   117700410.405    22397646.887    91714657.4764   22397646.840  
                
  22820090.602   119920393.955    22820097.434    93444500.3544   22820097.539  
                
  19762264.805   105529413.745                    82078476.018    19762267.289  
  19762262.992  
  23113057.359   121459959.905    23113066.629    94644174.5884   23113067.246  
                
  20081180.891   107533823.755                    83637409.784    20081183.742  
  20081180.309  
  22056806.547   115909303.095    22056812.961    90318971.2874                 
                
  23339450.258   124675193.158                    96969596.283    23339453.555  
  23339449.648  
  20939496.062   110037842.434    20939502.055    85743827.5194   20939502.062  
                
  24130834.672   126808404.411    24130843.727    98811798.3004   24130843.773  
                
  19571418.289   104767350.952                    81485723.947    19571422.484  
  19571417.188  
  20166958.219   107501264.753                    83612102.234    20166962.336  
  20166957.820  
  23018388.742   122830533.618                    95534860.326    23018392.855  
  23018386.621  
 21  8 16 19 32 30.0000000  0 15G13G14G30G 9G 5R13G 8R 4G20R12G 7G27
                                R 3R14R 2
  23556178.328   123788559.900    23556184.797    96458646.1394                 
                
  22008284.461   115654347.764    22008291.988    90120306.9954   22008291.965  
                
  20687489.055   108713541.732    20687497.961    84711909.8294   20687498.207  
                
  22403178.867   117729528.510    22403187.879    91737346.9064   22403187.867  
                
  22818093.062   119909896.779    22818099.898    93436320.7454   22818100.000  
                
  19765767.016   105548115.442                    82093021.781    19765769.531  
  19765765.203  
  23112337.422   121456176.662    23112346.734    94641226.6454   23112347.340  
                
  20076977.812   107511316.410                    83619904.077    20076980.680  
  20076977.230  
  22058947.938   115920556.187    22058954.328    90327739.9444                 
                
  23346495.953   124712830.004                    96998869.381    23346499.262  
  23346495.352  
  20941511.727   110048434.820    20941517.738    85752081.3284   20941517.742  
                
  24133269.109   126821197.497    24133278.141    98821766.9614   24133278.188  
                
  19575030.195   104786685.737                    81500762.116    19575034.395  
  19575029.082  
  20163302.922   107481779.991                    83596947.430    20163307.027  
  20163302.516  
  23026567.492   122874177.494                    95568805.536    23026571.723  
  23026565.449  
 21  8 16 19 32 40.0000000  0 15G13G14G30G 9G 5R13G 8R 4G20R12G 7G27
                                R 3R14R 2
  23549945.172   123755804.531    23549951.660    96433122.4784                 
                
  22002566.828   115624301.399    22002574.367    90096894.2544   22002574.328  
                
  20686007.438   108705755.787    20686016.344    84705842.8574   20686016.586  
                
  22408726.055   117758679.155    22408735.082    91760061.6674   22408735.059  
                
  22816107.844   119899464.385    22816114.730    93428191.6154   22816114.836  
                
  19769277.844   105566863.100                    82107603.284    19769280.359  
  19769276.008  
  23111629.883   121452458.514    23111639.188    94638329.3904   23111639.809  
                
  20072787.570   107488877.888                    83602451.886    20072790.434  
  20072787.000  
  22061100.945   115931870.307    22061107.348    90336556.1354                 
                
  23353541.422   124750465.580                    97028141.480    23353544.738  
  23353540.824  
  20943532.336   110059053.187    20943538.363    85760355.3784   20943538.355  
                
  24135715.781   126834054.812    24135724.758    98831785.6424   24135724.820  
                
  19578656.727   104806098.843                    81515861.196    19578660.930  
  19578655.617  
  20159657.602   107462348.444                    83581834.018    20159661.703  
  20159657.199  
  23034750.094   122917841.498                    95602766.401    23034754.367  
  23034748.055  
 21  8 16 19 32 50.0000000  0 15G13G14G30G 9G 5R13G 8R 4G20R12G 7G27
                                R 3R14R 2
  23543713.914   123723059.108    23543720.453    96407606.6084                 
                
  21996856.250   115594292.148    21996863.781    90073510.4234   21996863.723  
                
  20684532.078   108698002.754    20684540.992    84699801.5374   20684541.219  
                
  22414279.414   117787862.207    22414288.438    91782801.7004   22414288.418  
                
  22814134.969   119889096.927    22814141.926    93420113.0744   22814142.000  
                
  19772797.227   105585656.465                    82122220.344    19772799.746  
  19772795.391  
  23110934.680   121448805.193    23110943.973    94635482.6644   23110944.602  
                
  20068610.227   107466508.378                    83585053.396    20068613.094  
  20068609.668  
  22063265.539   115943245.297    22063271.945    90345419.7584                 
                
  23360586.617   124788099.784                    97057412.511    23360589.957  
  23360586.027  
  20945557.883   110069697.485    20945563.922    85768649.6334   20945563.902  
                
  24138174.648   126846976.233    24138183.617    98841854.2684   24138183.711  
                
  19582297.914   104825590.367                    81531021.264    19582302.113  
  19582296.797  
  20156022.273   107442970.079                    83566761.974    20156026.363  
  20156021.871  
  23042936.383   122961525.421                    95636742.744    23042940.711  
  23042934.383  
 21  8 16 19 33  0.0000000  0 15G13G14G30G 9G 5R13G 8R 4G20R12G 7G27
                                R 3R14R 2
  23537484.578   123690323.764    23537491.172    96382098.5574                 
                
  21991152.750   115564320.087    21991160.234    90050155.5694   21991160.211  
                
  20683062.984   108690282.625    20683071.906    84693785.8594   20683072.117  
                
  22419838.930   117817077.629    22419847.922    91805566.9654   22419847.910  
                
  22812174.445   119878794.302    22812181.445    93412085.0574   22812181.480  
                
  19776325.148   105604495.368                    82136872.822    19776327.691  
  19776323.320  
  23110251.836   121445216.888    23110261.133    94632686.6034   23110261.758  
                
  20064445.758   107444207.864                    83567708.546    20064448.645  
  20064445.207  
  22065441.695   115954681.090    22065448.105    90354330.7624                 
                
  23367631.539   124825732.477                    97086682.371    23367634.914  
  23367630.941  
  20947588.344   110080367.647    20947594.391    85776964.0394   20947594.375  
                
  24140645.695   126859961.675    24140654.695    98851972.8044   24140654.797  
                
  19585953.703   104845160.136                    81546242.197    19585957.906  
  19585952.578  
  20152396.930   107423644.997                    83551731.357    20152400.996  
  20152396.523  
  23051126.484   123005229.730                    95670734.944    23051130.891  
  23051124.539  
 21  8 16 19 33 10.0000000  0 15G13G14G30G 9G 5R13G 8R 4G20R12G 7G27
                                R 3R14R 2
  23531257.234   123657598.880    23531263.918    96356598.6514                 
                
  21985456.391   115534385.568    21985463.887    90026829.9794   21985463.863  
                
  20681600.203   108682595.707    20681609.125    84687796.0504   20681609.332  
                
  22425404.648   117846325.657    22425413.625    91828357.6284   22425413.613  
                
  22810226.281   119868556.637    22810233.289    93404107.6584   22810233.309  
                
  19779861.695   105623380.342                    82151561.138    19779864.250  
  19779859.875  
  23109581.391   121441693.707    23109590.664    94629941.2714   23109591.320  
                
  20060294.281   107421976.890                    83550417.799    20060297.188  
  20060293.723  
  22067629.484   115966177.930    22067635.871    90363289.3434                 
                
  23374676.219   124863363.915                    97115951.231    23374679.668  
  23374675.641  
  20949623.797   110091064.015    20949629.832    85785298.8734   20949629.840  
                
  24143128.984   126873011.438    24143138.008    98862141.4394   24143138.086  
                
  19589624.164   104864808.370                    81561524.149    19589628.375  
  19589623.035  
  20148781.617   107404373.340                    83536742.309    20148785.668  
  20148781.211  
  23059320.430   123048953.839                    95704742.560    23059324.809  
  23059318.414  
 21  8 16 19 33 20.0000000  0 15G13G14G30G 9G 5R13G 8R 4G20R12G 7G27
                                R 3R14R 2
  23525031.797   123624884.127    23525038.523    96331106.6554                 
                
  21979767.125   115504488.323    21979774.656    90003533.4414   21979774.621  
                
  20680143.688   108674941.671    20680152.613    84681831.8754   20680152.812  
                
  22430976.500   117875605.908    22430985.484    91851173.3974   22430985.449  
                
  22808290.453   119858383.773    22808297.438    93396180.7614   22808297.480  
                
  19783406.719   105642310.517                    82166284.618    19783409.305  
  19783404.883  
  23108923.281   121438235.343    23108932.535    94627246.4534   23108933.195  
                
  20056155.750   107399815.228                    83533180.951    20056158.652  
  20056155.188  
  22069828.805   115977735.434    22069835.168    90372295.1974                 
                
  23381720.602   124900993.672                    97145218.795    23381724.066  
  23381720.086  
  20951664.164   110101786.220    20951670.180    85793653.8334   20951670.211  
                
  24145624.422   126886125.061    24145633.457    98872359.8534   24145633.547  
                
  19593309.234   104884534.795                    81576866.917    19593313.441  
  19593308.090  
  20145176.281   107385154.904                    83521794.638    20145180.316  
  20145175.879  
  23067518.094   123092697.628                    95738765.494    23067522.391  
  23067516.000  
 21  8 16 19 33 30.0000000  0 15G13G14G30G 9G 5R13G 8R 4G20R12G 7G27
                                R 3R14R 2
  23518808.312   123592179.442    23518815.031    96305622.4854                 
                
  21974084.938   115474628.285    21974092.488    89980265.8894   21974092.438  
                
  20678693.391   108667320.327    20678702.316    84675893.1714   20678702.508  
                
  22436554.422   117904918.183    22436563.426    91874014.1284   22436563.371  
                
  22806366.922   119848275.575    22806373.836    93388304.2454   22806373.922  
                
  19786960.180   105661285.830                    82181043.186    19786962.785  
  19786958.336  
  23108277.516   121434841.923    23108286.805    94624602.2424   23108287.449  
                
  20052030.164   107377722.876                    83515998.016    20052033.070  
  20052029.594  
  22072039.633   115989353.408    22072045.977    90381348.1594                 
                
  23388764.664   124938621.609                    97174484.968    23388768.121  
  23388764.211  
  20953709.414   110112534.063    20953715.418    85802028.7774   20953715.469  
                
  24148132.000   126899302.437    24148141.004    98882627.9194   24148141.105  
                
  19597008.836   104904339.078                    81592270.240    19597013.051  
  19597007.699  
  20141580.883   107365989.440                    83506888.182    20141584.910  
  20141580.469  
  23075719.508   123136461.368                    95772803.939    23075723.703  
  23075717.324  
 21  8 16 19 33 40.0000000  0 15G13G14G30G 9G 5R13G 8R 4G20R12G 7G27
                                R 3R14R 2
  23512586.820   123559485.258    23512593.477    96280146.4874                 
                
  21968409.914   115444805.937    21968417.465    89957027.7064   21968417.410  
                
  20677249.398   108659732.133    20677258.320    84669980.2984   20677258.516  
                
  22442138.523   117934262.855    22442147.492    91896880.0954   22442147.438  
                
  22804455.773   119838232.448    22804462.617    93380478.4434   22804462.762  
                
  19790522.148   105680306.605                    82195837.119    19790524.734  
  19790520.285  
  23107644.133   121431513.610    23107653.492    94622008.7594   23107654.121  
                
  20047917.578   107355700.184                    83498869.256    20047920.484  
  20047917.012  
  22074262.016   116001032.115    22074268.363    90390448.4524                 
                
  23395808.406   124976247.897                    97203749.849    23395811.859  
  23395807.992  
  20955759.609   110123307.964    20955765.613    85810424.0224   20955765.676  
                
  24150651.773   126912543.892    24150660.754    98892945.9354   24150660.844  
                
  19600723.062   104924221.603                    81607734.442    19600727.258  
  19600721.926  
  20137995.523   107346877.506                    83492023.367    20137999.555  
  20137995.102  
  23083924.453   123180244.515                    95806857.498    23083928.621  
  23083922.328  
 21  8 16 19 33 50.0000000  0 15G13G14G30G 9G 5R13G 8R 4G20R12G 7G27
                                R 3R14R 2
  23506367.328   123526801.601    23506373.863    96254678.7054                 
                
  21962742.086   115415021.297    21962749.617    89933818.9004   21962749.586  
                
  20675811.703   108652177.009    20675820.613    84664093.1934   20675820.809  
                
  22447728.773   117963639.799    22447737.684    91919771.2224   22447737.652  
                
  22802557.008   119828254.395    22802563.824    93372703.3474   22802564.004  
                
  19794092.594   105699372.538                    82210666.181    19794095.203  
  19794090.738  
  23107023.180   121428250.540    23107032.602    94619466.1114   23107033.203  
                
  20043818.039   107333747.356                    83481794.852    20043820.961  
  20043817.469  
  22076495.945   116012771.460    22076502.301    90399596.0004                 
                
  23402851.836   125013872.513                    97233013.416    23402855.309  
  23402851.410  
  20957814.758   110134107.873    20957820.773    85818839.5404   20957820.836  
                
  24153183.711   126925849.288    24153192.684    98903313.7874   24153192.777  
                
  19604451.891   104944182.321                    81623259.431    19604456.078  
  19604450.742  
  20134420.172   107327818.913                    83477200.027    20134424.211  
  20134419.742  
  23092133.016   123224047.154                    95840926.211    23092137.211  
  23092130.984  
 21  8 16 19 34  0.0000000  0 15G13G14G30G 9G 5R13G 8R 4G20R12G 7G27
                                R 3R14R 2
  23500149.828   123494128.475    23500156.285    96229219.1174                 
                
  21957081.422   115385274.354    21957088.949    89910639.4734   21957088.922  
                
  20674380.289   108644654.899    20674389.184    84658231.8184   20674389.387  
                
  22453325.148   117993048.900    22453334.008    91942687.4194   22453334.004  
                
  22800670.602   119818341.351    22800677.352    93364978.8844   22800677.590  
                
  19797671.523   105718483.893                    82225530.566    19797674.152  
  19797669.688  
  23106414.641   121425052.726    23106424.090    94616974.3294   23106424.695  
                
  20039731.562   107311864.508                    83464774.860    20039734.516  
  20039731.016  
  22078741.391   116024571.348    22078747.762    90408790.7184                 
                
  23409894.906   125051495.316                    97262275.595    23409898.402  
  23409894.457  
  20959874.836   110144933.658    20959880.875    85827275.2174   20959880.938  
                
  24155727.789   126939218.578    24155736.754    98913731.4164   24155736.852  
                
  19608195.289   104964221.041                    81638845.098    19608199.461  
  19608194.141  
  20130854.812   107308813.564                    83462418.091    20130858.855  
  20130854.371  
  23100345.305   123267869.285                    95875010.075    23100349.461  
  23100343.277  
 21  8 16 19 34 10.0000000  0 15G13G14G30G 9G 5R13G 8R 4G20R12G 7G27
                                R 3R14R 2
  23493934.328   123461465.808    23493940.785    96203767.7084                 
                
  21951427.922   115355565.057    21951435.438    89887489.3804   21951435.410  
                
  20672955.133   108637165.655    20672964.012    84652396.0554   20672964.227  
                
  22458927.609   118022490.018    22458936.465    91965628.5424   22458936.477  
                
  22798796.578   119808493.302    22798803.258    93357305.0904   22798803.504  
                
  19801258.852   105737640.068                    82240429.814    19801261.480  
  19801257.020  
  23105818.461   121421919.796    23105827.957    94614533.1104   23105828.535  
                
  20035658.156   107290051.562                    83447809.239    20035661.109  
  20035657.602  
  22080998.320   116036431.581    22081004.719    90418032.4524                 
                
  23416937.641   125089116.190                    97291536.292    23416941.129  
  23416937.207  
  20961939.812   110155785.180    20961945.879    85835730.9394   20961945.926  
                
  24158284.000   126952651.554    24158292.941    98924198.6614   24158293.055  
                
  19611953.211   104984337.423                    81654491.168    19611957.383  
  19611952.066  
  20127299.461   107289861.533                    83447677.643    20127303.500  
  20127299.008  
  23108561.117   123311710.625                    95909108.880    23108565.328  
  23108559.117  
 21  8 16 19 34 20.0000000  0 15G13G14G30G 9G 5R13G 8R 4G20R12G 7G27
                                R 3R14R 2
  23487720.867   123428813.841    23487727.312    96178324.6264                 
                
  21945781.633   115325893.642    21945789.141    89864368.8034   21945789.121  
                
  20671536.250   108629709.430    20671545.105    84646586.0154   20671545.336  
                
  22464536.172   118051963.230    22464545.055    91988594.6564   22464545.047  
                
  22796934.992   119798710.683    22796941.574    93349682.2754   22796941.871  
                
  19804854.570   105756840.985                    82255363.864    19804857.180  
  19804852.754  
  23105234.711   121418852.265    23105244.215    94612142.8384   23105244.801  
                
  20031597.852   107268308.828                    83430898.223    20031600.797  
  20031597.301  
  22083266.742   116048352.234    22083273.160    90427321.2654                 
                
  23423980.000   125126735.092                    97320795.465    23423983.461  
  23423979.613  
  20964009.695   110166662.580    20964015.789    85844206.8284   20964015.824  
                
  24160852.320   126966148.275    24160861.250    98934715.6034   24160861.352  
                
  19615725.688   105004531.820                    81670197.911    19615729.844  
  19615724.551  
  20123754.125   107270962.961                    83432978.761    20123758.156  
  20123753.660  
  23116780.453   123355571.171                    95943222.607    23116784.816  
  23116778.543  
 21  8 16 19 34 30.0000000  0 15G13G14G30G 9G 5R13G 8R 4G20R12G 7G27
                                R 3R14R 2
  23481509.414   123396172.566    23481515.895    96152889.8684                 
                
  21940142.555   115296260.120    21940150.039    89841277.7464   21940150.039  
                
  20670123.664   108622286.213    20670132.504    84640801.6894   20670132.750  
                
  22470150.828   118081468.412    22470159.750    92011585.7114   22470159.723  
                
  22795085.797   119788993.147    22795092.277    93342110.1784   22795092.617  
                
  19808458.711   105776086.787                    82270332.818    19808461.316  
  19808456.918  
  23104663.391   121415849.891    23104672.859    94609803.3224   23104673.465  
                
  20027550.672   107246636.371                    83414041.882    20027553.617  
  20027550.113  
  22085546.656   116060333.208    22085553.086    90436657.0894                 
                
  23431021.961   125164351.931                    97350052.995    23431025.410  
  23431021.574  
  20966084.508   110177565.788    20966090.629    85852702.8284   20966090.656  
                
  24163432.789   126979708.735    24163441.676    98945282.1994   24163441.773  
                
  19619512.703   105024803.928                    81685965.107    19619516.863  
  19619511.586  
  20120218.781   107252117.602                    83418321.269    20120222.809  
  20120218.309  
  23125003.367   123399450.176                    95977350.719    23125007.742  
  23125001.477  
 21  8 16 19 34 40.0000000  0 15G13G14G30G 9G 5R13G 8R 4G20R12G 7G27
                                R 3R14R 2
  23475299.977   123363541.923    23475306.504    96127463.4364                 
                
  21934510.688   115266664.496    21934518.125    89818216.2244   21934518.141  
                
  20668717.328   108614895.915    20668726.152    84635043.0174   20668726.406  
                
  22475771.547   118111005.484    22475780.488    92034601.6094   22475780.457  
                
  22793248.961   119779340.638    22793255.359    93334588.7434   22793255.746  
                
  19812071.219   105795377.400                    82285336.623    19812073.785  
  19812069.441  
  23104104.461   121412912.764    23104113.926    94607514.6524   23104114.527  
                
  20023516.617   107225034.206                    83397240.205    20023519.559  
  20023516.066  
  22087838.000   116072374.342    22087844.461    90446039.7944                 
                
  23438063.531   125201966.592                    97379308.824    23438066.980  
  23438063.078  
  20968164.211   110188494.742    20968170.359    85861218.8874   20968170.375  
                
  24166025.336   126993332.750    24166034.168    98955898.3234   24166034.270  
                
  19623314.203   105045153.631                    81701792.652    19623318.359  
  19623313.105  
  20116693.445   107233325.663                    83403705.340    20116697.473  
  20116692.949  
  23133229.867   123443348.386                    96011493.766    23133234.266  
  23133227.969  
 21  8 16 19 34 50.0000000  0 15G13G14G30G 9G 5R13G 8R 4G20R12G 7G27
                                R 3R14R 2
  23469092.664   123330922.356    23469099.168    96102045.5994                 
                
  21928886.078   115237107.008    21928893.496    89795184.4274   21928893.527  
                
  20667317.289   108607538.679    20667326.102    84629310.1134   20667326.363  
                
  22481398.359   118140574.549    22481407.320    92057642.4244   22481407.289  
                
  22791424.570   119769753.405    22791430.879    93327118.1454   22791431.305  
                
  19815692.117   105814712.750                    82300375.235    19815694.656  
  19815690.363  
  23103557.969   121410040.910    23103567.480    94605276.8504   23103568.074  
                
  20019495.758   107203502.691                    83380493.472    20019498.684  
  20019495.191  
  22090140.812   116084475.690    22090147.285    90455469.4084                 
                
  23445104.680   125239579.265                    97408563.114    23445108.172  
  23445104.203  
  20970248.852   110199449.637    20970255.031    85869755.1644   20970255.035  
                
  24168630.016   127007020.467    24168638.742    98966564.0834   24168638.875  
                
  19627130.242   105065581.138                    81717680.695    19627134.387  
  19627129.160  
  20113178.117   107214587.026                    83389130.833    20113182.137  
  20113177.625  
  23141459.953   123487265.347                    96045651.387    23141464.309  
  23141457.988  
 21  8 16 19 35  0.0000000  0 15G13G14G30G 9G 5R13G 8R 4G20R12G 7G27
                                R 3R14R 2
  23462887.438   123298313.669    23462893.918    96076636.2204                 
                
  21923268.711   115207587.609    21923276.129    89772182.3054   21923276.152  
                
  20665923.531   108600214.423    20665932.332    84623602.9024   20665932.590  
                
  22487031.211   118170175.455    22487040.188    92080708.0594   22487040.168  
                
  22789612.562   119760231.317    22789618.828    93319698.3214   22789619.242  
                
  19819321.359   105834092.678                    82315448.524    19819323.891  
  19819319.617  
  23103023.867   121407234.218    23103033.430    94603089.8284   23103034.016  
                
  20015488.086   107182041.768                    83363801.649    20015491.008  
  20015487.516  
  22092455.055   116096637.054    22092461.539    90464945.7994                 
                
  23452145.398   125277189.706                    97437815.657    23452148.965  
  23452144.895  
  20972338.398   110210430.318    20972344.609    85878311.5364   20972344.605  
                
  24171246.781   127020771.702    24171255.406    98977279.3544   24171255.559  
                
  19630960.766   105086086.163                    81733629.054    19630964.887  
  19630959.707  
  20109672.820   107195901.866                    83374597.941    20109676.859  
  20109672.316  
  23149693.555   123531201.094                    96079823.603    23149697.895  
  23149691.543  
 21  8 16 19 35 10.0000000  0 15G13G14G30G 9G 5R13G 8R 4G20R12G 7G27
                                R 3R14R 2
  23456684.297   123265715.900    23456690.789    96051235.3734                 
                
  21917658.609   115178106.363    21917666.012    89749209.9114   21917666.051  
                
  20664536.039   108592923.110    20664544.824    84617921.3644   20664545.074  
                
  22492670.109   118199808.109    22492679.102    92103798.4354   22492679.082  
                
  22787812.930   119750774.287    22787819.211    93312329.2294   22787819.602  
                
  19822958.898   105853516.927                    82330556.271    19822961.430  
  19822957.152  
  23102502.227   121404493.008    23102511.785    94600953.8274   23102512.371  
                
  20011493.602   107160651.516                    83347164.799    20011496.516  
  20011493.035  
  22094780.711   116108858.423    22094787.211    90474468.9404                 
                
  23459185.703   125314797.745                    97467066.304    23459189.301  
  23459185.180  
  20974432.844   110221436.714    20974439.078    85886887.9374   20974439.066  
                
  24173875.641   127034586.418    24173884.152    98988044.0774   24173884.312  
                
  19634805.773   105106668.749                    81749637.721    19634809.887  
  19634804.738  
  20106177.531   107177270.057                    83360106.544    20106181.566  
  20106177.043  
  23157930.461   123575155.107                    96114010.054    23157934.902  
  23157928.520  
 21  8 16 19 35 20.0000000  0 15G13G14G30G 9G 5R13G 8R 4G20R12G 7G27
                                R 3R14R 2
  23450483.250   123233129.168    23450489.750    96025843.1254                 
                
  21912055.812   115148663.446    21912063.195    89726267.3854   21912063.238  
                
  20663154.844   108585664.877    20663163.605    84612265.6024   20663163.871  
                
  22498315.055   118229472.605    22498324.062    92126913.6154   22498324.035  
                
  22786025.766   119741382.723    22786032.062    93305011.1304   22786032.438  
                
  19826604.750   105872985.592                    82345698.556    19826607.270  
  19826603.020  
  23101993.039   121401817.240    23102002.602    94598868.8264   23102003.215  
                
  20007512.406   107139332.393                    83330583.243    20007515.293  
  20007511.832  
  22097117.805   116121139.839    22097124.316    90484038.8814                 
                
  23466225.562   125352403.421                    97496315.140    23466229.188  
  23466225.043  
  20976532.188   110232468.873    20976538.445    85895484.4144   20976538.430  
                
  24176516.578   127048464.677    24176525.004    98998858.3094   24176525.184  
                
  19638665.258   105127328.823                    81765706.662    19638669.363  
  19638664.254  
  20102692.289   107158691.798                    83345656.778    20102696.305  
  20102691.820  
  23166170.922   123619127.748                    96148210.988    23166175.355  
  23166168.961  
 21  8 16 19 35 30.0000000  0 15G13G14G30G 9G 5R13G 8R 4G20R12G 7G27
                                R 3R14R 2
  23444284.312   123200553.579    23444290.855    96000459.5464                 
                
  21906460.320   115119258.900    21906467.711    89703354.7564   21906467.746  
                
  20661779.930   108578439.672    20661788.668    84606635.5674   20661788.945  
                
  22503966.062   118259168.831    22503975.051    92150053.5304   22503975.035  
                
  22784251.062   119732056.651    22784257.344    93297744.0564   22784257.746  
                
  19830258.898   105892498.521                    82360875.283    19830261.422  
  19830257.188  
  23101496.312   121399206.909    23101505.883    94596834.8254   23101506.496  
                
  20003544.445   107118084.132                    83314056.832    20003547.316  
  20003543.863  
  22099466.297   116133481.212    22099472.836    90493655.5394                 
                
  23473264.969   125390006.662                    97525562.097    23473268.629  
  23473264.473  
  20978636.438   110243526.792    20978642.711    85904100.9734   20978642.688  
                
  24179169.578   127062406.347    24179177.957    99009721.9644   24179178.152  
                
  19642539.242   105148066.479                    81781835.946    19642543.320  
  19642538.246  
  20099217.070   107140166.971                    83331248.584    20099221.086  
  20099216.586  
  23174414.758   123663118.557                    96182426.046    23174419.203  
  23174412.812  
 21  8 16 19 35 40.0000000  0 15G13G14G30G 9G 5R13G 8R 4G20R12G 7G27
                                R 3R14R 2
  23438087.391   123167988.658    23438093.980    95975084.3164                 
                
  21900872.039   115089892.347    21900879.453    89680471.7264   21900879.477  
                
  20660411.211   108571247.058    20660419.930    84601030.9314   20660420.207  
                
  22509622.984   118288896.304    22509631.953    92173217.7894   22509631.973  
                
  22782488.734   119722795.581    22782494.977    93290527.6484   22782495.410  
                
  19833921.211   105912055.093                    82376085.949    19833923.734  
  19833919.500  
  23101011.930   121396661.516    23101021.520    94594851.4084   23101022.109  
                
  19999589.695   107096906.611                    83297585.423    19999592.551  
  19999589.113  
  22101826.094   116145882.039    22101832.664    90503318.5164                 
                
  23480303.828   125427606.961                    97554806.753    23480307.480  
  23480303.344  
  20980745.492   110254609.992    20980751.781    85912737.2194   20980751.754  
                
  24181834.570   127076410.980    24181842.914    99020634.6754   24181843.098  
                
  19646427.555   105168880.906                    81798024.952    19646431.633  
  19646426.562  
  20095751.789   107121695.161                    83316881.640    20095755.797  
  20095751.293  
  23182661.984   123707127.208                    96216654.975    23182666.387  
  23182660.012  
 21  8 16 19 35 50.0000000  0 15G13G14G30G 9G 5R13G 8R 4G20R12G 7G27
                                R 3R14R 2
  23431892.648   123135435.061    23431899.270    95949717.9014                 
                
  21895291.117   115060564.363    21895298.547    89657618.7644   21895298.574  
                
  20659048.812   108564087.561    20659057.516    84595452.1074   20659057.801  
                
  22515285.953   118318655.504    22515294.930    92196406.7744   22515294.973  
                
  22780738.875   119713599.994    22780745.070    93283362.2344   22780745.547  
                
  19837591.805   105931655.775                    82391330.924    19837594.332  
  19837590.090  
  23100540.055   121394181.794    23100549.605    94592919.1704   23100550.211  
                
  19995648.289   107075800.529                    83281169.594    19995651.145  
  19995647.723  
  22104197.297   116158342.748    22104203.891    90513028.1534                 
                
  23487342.266   125465204.841                    97584049.529    23487345.879  
  23487341.777  
  20982859.477   110265719.040    20982865.777    85921393.6184   20982865.750  
                
  24184511.641   127090479.034    24184519.945    99031596.8204   24184520.141  
                
  19650330.344   105189772.729                    81814274.143    19650334.422  
  19650329.355  
  20092296.555   107103276.836                    83302556.277    20092300.543  
  20092296.059  
  23190912.672   123751154.340                    96250898.278    23190917.055  
  23190910.672  
 21  8 16 19 36  0.0000000  0 15G13G14G30G 9G 5R13G 8R 4G20R12G 7G27
                                R 3R14R 2
  23425700.055   123102892.882    23425706.676    95924360.3614                 
                
  21889717.547   115031275.067    21889724.992    89634795.9414   21889725.043  
                
  20657692.711   108556961.217    20657701.402    84589899.1154   20657701.707  
                
  22520954.969   118348446.419    22520963.980    92219620.4614   22520964.023  
                
  22779001.500   119704470.018    22779007.652    93276247.9544   22779008.160  
                
  19841270.672   105951300.773                    82406610.360    19841273.195  
  19841268.949  
  23100080.648   121391767.618    23100090.109    94591038.0034   23100090.773  
                
  19991720.234   107054765.971                    83264809.380    19991723.090  
  19991719.680  
  22106579.891   116170863.298    22106586.484    90522784.4284                 
                
  23494380.211   125502800.247                    97613290.420    23494383.820  
  23494379.746  
  20984978.383   110276853.984    20984984.688    85930070.1974   20984984.652  
                
  24187200.766   127104610.481    24187209.031    99042608.3564   24187209.250  
                
  19654247.562   105210741.914                    81830583.509    19654251.637  
  19654246.578  
  20088851.367   107084912.077                    83288272.568    20088855.352  
  20088850.883  
  23199166.758   123795199.425                    96285155.544    23199171.094  
  23199164.703  
 21  8 16 19 36 10.0000000  0 15G13G14G30G 9G 5R13G 8R 4G20R12G 7G27
                                R 3R14R 2
  23419509.633   123070362.087    23419516.254    95899011.7004                 
