     2.11           OBSERVATION DATA    M (MIXED)           RINEX VERSION / TYPE
EFT-CORS.RU                             20210817 150703 UTC PGM / RUN BY / DATE 
MDNG                                                        MARKER NAME         
                                                            MARKER NUMBER       
MDNG                EFT-CORS.RU                             OBSERVER / AGENCY   
0                   TRIMBLE BD970       2.0                 REC # / TYPE / VERS 
0                   UNKNOWN EXT NONE                        ANT # / TYPE        
  3463911.2830  3030468.2400  4402179.3760                  APPROX POSITION XYZ 
        0.0000        0.0000        0.0000                  ANTENNA: DELTA H/E/N
     1     1                                                WAVELENGTH FACT L1/2
     6    C1    L1    P2    L2    C2    P1                  # / TYPES OF OBSERV 
    10.000                                                  INTERVAL            
  2021     8    14    19    30    0.0000000     GPS         TIME OF FIRST OBS   
  2021     8    14    20    30    0.0000000     GPS         TIME OF LAST OBS    
     0                                                      RCV CLOCK OFFS APPL 
                                                            END OF HEADER       
 21  8 14 19 30  0.0000000  0 14G 9G14G 7G 5G13G 8R 8G20G27G30R 2R10
                                R12R 1
  22064438.617   115949440.211    22064446.906    90350262.5424   22064446.703  
                
  22390069.125   117660616.367    22390076.238    91683640.5274   22390076.250  
                
  20824628.211   109434209.258    20824634.074    85273458.7734   20824634.008  
                
  22976210.086   120740801.256    22976216.730    94083782.0044   22976216.809  
                
  23959367.867   125907325.097    23959374.730    98109634.9574                 
                
  23182557.031   121825166.306    23182566.453    94928751.3914   23182566.859  
                
  22842456.039   122320332.254                    95138061.318    22842459.797  
  22842455.422  
  21946054.398   115327296.297    21946060.465    89865462.0154                 
                
  24002671.242   126134893.770    24002679.895    98286972.2804   24002679.953  
                
  20795760.031   109282503.512    20795768.465    85155251.9884   20795768.699  
                
  20393922.039   108825895.891                    84642361.000    20393925.023  
  20393920.035  
  23254211.844   123958063.692                                                  
  23254210.559  
  20315761.461   108523168.432                    84406900.320    20315765.219  
  20315760.973  
  19659592.953   105091805.680                    81738071.623    19659598.367  
  19659592.312  
 21  8 14 19 30 10.0000000  0 14G 9G14G 7G 5G13G 8R 8G20G27G30R 2R10
                                R12R 1
  22069574.414   115976428.950    22069582.676    90371292.7354   22069582.477  
                
  22383925.977   117628333.866    22383933.043    91658485.3314   22383933.074  
                
  20826332.391   109443164.792    20826338.246    85280437.1094   20826338.188  
                
  22973440.656   120726247.807    22973447.270    94072441.6544   22973447.375  
                
  23953037.086   125874056.767    23953044.004    98083711.5924                 
                
  23181070.359   121817353.807    23181079.781    94922663.7604   23181080.172  
                
  22850384.477   122362787.633                    95171082.175    22850388.051  
  22850383.699  
  21947436.852   115334561.128    21947442.973    89871122.9154                 
                
  24004322.633   126143571.886    24004331.281    98293734.4484   24004331.332  
                
  20793875.688   109272601.228    20793884.137    85147535.9294   20793884.359  
                
  20388676.781   108797906.154                    84620591.189    20388679.770  
  20388674.793  
  23261367.438   123996206.947                                                  
  23261366.191  
  20311585.727   108500862.415                    84389551.202    20311589.465  
  20311585.238  
  19663584.570   105113143.165                    81754667.457    19663589.992  
  19663583.938  
 21  8 14 19 30 20.0000000  0 14G 9G14G 7G 5G13G 8R 8G20G27G30R 2R10
                                R12R 1
  22074716.891   116003452.840    22074725.137    90392350.3164   22074724.973  
                
  22377788.938   117596083.496    22377795.977    91633355.1784   22377796.020  
                
  20828041.703   109452147.211    20828047.551    85287436.3974   20828047.492  
                
  22970682.984   120711756.117    22970689.570    94061149.4414   22970689.684  
                
  23946707.516   125840794.617    23946714.434    98057793.0284                 
                
  23179595.484   121809603.277    23179604.938    94916624.3794   23179605.301  
                
  22858317.484   122405268.270                    95204122.691    22858321.023  
  22858316.719  
  21948831.547   115341890.241    21948837.727    89876833.9064                 
                
  24005986.633   126152316.206    24005995.285    98300548.2044   24005995.316  
                
  20791997.562   109262731.620    20792006.035    85139845.3384   20792006.238  
                
  20383442.125   108769972.963                    84598865.378    20383445.121  
  20383440.145  
  23268523.180   124034350.993                                                  
  23268521.965  
  20307419.891   108478609.306                    84372243.246    20307423.629  
  20307419.410  
  19667590.203   105134555.525                    81771321.495    19667595.637  
  19667589.559  
 21  8 14 19 30 30.0000000  0 14G 9G14G 7G 5G13G 8R 8G20G27G30R 2R10
                                R12R 1
  22079866.031   116030511.675    22079874.316    90413435.1154   22079874.137  
                
  22371657.984   117563865.210    22371665.035    91608250.0274   22371665.074  
                
  20829756.070   109461156.299    20829761.910    85294456.4624   20829761.871  
                
  22967937.047   120697326.116    22967943.602    94049905.2754   22967943.723  
                
  23940379.125   125807538.552    23940385.996    98031879.2074                 
                
  23178132.375   121801914.633    23178141.855    94910633.2474   23178142.211  
                
  22866255.062   122447773.785                    95237182.526    22866258.629  
  22866254.332  
  21950238.430   115349283.440    21950244.637    89882594.8364                 
                
  24007663.195   126161126.588    24007671.840    98307413.4434   24007671.852  
                
  20790125.625   109252894.587    20790134.109    85132180.1194   20790134.301  
                
  20378218.227   108742097.261                    84577184.268    20378221.227  
  20378216.246  
  23275679.008   124072495.500                                                  
  23275677.820  
  20303263.945   108456408.992                    84354976.331    20303267.672  
  20303263.461  
  19671609.805   105156042.602                    81788033.661    19671615.242  
  19671609.152  
 21  8 14 19 30 40.0000000  0 14G 9G14G 7G 5G13G 8R 8G20G27G30R 2R10
                                R12R 1
  22085021.812   116057605.447    22085030.129    90434547.1384   22085029.918  
                
  22365533.156   117531679.068    22365540.234    91583169.9294   22365540.266  
                
  20831475.523   109470192.064    20831481.355    85301497.3114   20831481.309  
                
  22965202.844   120682957.786    22965209.379    94038709.1744   22965209.500  
                
  23934051.859   125774288.508    23934058.758    98005970.0884                 
                
  23176681.047   121794287.815    23176690.531    94904690.2724   23176690.859  
                
  22874197.320   122490304.095                    95270261.642    22874200.863  
  22874196.527  
  21951657.500   115356740.666    21951663.750    89888405.6574                 
                
  24009352.320   126170003.010    24009360.949    98314330.1354   24009360.941  
                
  20788259.906   109243090.128    20788268.398    85124540.2834   20788268.582  
                
  20373005.023   108714278.592                    84555547.543    20373008.043  
  20373003.027  
  23282834.883   124110640.245                                                  
  23282833.727  
  20299117.898   108434261.576                    84337750.553    20299121.613  
  20299117.418  
  19675643.406   105177604.465                    81804803.993    19675648.859  
  19675642.754  
 21  8 14 19 30 50.0000000  0 14G 9G14G 7G 5G13G 8R 8G20G27G30R 2R10
                                R12R 1
  22090184.352   116084734.741    22090192.652    90455686.8434   22090192.449  
                
  22359414.594   117499525.797    22359421.688    91558115.4384   22359421.715  
                
  20833200.172   109479255.139    20833205.996    85308559.4504   20833205.953  
                
  22962480.516   120668651.824    22962487.039    94027561.6754   22962487.148  
                
  23927725.867   125741045.156    23927732.758    97980066.1604                 
                
  23175241.609   121786723.561    23175251.039    94898796.0554   23175251.387  
                
  22882144.305   122532859.942                    95303360.609    22882147.867  
  22882143.508  
  21953088.867   115364262.552    21953095.117    89894266.8594                 
                
  24011054.133   126178946.076    24011062.727    98321298.7684   24011062.715  
                
  20786400.492   109233318.883    20786408.980    85116926.3234   20786409.172  
                
  20367802.742   108686518.235                    84533956.163    20367805.770  
  20367800.723  
  23289990.961   124148785.892                                                  
  23289989.793  
  20294981.859   108412167.625                    84320566.386    20294985.574  
  20294981.363  
  19679691.062   105199241.525                    81821632.818    19679696.527  
  19679690.414  
 21  8 14 19 31  0.0000000  0 14G 9G14G 7G 5G13G 8R 8G20G27G30R 2R10
                                R12R 1
  22095353.656   116111899.519    22095361.949    90476854.2114   22095361.758  
                
  22353302.320   117467405.504    22353309.445    91533086.6524   22353309.453  
                
  20834930.023   109488345.560    20834935.840    85315642.8964   20834935.797  
                
  22959770.070   120654408.354    22959776.570    94016462.8564   22959776.668  
                
  23921401.148   125707808.586    23921408.074    97954167.5624                 
                
  23173814.086   121779221.901    23173823.449    94892950.6144   23173823.828  
                
  22890095.977   122575440.876                    95336479.127    22890099.535  
  22890095.227  
  21954532.539   115371849.037    21954538.789    89900178.4134                 
                
  24012768.633   126187955.790    24012777.180    98328319.3244   24012777.172  
                
  20784547.414   109223580.871    20784555.898    85109338.2694   20784556.105  
                
  20362611.406   108658816.299                    84512410.216    20362614.445  
  20362609.363  
  23297147.125   124186932.142                                                  
  23297145.973  
  20290855.852   108390127.283                    84303423.907    20290859.570  
  20290855.340  
  19683752.773   105220953.660                    81838520.027    19683758.270  
  19683752.125  
 21  8 14 19 31 10.0000000  0 14G 9G14G 7G 5G13G 8R 8G20G27G30R 2R10
                                R12R 1
  22100529.570   116139099.118    22100537.902    90498048.7004   22100537.688  
                
  22347196.203   117435317.629    22347203.309    91508083.1204   22347203.309  
                
  20836664.945   109497462.616    20836670.754    85322747.0894   20836670.715  
                
  22957071.406   120640226.814    22957077.871    94005412.3054   22957077.965  
                
  23915077.648   125674578.331    23915084.562    97928273.8884                 
                
  23172398.367   121771782.356    23172407.668    94887153.5764   23172408.078  
                
  22898052.258   122618046.432                    95369616.780    22898055.812  
  22898051.543  
  21955988.367   115379499.472    21955994.625    89906139.7754                 
                
  24014495.680   126197031.505    24014504.188    98335391.3014   24014504.141  
                
  20782700.523   109213875.457    20782709.012    85101775.6094   20782709.227  
                
  20357430.922   108631172.203                    84490909.257    20357433.938  
  20357428.855  
  23304303.367   124225078.841                                                  
  23304302.262  
  20286739.742   108368139.810                    84286322.552    20286743.477  
  20286739.227  
  19687828.445   105242740.450                    81855465.307    19687833.953  
  19687827.801  
 21  8 14 19 31 20.0000000  0 14G 9G14G 7G 5G13G 8R 8G20G27G30R 2R10
                                R12R 1
  22105712.164   116166333.801    22105720.535    90519270.5174   22105720.301  
                
  22341096.328   117403262.531    22341103.375    91483105.1144   22341103.410  
                
  20838404.977   109506606.551    20838410.789    85329872.2324   20838410.742  
                
  22954384.578   120626107.460    22954391.012    93994410.2164   22954391.090  
                
  23908755.422   125641354.674    23908762.254    97902385.2844                 
                
  23170994.562   121764405.376    23171003.816    94881405.2984   23171004.242  
                
  22906013.094   122660676.505                    95402773.496    22906016.691  
  22906012.426  
  21957456.414   115387214.091    21957462.668    89912151.1644                 
                
  24016235.328   126206173.448    24016243.836    98342514.8824   24016243.758  
                
  20780859.906   109204202.948    20780868.398    85094238.5914   20780868.629  
                
  20352261.281   108603586.068                    84469453.377    20352264.297  
  20352259.215  
  23311459.625   124263225.657                                                  
  23311458.531  
  20282633.609   108346205.645                    84269262.640    20282637.348  
  20282633.078  
  19691918.062   105264601.822                    81872468.589    19691923.578  
  19691917.434  
 21  8 14 19 31 30.0000000  0 14G 9G14G 7G 5G13G 8R 8G20G27G30R 2R10
                                R12R 1
  22110901.406   116193603.410    22110909.797    90540519.5594   22110909.547  
                
  22335002.688   117371240.203    22335009.711    91458152.6564   22335009.762  
                
  20840150.125   109515777.362    20840155.945    85337018.3274   20840155.887  
                
  22951709.594   120612050.297    22951715.984    93983456.5834   22951716.059  
                
  23902434.438   125608137.656    23902441.211    97876501.8974                 
                
  23169602.633   121757090.704    23169611.828    94875705.5394   23169612.266  
                
  22913978.508   122703331.370                    95435949.497    22913982.246  
  22913977.938  
  21958936.648   115394992.753    21958942.906    89918212.4634                 
                
  24017987.562   126215381.520    24017996.062    98349690.0054   24017995.977  
                
  20779025.531   109194563.232    20779034.031    85086727.1304   20779034.238  
                
  20347102.664   108576058.653                    84448043.167    20347105.688  
  20347100.609  
  23318615.898   124301372.674                                                  
  23318614.812  
  20278537.438   108324324.637                    84252244.092    20278541.176  
  20278536.895  
  19696021.648   105286537.770                    81889529.887    19696027.168  
  19696021.016  
 21  8 14 19 31 40.0000000  0 14G 9G14G 7G 5G13G 8R 8G20G27G30R 2R10
                                R12R 1
  22116097.289   116220907.946    22116105.664    90561795.8114   22116105.410  
                
  22328915.281   117339250.754    22328922.324    91433225.8264   22328922.379  
                
  20841900.367   109524974.953    20841906.199    85344185.2814   20841906.137  
                
  22949046.461   120598055.462    22949052.789    93972551.5134   22949052.871  
                
  23896114.680   125574927.294    23896121.422    97850623.7014                 
                
  23168222.586   121749838.580    23168231.789    94870054.5374   23168232.203  
                
  22921948.500   122746010.533                    95469144.390    22921952.301  
  22921947.941  
  21960429.070   115402835.459    21960435.344    89924323.6614                 
                
  24019752.367   126224655.713    24019760.867    98356916.6624   24019760.766  
                
  20777197.391   109184956.365    20777205.906    85079241.2694   20777206.109  
                
  20341954.875   108548589.103                    84426677.967    20341957.906  
  20341952.824  
  23325772.164   124339519.802                                                  
  23325771.105  
  20274451.227   108302496.927                    84235266.992    20274454.969  
  20274450.703  
  19700139.156   105308548.255                    81906649.144    19700144.668  
  19700138.527  
 21  8 14 19 31 50.0000000  0 14G 9G14G 7G 5G13G 8R 8G20G27G30R 2R10
                                R12R 1
  22121299.859   116248247.519    22121308.195    90583099.3724   22121307.945  
                
  22322834.203   117307294.420    22322841.266    91408324.7914   22322841.309  
                
  20843655.750   109534199.487    20843661.605    85351373.2334   20843661.520  
                
  22946395.250   120584123.185    22946401.516    93961695.1824   22946401.617  
                
  23889796.273   125541723.852    23889802.996    97824750.8804                 
                
  23166854.469   121742649.065    23166863.719    94864452.3324   23166864.102  
                
  22929923.125   122788714.170                    95502358.317    22929926.922  
  22929922.523  
  21961933.711   115410742.312    21961939.977    89930484.8474                 
                
  24021529.805   126233996.217    24021538.289    98364194.9664   24021538.184  
                
  20775375.555   109175382.492    20775384.074    85071781.1154   20775384.289  
                
  20336818.203   108521178.814                    84405358.864    20336821.254  
  20336816.145  
  23332928.523   124377667.136                                                  
  23332927.469  
  20270375.039   108280722.602                    84218331.407    20270378.777  
  20270374.539  
  19704270.656   105330633.413                    81923826.480    19704276.168  
  19704270.043  
 21  8 14 19 32  0.0000000  0 14G 9G14G 7G 5G13G 8R 8G20G27G30R 2R10
                                R12R 1
  22126509.031   116275621.841    22126517.344    90604430.0164   22126517.098  
                
  22316759.391   117275371.022    22316766.477    91383449.4264   22316766.488  
                
  20845416.211   109543450.764    20845422.094    85358582.0134   20845421.988  
                
  22943755.883   120570253.188    22943762.090    93950887.3854   22943762.211  
                
  23883479.117   125508527.035    23883485.844    97798883.2614                 
                
  23165498.219   121735521.938    23165507.520    94858898.7294   23165507.887  
                
  22937902.289   122831441.852                    95535590.953    22937906.004  
  22937901.605  
  21963450.484   115418712.993    21963456.730    89936695.7534                 
                
  24023319.773   126243402.684    24023328.234    98371524.6764   24023328.125  
                
  20773559.930   109165841.379    20773568.449    85064346.4894   20773568.656  
                
  20331692.445   108493826.787                    84384085.075    20331695.516  
  20331690.379  
  23340084.828   124415814.314                                                  
  23340083.781  
  20266308.789   108259001.414                    84201437.143    20266312.516  
  20266308.289  
  19708416.023   105352792.807                    81941061.565    19708421.543  
  19708415.426  
 21  8 14 19 32 10.0000000  0 14G 9G14G 7G 5G13G 8R 8G20G27G30R 2R10
                                R12R 1
  22131724.812   116303030.929    22131733.109    90625787.7444   22131732.859  
                
  22310690.859   117243480.720    22310697.949    91358599.8564   22310697.945  
                
  20847181.758   109552728.803    20847187.664    85365811.6594   20847187.551  
                
  22941128.398   120556445.653    22941134.566    93940128.2634   22941134.711  
                
  23877163.250   125475337.056    23877170.008    97773020.9934                 
                
  23164153.867   121728457.408    23164163.219    94853393.9304   23164163.570  
                
  22945885.836   122874193.484                    95568842.242    22945889.512  
  22945885.172  
  21964979.398   115426747.476    21964985.625    89942956.3804                 
                
  24025122.312   126252875.152    24025130.738    98378905.8344   24025130.652  
                
  20771750.555   109156333.081    20771759.082    85056937.4314   20771759.297  
                
  20326577.766   108466533.909                    84362857.283    20326580.852  
  20326575.707  
  23347241.117   124453961.451                                                  
  23347240.113  
  20262252.516   108237333.586                    84184584.417    20262256.254  
  20262252.031  
  19712575.289   105375026.450                    81958354.396    19712580.820  
  19712574.715  
 21  8 14 19 32 20.0000000  0 14G 9G14G 7G 5G13G 8R 8G20G27G30R 2R10
                                R12R 1
  22136947.211   116330474.710    22136955.480    90647172.4984   22136955.219  
                
  22304628.656   117211623.550    22304635.688    91333776.0834   22304635.684  
                
  20848952.391   109562033.503    20848958.305    85373062.0754   20848958.188  
                
  22938512.789   120542700.556    22938518.992    93929417.8054   22938519.117  
                
  23870848.719   125442153.965    23870855.512    97747164.0284                 
                
  23162821.453   121721455.509    23162830.789    94847937.9154   23162831.156  
                
  22953873.953   122916969.170                    95602112.228    22953877.543  
  22953873.246  
  21966520.445   115434845.656    21966526.684    89949266.6634                 
                
  24026937.414   126262413.607    24026945.820    98386338.3934   24026945.766  
                
  20769947.422   109146857.546    20769955.961    85049553.8954   20769956.168  
                
  20321474.125   108439299.905                    84341675.295    20321477.219  
  20321472.082  
  23354397.398   124492108.304                                                  
  23354396.422  
  20258206.211   108215718.954                    84167773.037    20258209.938  
  20258205.715  
  19716748.445   105397334.324                    81975704.966    19716753.965  
  19716747.863  
 21  8 14 19 32 30.0000000  0 14G 9G14G 7G 5G13G 8R 8G20G27G30R 2R10
                                R12R 1
  22142176.211   116357953.276    22142184.434    90668584.3594   22142184.191  
                
  22298572.773   117179799.683    22298579.738    91308978.2564   22298579.770  
                
  20850728.109   109571364.993    20850734.023    85380333.3624   20850733.902  
                
  22935909.094   120529018.042    22935915.324    93918756.0974   22935915.418  
                
  23864535.500   125408977.862    23864542.352    97721312.5804                 
                
  23161501.023   121714516.636    23161510.312    94842531.0094   23161510.703  
                
  22961866.289   122959768.713                    95635400.759    22961870.039  
  22961865.746  
  21968073.641   115443007.742    21968079.887    89955626.7194                 
                
  24028765.086   126272018.093    24028773.488    98393822.3974   24028773.438  
                
  20768150.547   109137414.923    20768159.113    85042196.0074   20768159.309  
                
  20316381.555   108412124.947                    84320539.226    20316384.656  
  20316379.504  
  23361553.586   124530254.710                                                  
  23361552.609  
  20254169.898   108194157.729                    84151003.205    20254173.621  
  20254169.391  
  19720935.469   105419716.376                    81993113.227    19720940.984  
  19720934.891  
 21  8 14 19 32 40.0000000  0 14G 9G14G 7G 5G13G 8R 8G20G27G30R 2R10
                                R12R 1
  22147411.797   116385466.378    22147419.957    90690023.1364   22147419.750  
                
  22292523.211   117148009.049    22292530.141    91284206.3444   22292530.180  
                
  20852508.906   109580723.164    20852514.816    85387625.4454   20852514.695  
                
  22933317.273   120515397.981    22933323.504    93908143.0564   22933323.578  
                
  23858223.633   125375808.724    23858230.438    97695466.4724                 
                
  23160192.477   121707640.184    23160201.746    94837172.7354   23160202.164  
                
  22969863.164   123002591.903                    95668707.657    22969866.965  
  22969862.660  
  21969638.945   115451233.481    21969645.191    89962036.3784                 
                
  24030605.281   126281688.406    24030613.715    98401357.7114   24030613.680  
                
  20766359.898   109128005.030    20766368.488    85034863.6294   20766368.668  
                
  20311300.086   108385009.302                    84299449.276    20311303.191  
  20311298.047  
  23368709.703   124568400.797                                                  
  23368708.699  
  20250143.547   108172649.705                    84134274.747    20250147.281  
  20250143.051  
  19725136.352   105442172.463                    82010579.068    19725141.859  
  19725135.762  
 21  8 14 19 32 50.0000000  0 14G 9G14G 7G 5G13G 8R 8G20G27G30R 2R10
                                R12R 1
  22152654.008   116413014.283    22152662.145    90711489.0474   22152661.949  
                
  22286480.039   117116252.028    22286486.930    91259460.6224   22286486.984  
                
  20854294.852   109590108.354    20854300.770    85394938.5834   20854300.641  
                
  22930737.406   120501840.677    22930743.613    93897578.9054   22930743.688  
                
  23851913.148   125342646.763    23851919.875    97669625.9834                 
                
  23158895.922   121700826.783    23158905.215    94831863.6004   23158905.621  
                
  22977864.555   123045438.831                    95702033.034    22977868.355  
  22977864.055  
  21971216.430   115459523.143    21971222.656    89968495.8584                 
                
  24032458.055   126291424.840    24032466.512    98408944.5724   24032466.480  
                
  20764575.539   109118628.185    20764584.148    85027557.0044   20764584.309  
                
  20306229.773   108357953.092                    84278405.569    20306232.883  
  20306227.734  
  23375865.750   124606546.521                                                  
  23375864.699  
  20246127.234   108151195.311                    84117587.999    20246130.973  
  20246126.754  
  19729351.102   105464702.686                    82028102.565    19729356.605  
  19729350.516  
 21  8 14 19 33  0.0000000  0 14G 9G14G 7G 5G13G 8R 8G20G27G30R 2R10
                                R12R 1
  22157902.781   116440596.769    22157910.914    90732981.8844   22157910.707  
                
  22280443.242   117084528.503    22280450.102    91234740.9904   22280450.164  
                
  20856085.836   109599520.085    20856091.766    85402272.3964   20856091.625  
                
  22928169.453   120488346.017    22928175.617    93887063.5804   22928175.688  
                
  23845603.984   125309491.891    23845610.617    97643791.0204                 
                
  23157611.297   121694076.046    23157620.582    94826603.2884   23157620.984  
                
  22985870.359   123088309.307                    95735376.724    22985874.133  
  22985869.852  
  21972806.008   115467876.453    21972812.227    89975004.9234                 
                
  24034323.367   126301227.200    24034331.805    98416582.7644   24034331.785  
                
  20762797.422   109109284.171    20762806.035    85020275.9544   20762806.188  
                
  20301170.617   108330956.497                    84257408.222    20301173.750  
  20301168.566  
  23383021.719   124644691.925                                                  
  23383020.641  
  20242120.914   108129794.301                    84100942.780    20242124.660  
  20242120.434  
  19733579.695   105487306.916                    82045683.635    19733585.191  
  19733579.105  
 21  8 14 19 33 10.0000000  0 14G 9G14G 7G 5G13G 8R 8G20G27G30R 2R10
                                R12R 1
  22163158.156   116468213.900    22163166.270    90754501.7134   22163166.062  
                
  22274412.844   117052838.645    22274419.715    91210047.6024   22274419.758  
                
  20857881.914   109608958.554    20857887.863    85409627.0434   20857887.719  
                
  22925613.469   120474914.217    22925619.570    93876597.2434   22925619.664  
                
  23839296.180   125276344.256    23839302.812    97617961.7204                 
                
  23156338.695   121687388.469    23156347.926    94821392.1914   23156348.340  
                
  22993880.664   123131203.347                    95768738.743    22993884.293  
  22993880.070  
  21974407.703   115476293.394    21974413.941    89981563.5684                 
                
  24036201.242   126311095.487    24036209.668    98424272.3514   24036209.652  
                
  20761025.578   109099973.090    20761034.188    85013020.5664   20761034.336  
                
  20296122.633   108304019.489                    84236457.226    20296125.762  
  20296120.582  
  23390177.625   124682836.846                                                  
  23390176.516  
  20238124.594   108108446.742                    84084339.133    20238128.344  
  20238124.117  
  19737822.109   105509985.029                    82063322.151    19737827.598  
  19737821.520  
 21  8 14 19 33 20.0000000  0 14G 9G14G 7G 5G13G 8R 8G20G27G30R 2R10
                                R12R 1
  22168420.086   116495865.419    22168428.164    90776048.3574   22168427.965  
                
  22268388.844   117021182.335    22268395.742    91185380.3704   22268395.762  
                
  20859683.039   109618423.549    20859689.016    85417002.3624   20859688.855  
                
  22923069.422   120461545.140    22923075.477    93866179.7714   22923075.578  
                
  23832989.758   125243203.845    23832996.410    97592138.0584                 
                
  23155078.039   121680763.625    23155087.230    94816229.9874   23155087.676  
                
  23001895.281   123174120.592                    95802118.840    23001898.758  
  23001894.648  
  21976021.484   115484773.841    21976027.730    89988171.7214                 
                
  24038091.609   126321029.552    24038100.027    98432013.1854   24038100.020  
                
  20759259.977   109090694.792    20759268.578    85005790.7184   20759268.742  
                
  20291085.852   108277142.235                    84215552.707    20291088.969  
  20291083.785  
  23397333.344   124720980.874                                                  
  23397332.180  
  20234138.289   108087152.637                    84067777.066    20234142.051  
  20234137.824  
  19742078.320   105532736.865                    82081018.034    19742083.812  
  19742077.715  
 21  8 14 19 33 30.0000000  0 14G 9G14G 7G 5G13G 8R 8G20G27G30R 2R10
                                R12R 1
  22173688.562   116523551.382    22173696.613    90797621.8334   22173696.426  
                
  22262371.266   116989559.765    22262378.152    91160739.4114   22262378.176  
                
  20861489.234   109627915.182    20861495.230    85424398.4394   20861495.059  
                
  22920537.320   120448238.940    22920543.344    93855811.2974   22920543.473  
                
  23826684.742   125210070.759    23826691.406    97566320.0704                 
                
  23153829.422   121674202.067    23153838.633    94811117.0924   23153839.090  
                
  23009914.211   123217060.983                    95835516.919    23009917.566  
  23009913.543  
  21977647.328   115493317.713    21977653.570    89994829.2724                 
                
  24039994.500   126331029.398    24040002.930    98439805.2724   24040002.906  
                
  20757500.617   109081449.346    20757509.211    84998586.4764   20757509.375  
                
  20286060.312   108250325.051                    84194694.910    20286063.445  
  20286058.230  
  23404488.891   124759124.183                                                  
  23404487.727  
  20230161.969   108065911.902                    84051256.494    20230165.723  
  20230161.516  
  19746348.305   105555562.384                    82098771.218    19746353.781  
  19746347.707  
 21  8 14 19 33 40.0000000  0 14G 9G14G 7G 5G13G 8R 8G20G27G30R 2R10
                                R12R 1
  22178963.578   116551271.714    22178971.617    90819222.0844   22178971.449  
                
  22256360.133   116957970.960    22256366.969    91136124.7534   22256367.020  
                
  20863300.492   109637433.410    20863306.508    85431815.2374   20863306.316  
                
  22918017.188   120434995.609    22918023.188    93845491.8264   22918023.371  
                
  23820381.094   125176944.965    23820387.820    97540507.8184                 
                
  23152592.773   121667703.434    23152602.020    94806053.2194   23152602.453  
                
  23017937.289   123260024.323                    95868932.853    23017940.672  
  23017936.691  
  21979285.219   115501924.940    21979291.445    90001536.1964                 
                
  24041909.898   126341094.980    24041918.359    98447648.5854   24041918.297  
                
  20755747.500   109072236.695    20755756.098    84991407.7874   20755756.262  
                
  20281046.016   108223567.869                    84173883.771    20281049.164  
  20281043.930  
  23411644.305   124797266.572                                                  
  23411643.164  
  20226195.672   108044724.630                    84034777.513    20226199.410  
  20226195.207  
  19750632.086   105578461.591                    82116581.709    19750637.570  
  19750631.492  
 21  8 14 19 33 50.0000000  0 14G 9G14G 7G 5G13G 8R 8G20G27G30R 2R10
                                R12R 1
  22184245.164   116579026.556    22184253.215    90840849.2344   22184253.051  
                
  22250355.484   116926416.193    22250362.309    91111536.6244   22250362.379  
                
  20865116.859   109646978.470    20865122.891    85439252.9444   20865122.691  
                
  22915509.055   120421815.341    22915515.078    93835221.4794   22915515.281  
                
  23814078.930   125143826.833    23814085.617    97514701.4754                 
                
  23151368.164   121661267.999    23151377.453    94801038.6124   23151377.863  
                
  23025964.828   123303010.701                    95902366.683    23025968.105  
  23025964.094  
  21980935.219   115510595.708    21980941.434    90008292.6394                 
                
  24043837.852   126351226.460    24043846.332    98455543.2514   24043846.250  
                
  20754000.680   109063057.074    20754009.281    84984254.8374   20754009.449  
                
  20276043.086   108196871.253                    84153119.743    20276046.250  
  20276041.008  
  23418799.586   124835408.136                                                  
  23418798.500  
  20222239.414   108023590.998                    84018340.254    20222243.137  
  20222238.941  
  19754929.664   105601434.600                    82134449.596    19754935.141  
  19754929.086  
 21  8 14 19 34  0.0000000  0 14G 9G14G 7G 5G13G 8R 8G20G27G30R 2R10
                                R12R 1
  22189533.273   116606815.708    22189541.332    90862503.1124   22189541.152  
                
  22244357.273   116894895.369    22244364.137    91086974.9574   22244364.203  
                
  20866938.281   109656550.070    20866944.336    85446711.3344   20866944.129  
                
  22913012.891   120408697.987    22913018.961    93825000.1474   22913019.129  
                
  23807778.195   125110716.161    23807784.914    97488900.9654                 
                
  23150155.562   121654895.744    23150164.867    94796073.2164   23150165.262  
                
  23033996.500   123346019.813                    95935818.205    23033999.781  
  23033995.715  
  21982597.266   115519329.828    21982603.473    90015098.4364                 
                
  24045778.297   126361423.656    24045786.770    98463489.1184   24045786.699  
                
  20752260.102   109053910.295    20752268.711    84977127.4824   20752268.863  
                
  20271051.406   108170234.740                    84132402.462    20271054.570  
  20271049.340  
  23425954.680   124873548.967                                                  
  23425953.672  
  20218293.148   108002510.801                    84001944.537    20218296.855  
  20218292.680  
  19759240.969   105624480.965                    82152374.553    19759246.441  
  19759240.395  
 21  8 14 19 34 10.0000000  0 14G 9G14G 7G 5G13G 8R 8G20G27G30R 2R10
                                R12R 1
  22194827.891   116634639.127    22194835.945    90884183.7014   22194835.777  
                
  22238365.531   116863408.549    22238372.430    91062439.7794   22238372.492  
                
  20868764.758   109666148.229    20868770.848    85454190.4204   20868770.625  
                
  22910528.734   120395643.657    22910534.867    93814827.9394   22910534.953  
                
  23801478.891   125077613.036    23801485.555    97463106.3054                 
                
  23148954.984   121648586.629    23148964.277    94791157.0254   23148964.684  
                
  23042032.273   123389051.832                    95969287.535    23042035.727  
  23042031.613  
  21984271.352   115528127.191    21984277.570    90021953.5324                 
                
  24047731.234   126371686.499    24047739.707    98471486.1434   24047739.637  
                
  20750525.781   109044796.351    20750534.395    84970025.7094   20750534.543  
                
  20266071.117   108143658.931                    84111732.405    20266074.289  
  20266069.043  
  23433109.578   124911688.585                                                  
  23433108.574  
  20214356.914   107981484.172                    83985590.502    20214360.629  
  20214356.445  
  19763566.008   105647600.730                    82170356.577    19763571.484  
  19763565.410  
 21  8 14 19 34 20.0000000  0 14G 9G14G 7G 5G13G 8R 8G20G27G30R 2R10
                                R12R 1
  22200129.047   116662496.906    22200137.129    90905891.0504   22200136.961  
                
  22232380.305   116831955.966    22232387.230    91037931.2814   22232387.301  
                
  20870596.320   109675773.122    20870602.438    85461690.3424   20870602.195  
                
  22908056.594   120382652.522    22908062.773    93804704.9644   22908062.828  
                
  23795181.000   125044517.515    23795187.695    97437317.6184                 
                
  23147766.445   121642340.799    23147775.734    94786290.1554   23147776.137  
                
  23050072.461   123432106.512                    96002774.474    23050075.879  
  23050071.750  
  21985957.516   115536988.067    21985963.727    90028858.1004                 
                
  24049696.688   126382015.093    24049705.184    98479534.4234   24049705.121  
                
  20748797.727   109035715.392    20748806.332    84962949.6394   20748806.488  
                
  20261102.172   108117143.741                    84091109.483    20261105.336  
  20261100.090  
  23440264.352   124949827.412                                                  
  23440263.355  
  20210430.719   107960511.190                    83969278.205    20210434.457  
  20210430.250  
  19767904.797   105670794.057                    82188395.829    19767910.281  
  19767904.199  
 21  8 14 19 34 30.0000000  0 14G 9G14G 7G 5G13G 8R 8G20G27G30R 2R10
                                R12R 1
  22205436.688   116690388.797    22205444.844    90927624.9934   22205444.652  
                
  22226401.562   116800537.531    22226408.504    91013449.3864   22226408.559  
                
  20872432.914   109685424.489    20872439.059    85469210.8924   20872438.793  
                
  22905596.453   120369724.433    22905602.660    93794631.1304   22905602.707  
                
  23788884.531   125011429.557    23788891.207    97411534.8204                 
                
  23146589.953   121636158.303    23146599.242    94781472.6224   23146599.629  
                
  23058116.844   123475183.454                    96036278.746    23058120.133  
  23058116.102  
  21987655.680   115545912.057    21987661.875    90035811.8504                 
                
  24051674.625   126392409.298    24051683.152    98487633.7984   24051683.066  
                
  20747075.914   109026667.242    20747084.508    84955899.1394   20747084.664  
                
  20256144.648   108090689.475                    84070533.949    20256147.797  
  20256142.562  
  23447418.852   124987964.830                                                  
  23447417.840  
  20206514.531   107939591.664                    83953007.469    20206518.273  
  20206514.047  
  19772257.281   105694060.612                    82206492.049    19772262.777  
  19772256.684  
 21  8 14 19 34 40.0000000  0 14G 9G14G 7G 5G13G 8R 8G20G27G30R 2R10
                                R12R 1
  22210750.852   116718314.916    22210759.086    90949385.6004   22210758.879  
                
  22220429.352   116769153.400    22220436.289    90988994.2414   22220436.355  
                
  20874274.570   109695102.389    20874280.730    85476752.1104   20874280.469  
                
  22903148.344   120356859.581    22903154.555    93784606.5614   22903154.617  
                
  23782589.578   124978349.373    23782596.277    97385758.0734                 
                
  23145425.508   121630039.056    23145434.770    94776704.3854   23145435.172  
                
  23066165.469   123518282.871                    96069800.531    23066168.598  
  23066164.715  
  21989365.867   115554899.130    21989372.027    90042814.7714                 
                
  24053665.055   126402869.147    24053673.617    98495784.3374   24053673.535  
                
  20745360.383   109017652.046    20745368.957    84948874.3054   20745369.125  
                
  20251198.570   108064296.287                    84050005.923    20251201.719  
  20251196.484  
  23454573.086   125026101.040                                                  
  23454572.070  
  20202608.398   107918725.834                    83936778.481    20202612.168  
  20202607.902  
  19776623.469   105717400.392                    82224645.195    19776628.949  
  19776622.863  
 21  8 14 19 34 50.0000000  0 14G 9G14G 7G 5G13G 8R 8G20G27G30R 2R10
                                R12R 1
  22216071.516   116746275.250    22216079.812    90971172.8704   22216079.609  
                
  22214463.703   116737803.760    22214470.609    90964565.9474   22214470.691  
                
  20876121.289   109704806.927    20876127.457    85484314.0884   20876127.195  
                
  22900712.266   120344057.977    22900718.496    93774631.2914   22900718.559  
                
  23776296.156   124945277.112    23776302.852    97359987.5134                 
                
  23144273.148   121623983.384    23144282.348    94771985.6914   23144282.777  
                
  23074218.367   123561404.842                    96103339.852    23074221.270  
  23074217.512  
  21991088.070   115563949.356    21991094.203    90049866.8904                 
                
  24055667.898   126413394.666    24055676.543    98503986.0394   24055676.469  
                
  20743651.125   109008669.826    20743659.680    84941875.1754   20743659.863  
                
  20246263.883   108037963.829                    84029525.128    20246267.004  
  20246261.805  
  23461727.086   125064236.079                                                  
  23461726.082  
  20198712.336   107897913.791                    83920591.358    20198716.117  
  20198711.828  
  19781003.344   105740813.351                    82242855.264    19781008.828  
  19781002.727  
 21  8 14 19 35  0.0000000  0 14G 9G14G 7G 5G13G 8R 8G20G27G30R 2R10
                                R12R 1
  22221398.695   116774269.845    22221407.023    90992986.8324   22221406.805  
                
  22208504.648   116706488.705    22208511.508    90940164.6124   22208511.605  
                
  20877973.094   109714538.147    20877979.266    85491896.8634   20877979.008  
                
  22898288.258   120331319.802    22898294.520    93764705.4394   22898294.586  
                
  23770004.250   124912212.872    23770010.922    97334223.1584                 
                
  23143132.914   121617991.434    23143142.012    94767316.6234   23143142.484  
                
  23082275.453   123604549.021                    96136896.428    23082278.102  
  23082274.453  
  21992822.312   115573062.844    21992828.426    90056968.3014                 
                
  24057683.281   126423985.855    24057691.918    98512238.9274   24057691.875  
                
  20741948.156   108999720.677    20741956.699    84934901.8134   20741956.883  
                
  20241340.773   108011693.202                    84009092.421    20241343.887  
  20241338.691  
  23468880.898   125102369.934                                                  
  23468879.867  
  20194826.328   107877155.481                    83904446.020    20194830.105  
  20194825.805  
  19785396.938   105764299.618                    82261122.366    19785402.441  
  19785396.301  
 21  8 14 19 35 10.0000000  0 14G 9G14G 7G 5G13G 8R 8G20G27G30R 2R10
                                R12R 1
  22226732.305   116802298.207    22226740.656    91014827.1234   22226740.434  
                
  22202552.094   116675207.919    22202558.926    90915789.9854   22202559.039  
                
  20879829.883   109724295.648    20879836.051    85499500.0844   20879835.809  
                
  22895876.258   120318644.746    22895882.562    93754828.7634   22895882.621  
                
  23763713.781   124879156.264    23763720.441    97308464.8064                 
                
  23142004.703   121612062.674    23142013.723    94762696.8074   23142014.246  
                
  23090336.484   123647714.977                    96170469.949    23090339.035  
  23090335.441  
  21994568.492   115582239.052    21994574.562    90064118.5944                 
                
  24059711.062   126434642.342    24059719.695    98520542.6734   24059719.672  
                
  20740251.391   108990804.159    20740259.934    84927953.8794   20740260.121  
                
  20236429.094   107985483.586                    83988707.170    20236432.195  
  20236427.008  
  23476034.383   125140502.155                                                  
  23476033.316  
  20190950.305   107856450.560                    83888342.199    20190954.066  
  20190949.770  
  19789804.156   105787858.733                    82279446.118    19789809.641  
  19789803.508  
 21  8 14 19 35 20.0000000  0 14G 9G14G 7G 5G13G 8R 8G20G27G30R 2R10
                                R12R 1
  22232072.406   116830360.778    22232080.793    91036694.0534   22232080.586  
                
  22196606.172   116643961.929    22196612.977    90891442.4704   22196613.094  
                
  20881691.750   109734079.809    20881697.914    85507124.1094   20881697.684  
                
  22893476.352   120306033.255    22893482.711    93745001.6274   22893482.730  
                
  23757424.852   124846107.760    23757431.461    97282712.7464                 
                
  23140888.625   121606197.662    23140897.645    94758126.6834   23140898.160  
                
  23098401.641   123690903.219                    96204060.789    23098404.172  
  23098400.609  
  21996326.680   115591478.401    21996332.723    90071318.0794                 
                
  24061751.320   126445364.459    24061760.004    98528897.6054   24061759.980  
                
  20738560.930   108981920.746    20738569.484    84921031.7444   20738569.672  
                
  20231528.922   107959335.341                    83968369.658    20231532.012  
  20231526.852  
  23483187.617   125178632.861                                                  
  23483186.531  
  20187084.367   107835799.457                    83872280.239    20187088.125  
  20187083.812  
  19794225.008   105811490.714                    82297826.533    19794230.492  
  19794224.352  
 21  8 14 19 35 30.0000000  0 14G 9G14G 7G 5G13G 8R 8G20G27G30R 2R10
                                R12R 1
  22237418.953   116858457.124    22237427.371    91058587.3044   22237427.172  
                
  22190666.828   116612750.449    22190673.578    90867121.8424   22190673.707  
                
  20883558.633   109743890.312    20883564.797    85514768.6594   20883564.559  
                
  22891088.500   120293485.030    22891094.914    93735223.7904   22891094.918  
                
  23751137.445   124813067.180    23751143.906    97256966.7974                 
                
  23139784.609   121600396.015    23139793.660    94753605.9244   23139794.152  
                
  23106470.820   123734113.066                    96237668.418    23106473.320  
  23106469.777  
  21998096.805   115600780.403    21998102.824    90078566.4094                 
                
  24063804.078   126456151.880    24063812.777    98537303.4114   24063812.715  
                
  20736876.703   108973070.062    20736885.277    84914135.1134   20736885.449  
                
  20226640.305   107933248.693                    83948080.043    20226643.379  
  20226638.250  
  23490340.500   125216761.812                                                  
  23490339.445  
  20183228.453   107815201.887                    83856259.909    20183232.199  
  20183227.902  
  19798659.492   105835195.535                    82316263.616    19798664.980  
  19798658.828  
 21  8 14 19 35 40.0000000  0 14G 9G14G 7G 5G13G 8R 8G20G27G30R 2R10
                                R12R 1
  22242771.953   116886587.410    22242780.414    91080507.0074   22242780.211  
                
  22184734.117   116581573.763    22184740.793    90842828.3254   22184740.934  
                
  20885430.562   109753727.332    20885436.730    85522433.8714   20885436.488  
                
  22888712.719   120281000.305    22888719.172    93725495.4314   22888719.199  
                
  23744851.586   124780034.731    23744857.938    97231227.2244                 
                
  23138692.742   121594658.253    23138701.828    94749134.9524   23138702.312  
                
  23114544.102   123777344.848                    96271293.108    23114546.559  
  23114543.055  
  21999878.906   115610145.332    21999884.906    90085863.7454                 
                
  24065869.273   126467004.754    24065877.969    98545760.1914   24065877.914  
                
  20735198.750   108964252.324    20735207.324    84907264.1514   20735207.488  
                
  20221763.336   107907224.241                    83927838.813    20221766.398  
  20221761.270  
  23497493.117   125254889.239                                                  
  23497492.113  
  20179382.633   107794658.233                    83840281.520    20179386.375  
  20179382.078  
  19803107.586   105858973.150                    82334757.313    19803113.066  
  19803106.941  
 21  8 14 19 35 50.0000000  0 14G 9G14G 7G 5G13G 8R 8G20G27G30R 2R10
                                R12R 1
  22248131.391   116914751.500    22248139.914    91102453.0564   22248139.684  
                
  22178808.023   116550431.888    22178814.621    90818561.9224   22178814.785  
                
  20887307.508   109763590.749    20887313.680    85530119.6474   20887313.430  
                
  22886349.016   120268579.051    22886355.504    93715816.5264   22886355.547  
                
  23738567.266   124747010.375    23738573.586    97205494.0124                 
                
  23137612.992   121588984.168    23137622.121    94744713.5964   23137622.586  
                
  23122621.273   123820597.986                    96304934.431    23122623.781  
  23122620.320  
  22001672.938   115619573.032    22001678.957    90093210.0084                 
                
  24067946.914   126477922.958    24067955.574    98554267.9004   24067955.551  
                
  20733527.047   108955467.473    20733535.613    84900418.8114   20733535.785  
                
  20216897.836   107881261.071                    83907645.245    20216900.887  
  20216895.789  
  23504645.406   125293014.790                                                  
  23504644.406  
  20175546.828   107774168.126                    83824344.775    20175550.574  
  20175546.281  
  19807569.273   105882823.414                    82353307.512    19807574.738  
  19807568.645  
 21  8 14 19 36  0.0000000  0 14G 9G14G 7G 5G13G 8R 8G20G27G30R 2R10
                                R12R 1
  22253497.234   116942949.323    22253505.785    91124425.3754   22253505.559  
                
  22172888.539   116519324.778    22172895.059    90794322.6194   22172895.242  
                
  20889189.461   109773480.430    20889195.629    85537825.8884   20889195.367  
                
  22883997.375   120256221.170    22884003.910    93706187.0214   22884003.934  
                
  23732284.477   124713994.079    23732290.781    97179767.0284                 
                
  23136545.336   121583373.614    23136554.492    94740341.7414   23136554.941  
                
  23130702.500   123863872.415                    96338592.313    23130705.020  
  23130701.574  
  22003478.883   115629063.317    22003484.926    90100605.0284                 
                
  24070036.961   126488906.394    24070045.625    98562826.4184   24070045.590  
                
  20731861.570   108946715.390    20731870.125    84893599.0134   20731870.301  
                
  20212044.016   107855360.144                    83887500.075    20212047.039  
  20212041.980  
  23511797.336   125331138.559                                                  
  23511796.312  
  20171721.086   107753731.754                    83808449.829    20171724.836  
  20171720.535  
  19812044.516   105906746.142                    82371914.075    19812049.949  
  19812043.895  
 21  8 14 19 36 10.0000000  0 14G 9G14G 7G 5G13G 8R 8G20G27G30R 2R10
                                R12R 1
  22258869.523   116971180.958    22258878.070    91146424.0534   22258877.871  
                
  22166975.734   116488252.700    22166982.191    90770110.6114   22166982.402  
                
  20891076.430   109783396.521    20891082.582    85545552.7094   20891082.328  
                
  22881657.867   120243926.985    22881664.434    93696607.1484   22881664.457  
                
  23726003.281   124680986.120    23726009.652    97154046.5714                 
                
  23135489.797   121577826.695    23135498.988    94736019.4754   23135499.422  
                
  23138787.609   123907168.414                    96372266.958    23138790.285  
  23138786.812  
  22005296.742   115638616.222    22005302.816    90108048.8544                 
                
  24072139.461   126499955.129    24072148.078    98571435.8664   24072148.059  
                
  20730202.375   108937996.279    20730210.922    84886804.9064   20730211.109  
                
  20207201.820   107829521.296                    83867403.203    20207204.832  
  20207199.770  
  23518948.898   125369260.452                                                  
  23518947.875  
  20167905.422   107733349.225                    83792596.761    20167909.168  
  20167904.844  
  19816533.320   105930741.343                    82390577.009    19816538.746  
  19816532.719  
 21  8 14 19 36 20.0000000  0 14G 9G14G 7G 5G13G 8R 8G20G27G30R 2R10
                                R12R 1
  22264248.234   116999446.300    22264256.812    91168449.0084   22264256.609  
                
  22161069.586   116457215.664    22161076.016    90745925.9164   22161076.238  
                
  20892968.414   109793338.969    20892974.551    85553300.0654   20892974.301  
                
  22879330.469   120231696.413    22879337.047    93687076.8274   22879337.086  
                
  23719723.672   124647986.506    23719730.066    97128332.6164                 
                
  23134446.398   121572343.588    23134455.621    94731746.9424   23134456.070  
                
  23146876.828   123950485.721                    96405958.203    23146879.508  
  23146876.062  
  22007126.523   115648231.779    22007132.621    90115541.4814                 
                
  24074254.391   126511069.176    24074262.957    98580096.1634   24074262.941  
                
  20728549.445   108929310.069    20728557.988    84880036.4384   20728558.184  
                
  20202371.344   107803744.936                    83847354.931    20202374.348  
  20202369.297  
  23526100.109   125407380.402                                                  
  23526099.082  
  20164099.820   107713020.462                    83776785.507    20164103.555  
  20164099.234  
  19821035.695   105954809.140                    82409296.405    19821041.117  
  19821035.078  
 21  8 14 19 36 30.0000000  0 14G 9G14G 7G 5G13G 8R 8G20G27G30R 2R10
                                R12R 1
  22269633.367   117027745.410    22269642.000    91190500.2594   22269641.785  
                
  22155170.141   116426213.827    22155176.562    90721768.6424   22155176.766  
                
  20894865.445   109803307.883    20894871.566    85561068.0504   20894871.316  
                
  22877015.195   120219529.548    22877021.805    93677596.1464   22877021.832  
                
  23713445.656   124614995.313    23713452.082    97102625.2144                 
                
  23133415.203   121566924.614    23133424.398    94727524.3644   23133424.871  
                
  23154969.875   123993824.008                    96439665.748    23154972.633  
  23154969.195  
  22008968.234   115657909.969    22008974.344    90123082.9284                 
                
  24076381.734   126522248.512    24076390.312    98588807.3214   24076390.305  
