     2.11           OBSERVATION DATA    M (MIXED)           RINEX VERSION / TYPE
EFT-CORS.RU                             20210817 145224 UTC PGM / RUN BY / DATE 
MDNG                                                        MARKER NAME         
                                                            MARKER NUMBER       
MDNG                EFT-CORS.RU                             OBSERVER / AGENCY   
0                   TRIMBLE BD970       2.0                 REC # / TYPE / VERS 
0                   UNKNOWN EXT NONE                        ANT # / TYPE        
  3463911.2830  3030468.2400  4402179.3760                  APPROX POSITION XYZ 
        0.0000        0.0000        0.0000                  ANTENNA: DELTA H/E/N
     1     1                                                WAVELENGTH FACT L1/2
     6    C1    L1    P2    L2    C2    P1                  # / TYPES OF OBSERV 
    10.000                                                  INTERVAL            
  2021     8    15     9    30    0.0000000     GPS         TIME OF FIRST OBS   
  2021     8    15    10    30    0.0000000     GPS         TIME OF LAST OBS    
     0                                                      RCV CLOCK OFFS APPL 
                                                            END OF HEADER       
 21  8 15  9 30  0.0000000  0 14R20R 4G18G21R 5R19G27G32R21G16G 8R 6
                                G23G10
  19539696.078   104487572.186                    81268143.936    19539702.758  
  19539695.570  
  22535869.391   120678561.457                    93861104.519    22535873.430  
  22535868.672  
  22938985.875   120545164.898    22938993.926    93931327.5964   22938993.996  
                
  24648758.969   129530112.224    24648767.477   100932586.8774                 
                
  19375306.625   103572136.488                    80556115.921    19375311.082  
  19375306.270  
  23446583.797   125423396.350                    97551503.312    23446590.262  
  23446581.375  
  20620444.117   108361159.539    20620452.762    84437335.0534   20620452.859  
                
  22626163.742   118901307.430    22626173.617    92650420.1574   22626173.910  
                
  21023976.930   112503571.703                    87502787.705    21023981.055  
  21023975.047  
  24330547.383   127857862.068    24330555.508    99629528.1184                 
                
  21955836.609   115378713.556    21955846.184    89905550.6684   21955846.840  
                
  20962554.984   111860230.884                                                  
  20962552.551  
  21459776.375   112771913.040    21459783.914    87874263.7964   21459783.730  
                
  20426289.188   107340890.460    20426298.191    83642315.1104   20426297.750  
                
 21  8 15  9 30 10.0000000  0 14R20R 4G18G21R 5R19G27G32R21G16G 8R 6
                                G23G10
  19541149.781   104495345.644                    81274189.954    19541156.434  
  19541149.285  
  22543254.492   120718108.325                    93891863.152    22543258.586  
  22543253.727  
  22944089.500   120571984.520    22944097.559    93952225.9964   22944097.625  
                
  24643805.969   129504083.548    24643814.402   100912304.8314                 
                
  19377013.562   103581261.070                    80563212.815    19377018.012  
  19377013.215  
  23453262.164   125459121.922                    97579289.787    23453268.797  
  23453259.871  
  20620418.883   108361026.891    20620427.520    84437231.6924   20620427.629  
                
  22620245.117   118870204.922    22620254.961    92626184.4604   22620255.250  
                
  21018221.672   112472774.192                    87478834.091    21018225.809  
  21018219.789  
  24336595.891   127889647.437    24336604.113    99654295.8984                 
                
  21951887.891   115357962.979    21951897.527    89889381.4004   21951898.152  
                
  20955953.672   111825005.179                                                  
  20955951.262  
  21464171.461   112795009.326    21464178.977    87892260.8984   21464178.812  
                
  20426802.453   107343587.688    20426811.402    83644416.8464   20426810.992  
                
 21  8 15  9 30 20.0000000  0 14R20R 4G18G21R 5R19G27G32R21G16G 8R 6
                                G23G10
  19542614.617   104503178.757                    81280282.365    19542621.258  
  19542614.113  
  22550644.523   120757681.514                    93922642.259    22550648.680  
  22550643.707  
  22949196.672   120598822.728    22949204.719    93973138.8514   22949204.809  
                
  24638853.406   129478056.964    24638861.727   100892024.3864                 
                
  19378735.781   103590467.321                    80570373.217    19378740.223  
  19378735.465  
  23459945.219   125494871.540                    97607095.013    23459951.816  
  23459942.965  
  20620406.086   108360959.608    20620414.723    84437179.2614   20620414.840  
                
  22614332.133   118839132.009    22614341.930    92601971.8024   22614342.238  
                
  21012471.289   112442002.790                    87454900.786    21012475.434  
  21012469.406  
  24342646.828   127921445.072    24342655.020    99679073.2684                 
                
  21947948.492   115337261.378    21947958.195    89873250.2924   21947958.793  
                
  20949361.758   111789829.459                                                  
  20949359.344  
  21468572.078   112818134.637    21468579.574    87910280.6084   21468579.414  
                
  20427324.195   107346329.472    20427333.105    83646553.2964   20427332.715  
                
 21  8 15  9 30 30.0000000  0 14R20R 4G18G21R 5R19G27G32R21G16G 8R 6
                                G23G10
  19544090.758   104511072.330                    81286421.812    19544097.406  
  19544090.246  
  22558039.609   120797281.636                    93953442.315    22558043.797  
  22558038.738  
  22954307.516   120625680.265    22954315.625    93994066.7754   22954315.691  
                
  24633901.203   129452033.305    24633909.582   100871746.1984                 
                
  19380473.445   103599756.087                    80577597.833    19380477.879  
  19380473.160  
  23466632.711   125530645.992                    97634919.550    23466639.496  
  23466630.641  
  20620405.883   108360958.482    20620414.527    84437178.3824   20620414.633  
                
  22608424.945   118808089.542    22608434.719    92577782.8804   22608435.035  
                
  21006725.969   112411258.394                    87430988.487    21006730.117  
  21006724.066  
  24348700.219   127953255.580    24348708.379    99703860.6544                 
                
  21944018.586   115316609.600    21944028.355    89857158.0144   21944028.926  
                
  20942779.289   111754704.169                                                  
  20942776.867  
  21472978.336   112841289.661    21472985.824    87928323.4734   21472985.668  
                
  20427854.555   107349116.560    20427863.445    83648725.0464   20427863.062  
                
 21  8 15  9 30 40.0000000  0 14R20R 4G18G21R 5R19G27G32R21G16G 8R 6
                                G23G10
  19545578.250   104519026.540                    81292608.412    19545584.883  
  19545577.730  
  22565439.773   120836908.958                    93984263.541    22565443.953  
  22565438.844  
  22959422.086   120652557.435    22959430.238    94015009.9844   22959430.277  
                
  24628949.688   129426012.894    24628958.098   100851470.6064                 
                
  19382226.555   103609127.424                    80584886.644    19382230.984  
  19382226.289  
  23473325.234   125566445.532                    97662763.587    23473331.848  
  23473323.023  
  20620418.328   108361023.837    20620426.980    84437229.3064   20620427.082  
                
  22602523.633   118777077.941    22602533.398    92553618.0194   22602533.723  
                
  21000985.758   112380541.436                    87407097.522    21000989.902  
  21000983.832  
  24354756.078   127985079.188    24354764.273    99728658.2464                 
                
  21940098.203   115296007.939    21940108.031    89841104.7774   21940108.562  
                
  20936206.445   111719630.258                                                  
  20936204.051  
  21477390.297   112864474.648    21477397.773    87946389.6884   21477397.621  
                
  20428393.594   107351949.229    20428402.480    83650932.3164   20428402.090  
                
 21  8 15  9 30 50.0000000  0 14R20R 4G18G21R 5R19G27G32R21G16G 8R 6
                                G23G10
  19547076.852   104527040.102                    81298841.179    19547083.473  
  19547076.328  
  22572844.688   120876561.783                    94015104.603    22572848.875  
  22572843.762  
  22964540.141   120679452.845    22964548.328    94035967.4314   22964548.375  
                
  24623998.539   129399994.423    24624006.992   100831196.5084                 
                
  19383994.844   103618579.892                    80592238.564    19383999.270  
  19383994.602  
  23480022.102   125602268.687                    97690626.001    23480028.668  
  23480019.879  
  20620443.180   108361154.359    20620451.840    84437331.0064   20620451.945  
                
  22596627.969   118746095.979    22596637.738    92529476.2484   22596638.070  
                
  20995250.469   112349850.731                    87383226.993    20995254.633  
  20995248.520  
  24360814.102   128016914.499    24360822.410    99753464.9274                 
                
  21936187.156   115275455.237    21936197.027    89825089.6954   21936197.547  
                
  20929642.969   111684606.338                                                  
  20929640.574  
  21481807.703   112887688.198    21481815.164    87964478.1534   21481815.027  
                
  20428941.047   107354826.086    20428949.934    83653174.0214   20428949.539  
                
 21  8 15  9 31  0.0000000  0 14R20R 4G18G21R 5R19G27G32R21G16G 8R 6
                                G23G10
  19548586.680   104535113.746                    81305120.678    19548593.309  
  19548586.133  
  22580254.492   120916240.762                    94045966.024    22580258.656  
  22580253.574  
  22969661.797   120706367.160    22969669.988    94056939.5964   22969670.039  
                
  24619047.914   129373978.533    24619056.383   100810924.4114                 
                
  19385778.438   103628114.152                    80599654.100    19385782.855  
  19385778.211  
  23486723.625   125638116.076                    97718507.271    23486729.996  
  23486721.277  
  20620480.547   108361350.692    20620489.207    84437483.9954   20620489.320  
                
  22590738.062   118715144.416    22590747.836    92505358.1674   22590748.184  
                
  20989520.203   112319187.000                    87359377.434    20989524.352  
  20989518.238  
  24366874.469   128048762.006    24366882.852    99778281.1274                 
                
  21932285.555   115254952.201    21932295.453    89809113.3114   21932295.961  
                
  20923088.984   111649632.917                                                  
  20923086.570  
  21486230.641   112910930.859    21486238.098    87982589.3224   21486237.965  
                
  20429497.023   107357747.747    20429505.914    83655450.6454   20429505.500  
                
 21  8 15  9 31 10.0000000  0 14R20R 4G18G21R 5R19G27G32R21G16G 8R 6
                                G23G10
  19550107.742   104543247.482                    81311446.911    19550114.367  
  19550107.176  
  22587669.078   120955945.504                    94076847.458    22587673.242  
  22587668.160  
  22974787.016   120733300.181    22974795.191    94077926.3364   22974795.242  
                
  24614097.680   129347965.118    24614106.238   100790654.2274                 
                
  19387577.273   103637729.929                    80607133.035    19387581.676  
  19387577.062  
  23493429.539   125673987.550                    97746407.278    23493435.816  
  23493427.105  
  20620530.406   108361612.689    20620539.062    84437688.1444   20620539.176  
                
  22584853.914   118684223.118    22584863.664    92481263.6594   22584864.047  
                
  20983794.961   112288550.094                    87335548.724    20983799.094  
  20983792.988  
  24372937.117   128080621.386    24372945.582    99803106.5964                 
                
  21928393.359   115234498.590    21928403.301    89793175.4474   21928403.793  
                
  20916544.461   111614710.265                                                  
  20916542.062  
  21490659.078   112934202.430    21490666.531    88000722.9924   21490666.398  
                
  20430061.484   107360713.995    20430070.375    83657762.0144   20430069.957  
                
 21  8 15  9 31 20.0000000  0 14R20R 4G18G21R 5R19G27G32R21G16G 8R 6
                                G23G10
  19551640.039   104551441.391                    81317819.948    19551646.691  
  19551639.449  
  22595088.523   120995676.232                    94107749.111    22595092.707  
  22595087.562  
  22979915.805   120760252.033    22979923.945    94098927.7514   22979924.020  
                
  24609147.930   129321954.299    24609156.574   100770386.0604                 
                
  19389391.359   103647427.303                    80614675.446    19389395.746  
  19389391.137  
  23500139.805   125709883.277                    97774326.133    23500146.164  
  23500137.422  
  20620592.789   108361940.523    20620601.438    84437943.5874   20620601.559  
                
  22578975.570   118653332.377    22578985.312    92457192.9694   22578985.703  
                
  20978074.781   112257940.303                    87311741.120    20978078.906  
  20978072.812  
  24379002.109   128112492.738    24379010.543    99827941.4074                 
                
  21924510.617   115214094.689    21924520.605    89777276.3054   21924521.070  
                
  20910009.492   111579838.399                                                  
  20910007.082  
  21495093.023   112957502.970    21495100.461    88018879.2464   21495100.324  
                
  20430634.445   107363724.971    20430643.324    83660108.2354   20430642.906  
                
 21  8 15  9 31 30.0000000  0 14R20R 4G18G21R 5R19G27G32R21G16G 8R 6
                                G23G10
  19553183.602   104559695.432                    81324239.750    19553190.242  
  19553182.957  
  22602512.812   121035432.764                    94138670.820    22602517.012  
  22602511.820  
  22985048.195   120787222.821    22985056.297    94119943.9364   22985056.398  
                
  24604198.742   129295946.197    24604207.379   100750120.0414                 
                
  19391220.742   103657206.357                    80622281.368    19391225.125  
  19391220.520  
  23506854.797   125745803.347                    97802263.923    23506861.043  
  23506852.367  
  20620667.734   108362334.317    20620676.379    84438250.4354   20620676.504  
                
  22573103.102   118622472.433    22573112.867    92433146.2804   22573113.246  
                
  20972359.703   112227357.824                    87287954.745    20972363.812  
  20972357.762  
  24385069.320   128144376.082    24385077.789    99852785.5304                 
                
  21920637.406   115193740.801    21920647.414    89761416.1354   21920647.863  
                
  20903484.133   111545017.725                                                  
  20903481.730  
  21499532.500   112980832.539    21499539.898    88037058.1244   21499539.805  
                
  20431215.953   107366780.769    20431224.809    83662489.3824   20431224.402  
                
 21  8 15  9 31 40.0000000  0 14R20R 4G18G21R 5R19G27G32R21G16G 8R 6
                                G23G10
  19554738.430   104568009.786                    81330706.475    19554745.082  
  19554737.770  
  22609941.883   121075214.923                    94169612.474    22609946.113  
  22609940.918  
  22990184.195   120814212.549    22990192.281    94140974.8684   22990192.387  
                
  24599250.086   129269940.768    24599258.629   100729856.0774                 
                
  19393065.359   103667066.883                    80629950.668    19393069.742  
  19393065.133  
  23513574.273   125781747.400                    97830220.362    23513580.414  
  23513571.781  
  20620755.219   108362794.053    20620763.863    84438608.6674   20620763.992  
                
  22567236.492   118591643.317    22567246.293    92409123.6214   22567246.691  
                
  20966649.773   112196802.919                    87264189.816    20966653.887  
  20966647.859  
  24391138.672   128176271.184    24391147.262    99877638.8314                 
                
  21916773.734   115173437.032    21916783.727    89745595.0074   21916784.176  
                
  20896968.328   111510248.233                                                  
  20896965.926  
  21503977.484   113004191.016    21503984.859    88055259.5274   21503984.793  
                
  20431805.969   107369881.285    20431814.793    83664905.3674   20431814.395  
                
 21  8 15  9 31 50.0000000  0 14R20R 4G18G21R 5R19G27G32R21G16G 8R 6
                                G23G10
  19556304.820   104576385.945                    81337221.253    19556311.477  
  19556304.121  
  22617375.984   121115024.059                    94200575.124    22617380.215  
  22617375.043  
  22995324.055   120841222.606    22995332.152    94162021.6384   22995332.254  
                
  24594302.297   129243939.569    24594310.664   100709595.3984                 
                
  19394925.500   103677010.390                    80637684.497    19394929.871  
  19394925.285  
  23520298.461   125817717.092                    97858196.747    23520304.586  
  23520295.938  
  20620855.539   108363321.210    20620864.184    84439019.4354   20620864.297  
                
  22561376.055   118560846.626    22561385.848    92385126.2134   22561386.273  
                
  20960945.266   112166276.946                    87240447.392    20960949.363  
  20960943.344  
  24397210.594   128208179.466    24397219.199    99902502.3784                 
                
  21912919.867   115153184.840    21912929.828    89729814.0774   21912930.289  
                
  20890462.359   111475531.268                                                  
  20890459.961  
  21508428.234   113027579.823    21508435.582    88073484.5604   21508435.527  
                
  20432404.766   107373027.976    20432413.555    83667357.3274   20432413.184  
                
 21  8 15  9 32  0.0000000  0 14R20R 4G18G21R 5R19G27G32R21G16G 8R 6
                                G23G10
  19557882.008   104584819.879                    81343780.980    19557888.672  
  19557881.242  
  22624814.328   121154855.906                    94231555.411    22624818.547  
  22624813.359  
  23000466.992   120868248.886    23000475.121    94183081.0424   23000475.227  
                
  24589354.461   129217938.531    24589362.805   100689334.8564                 
                
  19396800.328   103687032.402                    80645479.408    19396804.707  
  19396800.125  
  23527026.523   125853708.114                    97886189.727    23527032.781  
  23527024.109  
  20620967.914   108363911.702    20620976.551    84439479.5554   20620976.672  
                
  22555521.023   118530078.350    22555530.781    92361150.9494   22555531.230  
                
  20955245.422   112135775.964                    87216724.429    20955249.531  
  20955243.500  
  24403284.258   128240096.646    24403292.816    99927372.9084                 
                
  21909075.070   115132980.330    21909084.992    89714070.3054   21909085.461  
                
  20883965.547   111440863.114                                                  
  20883963.156  
  21512883.961   113050994.777    21512891.289    88091729.9744   21512891.246  
                
  20433011.555   107376216.699    20433020.316    83669842.0454   20433019.977  
                
 21  8 15  9 32 10.0000000  0 14R20R 4G18G21R 5R19G27G32R21G16G 8R 6
                                G23G10
  19559470.609   104593314.872                    81350388.180    19559477.301  
  19559469.816  
  22632257.539   121194713.917                    94262556.042    22632261.750  
  22632256.535  
  23005613.688   120895294.785    23005621.840    94204155.7434   23005621.938  
                
  24584407.172   129191940.997    24584415.652   100669077.1154                 
                
  19398690.531   103697136.565                    80653338.192    19398694.906  
  19398690.352  
  23533759.344   125889724.067                    97914202.107    23533765.605  
  23533756.969  
  20621093.008   108364568.990    20621101.633    84439991.7304   20621101.762  
                
  22549672.078   118499342.037    22549681.797    92337200.5934   22549682.270  
                
  20949550.953   112105303.643                    87193023.740    20949555.047  
  20949549.043  
  24409360.258   128272026.147    24409368.777    99952253.0234                 
                
  21905239.992   115112826.816    21905249.871    89698366.2724   21905250.344  
                
  20877478.578   111406247.340                                                  
  20877476.164  
  21517345.320   113074439.275    21517352.637    88109998.4054   21517352.613  
                
  20433627.000   107379450.872    20433635.742    83672362.1754   20433635.410  
                
 21  8 15  9 32 20.0000000  0 14R20R 4G18G21R 5R19G27G32R21G16G 8R 6
                                G23G10
  19561070.562   104601870.580                    81357042.610    19561077.293  
  19561069.730  
  22639705.508   121234597.313                    94293576.442    22639709.719  
  22639704.504  
  23010764.016   120922359.837    23010772.180    94225245.3794   23010772.238  
                
  24579460.586   129165946.615    24579468.984   100648821.7334                 
                
  19400595.992   103707322.292                    80661260.419    19400600.363  
  19400595.820  
  23540496.555   125925764.167                    97942233.229    23540502.957  
  23540494.332  
  20621230.703   108365292.547    20621239.312    84440555.5324   20621239.441  
                
  22543829.125   118468637.246    22543838.820    92313274.7924   22543839.309  
                
  20943861.734   112074859.496                    87169344.968    20943865.812  
  20943859.840  
  24415438.414   128303967.296    24415446.961    99977142.1964                 
                
  21901414.578   115092724.149    21901424.406    89682701.8484   21901424.895  
                
  20871001.312   111371683.540                                                  
  20870998.910  
  21521812.172   113097912.692    21521819.480    88128289.3704   21521819.457  
                
  20434250.969   107382729.886    20434259.695    83674917.2444   20434259.367  
                
 21  8 15  9 32 30.0000000  0 14R20R 4G18G21R 5R19G27G32R21G16G 8R 6
                                G23G10
  19562681.828   104610486.767                    81363744.094    19562688.613  
  19562680.973  
  22647158.133   121274505.599                    94324616.196    22647162.316  
  22647157.156  
  23015917.945   120949443.709    23015926.078    94246349.6634   23015926.129  
                
  24574514.461   129139955.051    24574522.887   100628568.5894                 
                
  19402516.633   103717589.208                    80669245.803    19402521.016  
  19402516.465  
  23547238.398   125961828.249                    97970283.026    23547244.816  
  23547236.199  
  20621380.969   108366082.139    20621389.559    84441170.7964   20621389.691  
                
  22537992.156   118437963.840    22538001.812    92289373.4494   22538002.297  
                
  20938177.750   112044443.370                    87145687.993    20938181.840  
  20938175.855  
  24421518.680   128335919.699    24421527.293   100002040.1364                 
                
  21897598.750   115072671.848    21897608.527    89667076.6814   21897609.012  
                
  20864533.680   111337171.080                                                  
  20864531.281  
  21526284.461   113121414.731    21526291.770    88146602.6344   21526291.758  
                
  20434883.430   107386053.467    20434892.152    83677507.0584   20434891.824  
                
 21  8 15  9 32 40.0000000  0 14R20R 4G18G21R 5R19G27G32R21G16G 8R 6
                                G23G10
  19564304.352   104619163.137                    81370492.370    19564311.168  
  19564303.457  
  22654615.344   121314438.597                    94355675.187    22654619.488  
  22654614.367  
  23021075.422   120976546.193    23021083.543    94267468.4754   23021083.605  
                
  24569568.914   129113966.117    24569577.293   100608317.4564                 
                
  19404452.398   103727936.925                    80677294.009    19404456.781  
  19404452.227  
  23553984.594   125997916.029                    97998351.277    23553991.113  
  23553982.480  
  20621543.758   108366937.571    20621552.336    84441837.3664   20621552.461  
                
  22532161.141   118407321.715    22532170.777    92265496.4784   22532171.258  
                
  20932498.977   112014055.068                    87122052.655    20932503.074  
  20932497.070  
  24427601.125   128367882.982    24427609.680   100026946.5664                 
                
  21893792.500   115052669.865    21893802.223    89651490.7174   21893802.707  
                
  20858075.789   111302710.510                                                  
  20858073.359  
  21530762.148   113144945.100    21530769.457    88164937.9724   21530769.441  
                
  20435524.320   107389421.397    20435533.039    83680131.4204   20435532.711  
                
 21  8 15  9 32 50.0000000  0 14R20R 4G18G21R 5R19G27G32R21G16G 8R 6
                                G23G10
  19565938.180   104627899.975                    81377287.686    19565945.035  
  19565937.254  
  22662077.164   121354396.197                    94386753.328    22662081.320  
  22662076.148  
  23026236.469   121003667.484    23026244.598    94288601.9474   23026244.664  
                
  24564623.828   129087979.950    24564632.254   100588068.5074                 
                
  19406403.281   103738365.515                    80685405.142    19406407.672  
  19406403.113  
  23560735.234   126034027.344                    98026437.806    23560741.820  
  23560733.160  
  20621719.109   108367859.000    20621727.672    84442555.3584   20621727.797  
                
  22526336.117   118376711.110    22526345.770    92241644.0814   22526346.246  
                
  20926825.477   111983694.993                    87098439.280    20926829.590  
  20926823.566  
  24433685.641   128399857.244    24433694.148   100051861.5584                 
                
  21889995.844   115032718.282    21890005.508    89635944.0344   21890006.023  
                
  20851627.609   111268301.847                                                  
  20851625.152  
  21535245.250   113168503.879    21535252.570    88183295.4634   21535252.539  
                
  20436173.680   107392833.755    20436182.402    83682790.4114   20436182.062  
                
 21  8 15  9 33  0.0000000  0 14R20R 4G18G21R 5R19G27G32R21G16G 8R 6
                                G23G10
  19567583.297   104636697.224                    81384129.987    19567590.195  
  19567582.332  
  22669543.523   121394378.307                    94417850.477    22669547.746  
  22669542.488  
  23031401.031   121030807.369    23031409.121    94309749.8654   23031409.234  
                
  24559679.320   129061996.476    24559687.766   100567821.7234                 
                
  19408369.281   103748874.910                    80693579.111    19408373.680  
  19408369.098  
  23567490.359   126070162.502                    98054542.887    23567496.969  
  23567488.273  
  20621907.000   108368846.351    20621915.543    84443324.7144   20621915.664  
                
  22520517.078   118346132.033    22520526.777    92217816.2434   22520527.223  
                
  20921157.227   111953363.107                    87074847.809    20921161.348  
  20921155.312  
  24439772.281   128431842.257    24439780.684   100076784.9104                 
                
  21886208.852   115012817.526    21886218.461    89620436.9464   21886218.996  
                
  20845189.148   111233945.065                                                  
  20845186.699  
  21539733.719   113192090.891    21539741.047    88201674.9494   21539741.008  
                
  20436831.469   107396290.424    20436840.203    83685483.9214   20436839.855  
                
 21  8 15  9 33 10.0000000  0 14R20R 4G18G21R 5R19G27G32R21G16G 8R 6
                                G23G10
  19569239.656   104645554.558                    81391019.012    19569246.594  
  19569238.664  
  22677014.406   121434384.512                    94448966.379    22677018.672  
  22677013.398  
  23036569.117   121057965.631    23036577.164    94330912.1234   23036577.320  
                
  24554735.539   129036015.612    24554743.785   100547576.8854                 
                
  19410350.336   103759464.781                    80701815.673    19410354.738  
  19410350.145  
  23574250.016   126106320.920                    98082666.087    23574256.500  
  23574247.754  
  20622107.391   108369899.392    20622115.918    84444145.2684   20622116.043  
                
  22514704.008   118315584.338    22514713.750    92194012.8674   22514714.180  
                
  20915494.219   111923059.269                    87051278.163    20915498.348  
  20915492.289  
  24445860.805   128463837.667    24445869.234   100101716.3784                 
                
  21882431.484   114992967.318    21882441.051    89604969.2584   21882441.590  
                
  20838760.383   111199639.965                                                  
  20838757.934  
  21544227.508   113215705.875    21544234.832    88220076.2234   21544234.785  
                
  20437497.633   107399791.150    20437506.379    83688211.7584   20437506.023  
                
 21  8 15  9 33 20.0000000  0 14R20R 4G18G21R 5R19G27G32R21G16G 8R 6
                                G23G10
  19570907.281   104654472.132                    81397954.898    19570914.266  
  19570906.227  
  22684489.812   121474414.664                    94480100.930    22684494.062  
  22684488.840  
  23041740.711   121085142.300    23041748.723    94352088.7324   23041748.910  
                
  24549792.195   129010037.295    24549800.305   100527334.0494                 
                
  19412346.391   103770134.842                    80710114.616    19412350.801  
  19412346.180  
  23581014.016   126142502.691                    98110807.395    23581020.344  
  23581011.621  
  20622320.297   108371018.216    20622328.812    84445017.0654   20622328.934  
                
  22508896.930   118285068.201    22508906.703    92170234.0844   22508907.133  
                
  20909836.484   111892783.653                    87027730.468    20909840.613  
  20909834.559  
  24451951.328   128495843.482    24451959.781   100126655.9134                 
                
  21878663.680   114973167.360    21878673.207    89589540.7164   21878673.750  
                
  20832341.328   111165386.712                                                  
  20832338.871  
  21548726.602   113239348.779    21548733.898    88238499.2524   21548733.863  
                
  20438172.188   107403335.943    20438180.949    83690973.9314   20438180.574  
                
 21  8 15  9 33 30.0000000  0 14R20R 4G18G21R 5R19G27G32R21G16G 8R 6
                                G23G10
  19572586.312   104663450.734                    81404938.251    19572593.348  
  19572585.230  
  22691969.766   121514469.225                    94511254.473    22691974.000  
  22691968.828  
  23046915.930   121112338.008    23046923.930    94373280.1534   23046924.113  
                
  24544849.461   128984062.347    24544857.434   100507093.8224                 
                
  19414357.633   103780886.059                    80718476.681    19414362.043  
  19414357.414  
  23587782.438   126178708.313                    98138967.312    23587788.633  
  23587779.914  
  20622545.844   108372203.455    20622554.348    84445940.6234   20622554.469  
                
  22503096.000   118254584.360    22503105.773    92146480.4684   22503106.223  
                
  20904184.188   111862537.058                    87004205.352    20904188.316  
  20904182.250  
  24458043.914   128527860.240    24458052.438   100151604.0244                 
                
  21874905.656   114953418.846    21874915.148    89574152.2714   21874915.703  
                
  20825932.125   111131186.013                                                  
  20825929.668  
  21553231.125   113263020.216    21553238.402    88256944.5204   21553238.383  
                
  20438855.242   107406925.407    20438864.027    83693770.9144   20438863.648  
                
 21  8 15  9 33 40.0000000  0 14R20R 4G18G21R 5R19G27G32R21G16G 8R 6
                                G23G10
  19574276.625   104672489.639                    81411968.504    19574283.715  
  19574275.523  
  22699454.156   121554547.842                    94542426.680    22699458.441  
  22699453.227  
  23052094.664   121139552.356    23052102.652    94394486.1064   23052102.848  
                
  24539907.102   128958090.143    24539915.148   100486855.7954                 
                
  19416383.891   103791717.546                    80726901.160    19416388.289  
  19416383.664  
  23594555.328   126214937.486                    98167145.510    23594561.344  
  23594552.609  
  20622783.945   108373454.645    20622792.426    84446915.5744   20622792.559  
                
  22497301.180   118224132.474    22497310.941    92122751.7414   22497311.395  
                
  20898537.242   111832319.091                    86980702.503    20898541.375  
  20898535.305  
  24464138.484   128559887.336    24464147.020   100176560.1744                 
                
  21871157.297   114933721.101    21871166.742    89558803.3824   21871167.305  
                
  20819532.750   111097037.761                                                  
  20819530.293  
  21557740.984   113286719.631    21557748.258    88275411.5854   21557748.250  
                
  20439546.711   107410559.047    20439555.520    83696602.3174   20439555.129  
                
 21  8 15  9 33 50.0000000  0 14R20R 4G18G21R 5R19G27G32R21G16G 8R 6
                                G23G10
  19575978.305   104681589.287                    81419046.009    19575985.453  
  19575977.180  
  22706942.992   121594650.257                    94573617.414    22706947.309  
  22706942.043  
  23057276.938   121166785.303    23057284.914    94415706.5514   23057285.133  
                
  24534965.258   128932120.849    24534973.336   100466619.9244                 
                
  19418425.203   103802629.506                    80735388.238    19418429.605  
  19418424.980  
  23601332.367   126251190.169                    98195341.984    23601338.410  
  23601329.711  
  20623034.617   108374771.900    20623043.059    84447941.9974   20623043.199  
                
  22491512.477   118193712.711    22491522.215    92099048.0344   22491522.660  
                
  20892895.695   111802130.038                    86957222.147    20892899.840  
  20892893.766  
  24470235.031   128591924.743    24470243.531   100201524.3534                 
                
  21867418.656   114914074.432    21867428.051    89543494.2924   21867428.648  
                
  20813143.203   111062941.993                                                  
  20813140.754  
  21562256.156   113310447.049    21562263.461    88293900.4614   21562263.438  
                
  20440246.570   107414236.897    20440255.398    83699468.1674   20440254.996  
                
 21  8 15  9 34  0.0000000  0 14R20R 4G18G21R 5R19G27G32R21G16G 8R 6
                                G23G10
  19577691.266   104690749.352                    81426170.494    19577698.453  
  19577690.117  
  22714436.258   121634776.249                    94604826.507    22714440.598  
  22714435.305  
  23062462.734   121194036.816    23062470.734    94436941.4824   23062470.953  
                
  24530024.070   128906154.393    24530032.098   100446386.3654                 
                
  19420481.500   103813621.569                    80743937.615    19420485.914  
  19420481.277  
  23608113.672   126287466.023                    98223556.505    23608119.824  
  23608111.168  
  20623297.836   108376155.143    20623306.234    84449019.8454   20623306.406  
                
  22485729.883   118163325.067    22485739.625    92075369.3694   22485740.062  
                
  20887259.539   111771969.779                    86933764.166    20887263.660  
  20887257.625  
  24476333.492   128623972.233    24476341.992   100226496.3994                 
                
  21863689.695   114894478.656    21863699.047    89528224.8614   21863699.660  
                
  20806763.523   111028898.908                                                  
  20806761.086  
  21566776.625   113334202.299    21566783.949    88312411.0384   21566783.926  
                
  20440954.828   107417958.821    20440963.668    83702368.3744   20440963.262  
                
 21  8 15  9 34 10.0000000  0 14R20R 4G18G21R 5R19G27G32R21G16G 8R 6
                                G23G10
  19579415.586   104699970.106                    81433342.181    19579422.820  
  19579414.414  
  22721933.969   121674925.807                    94636053.917    22721938.301  
  22721932.996  
  23067652.102   121221307.053    23067660.125    94458191.0084   23067660.316  
                
  24525083.297   128880191.000    24525091.465   100426155.1984                 
                
  19422552.844   103824694.111                    80752549.595    19422557.258  
  19422552.602  
  23614899.609   126323765.332                    98251789.266    23614905.660  
  23614897.047  
  20623573.656   108377604.561    20623582.020    84450149.2614   20623582.223  
                
  22479953.453   118132969.858    22479963.254    92051715.9864   22479963.680  
                
  20881628.812   111741838.657                    86910328.851    20881632.930  
  20881626.898  
  24482433.961   128656029.871    24482442.371   100251476.3454                 
                
  21859970.500   114874934.177    21859979.816    89512995.4004   21859980.453  
                
  20800393.727   110994908.507                                                  
  20800391.285  
  21571302.430   113357985.545    21571309.762    88330943.4284   21571309.742  
                
  20441671.508   107421725.012    20441680.344    83705303.0694   20441679.934  
                
 21  8 15  9 34 20.0000000  0 14R20R 4G18G21R 5R19G27G32R21G16G 8R 6
                                G23G10
  19581151.250   104709251.533                    81440561.060    19581158.520  
  19581150.078  
  22729436.055   121715098.885                    94667299.607    22729440.367  
  22729435.109  
  23072845.000   121248595.888    23072852.996    94479455.0114   23072853.203  
                
  24520143.039   128854230.567    24520151.344   100405926.3014                 
                
  19424639.188   103835846.813                    80761223.927    19424643.637  
  19424638.914  
  23621689.977   126360087.823                    98280040.050    23621695.797  
  23621687.238  
  20623862.062   108379120.088    20623870.391    84451330.1874   20623870.613  
                
  22474183.219   118102647.083    22474193.078    92028087.8694   22474193.480  
                
  20876003.523   111711736.664                    86886916.198    20876007.645  
  20876001.594  
  24488536.320   128688097.471    24488544.660   100276464.0544                 
                
  21856261.094   114855441.106    21856270.387    89497805.9984   21856271.039  
                
  20794033.828   110960970.951                                                  
  20794031.391  
  21575833.516   113381796.588    21575840.855    88349497.4734   21575840.852  
                
  20442396.594   107425535.322    20442405.414    83708272.1394   20442405.016  
                
 21  8 15  9 34 30.0000000  0 14R20R 4G18G21R 5R19G27G32R21G16G 8R 6
                                G23G10
  19582898.297   104718593.768                    81447827.230    19582905.594  
  19582897.145  
  22736942.500   121755295.440                    94698563.572    22736946.805  
  22736941.566  
  23078041.453   121275903.449    23078049.418    94500733.6044   23078049.668  
                
  24515203.375   128828273.340    24515211.828   100385699.9474                 
                
  19426740.523   103847079.711                    80769960.616    19426744.980  
  19426740.227  
  23628484.320   126396433.633                    98308309.008    23628490.336  
  23628481.723  
  20624163.062   108380701.853    20624171.371    84452562.7274   20624171.605  
                
  22468419.180   118072356.971    22468429.098    92004485.1974   22468429.453  
                
  20870383.750   111681664.131                    86863526.441    20870387.863  
  20870381.797  
  24494640.547   128720175.043    24494648.793   100301459.5594                 
                
  21852561.508   114835999.688    21852570.785    89482656.8364   21852571.453  
                
  20787683.859   110927086.256                                                  
  20787681.418  
  21580369.914   113405635.511    21580377.273    88368073.2444   21580377.266  
                
  20443130.078   107429389.835    20443138.871    83711275.6614   20443138.496  
                
 21  8 15  9 34 40.0000000  0 14R20R 4G18G21R 5R19G27G32R21G16G 8R 6
                                G23G10
  19584656.688   104727996.695                    81455140.611    19584664.027  
  19584655.559  
  22744453.266   121795515.188                    94729845.574    22744457.562  
  22744452.312  
  23083241.445   121303229.510    23083249.402    94522026.6214   23083249.660  
                
  24510264.367   128802319.095    24510272.863   100365475.8604                 
                
  19428856.812   103858392.561                    80778759.486    19428861.293  
  19428856.492  
  23635283.547   126432802.773                    98336596.043    23635289.203  
  23635280.941  
  20624476.641   108382349.680    20624484.934    84453846.7514   20624485.180  
                
  22462661.336   118042099.442    22462671.289    91980907.9284   22462671.645  
                
  20864769.453   111651620.992                    86840159.563    20864773.562  
  20864767.484  
  24500746.555   128752262.306    24500754.738   100326462.5924                 
                
  21848871.703   114816609.654    21848880.965    89467547.7214   21848881.660  
                
  20781343.820   110893254.571                                                  
  20781341.371  
  21584911.562   113429502.062    21584918.922    88386670.5394   21584918.914  
                
  20443871.945   107433288.350    20443880.719    83714313.4634   20443880.348  
                
 21  8 15  9 34 50.0000000  0 13R20R 4G18G21R 5G27G32R21G16G 8R 6G23
                                G10
  19586426.461   104737460.388                    81462501.255    19586433.828  
  19586425.344  
  22751968.320   121835757.954                    94761145.481    22751972.641  
  22751967.355  
  23088444.969   121330574.092    23088452.906    94543334.0434   23088453.172  
                
  24505325.906   128776367.783    24505334.449   100345254.0964                 
                
  19430988.070   103869785.361                    80787620.554    19430992.566  
  19430987.727  
  20624802.797   108384063.637    20624811.082    84455182.2964   20624811.336  
                
  22456909.734   118011874.619    22456919.672    91957356.1454   22456920.023  
                
  20859160.703   111621607.441                    86816815.714    20859164.805  
  20859158.742  
  24506854.359   128784359.254    24506862.516   100351473.1984                 
                
  21845191.680   114797271.022    21845200.941    89452478.6614   21845201.652  
                
  20775013.734   110859476.094                                                  
  20775011.277  
  21589458.469   113453396.197    21589465.816    88405289.3424   21589465.828  
                
  20444622.180   107437230.840    20444630.934    83717385.5354   20444630.578  
                
 21  8 15  9 35  0.0000000  0 13R20R 4G18G21R 5G27G32R21G16G 8R 6G23
                                G10
  19588207.547   104746984.632                    81469908.997    19588214.957  
  19588206.445  
  22759487.609   121876023.427                    94792463.054    22759491.934  
  22759486.629  
  23093651.969   121357937.016    23093659.863    94564655.7574   23093660.172  
                
  24500388.102   128750419.416    24500396.641   100325034.6384                 
                
  19433134.219   103881257.770                    80796543.532    19433138.719  
  19433133.867  
  20625141.516   108385843.536    20625149.797    84456569.2274   20625150.051  
                
  22451164.359   117981682.480    22451174.219    91933829.8164   22451174.590  
                
  20853557.445   111591623.274                    86793494.729    20853561.539  
  20853555.477  
  24512963.984   128816465.649    24512972.125   100376491.0984                 
                
  21841521.453   114777983.885    21841530.715    89437449.7264   21841531.430  
                
  20768693.594   110825750.746                                                  
  20768691.148  
  21594010.578   113477317.699    21594017.914    88423929.4714   21594017.934  
                
  20445380.750   107441217.140    20445389.488    83720491.7454   20445389.145  
                
 21  8 15  9 35 10.0000000  0 13R20R 4G18G21R 5G27G32R21G16G 8R 6G23
                                G10
  19589999.938   104756569.401                    81477363.810    19590007.383  
  19589998.855  
  22767011.094   121916311.444                    94823798.168    22767015.449  
  22767010.098  
  23098862.461   121385318.302    23098870.391    94585991.8454   23098870.703  
                
  24495450.898   128724473.879    24495459.336   100304817.3594                 
                
  19435295.227   103892809.595                    80805528.296    19435299.734  
  19435294.867  
  20625492.758   108387689.330    20625501.051    84458007.5084   20625501.305  
                
  22445425.195   117951523.022    22445434.957    91910328.9454   22445435.371  
                
  20847959.680   111561668.549                    86770196.613    20847963.777  
  20847957.723  
  24519075.500   128848581.116    24519083.488   100401516.1194                 
                
  21837861.031   114758748.289    21837870.281    89422460.9554   21837871.000  
                
  20762383.406   110792078.427                                                  
  20762380.953  
  21598567.875   113501266.427    21598575.203    88442590.8074   21598575.227  
                
  20446147.617   107445247.111    20446156.352    83723631.9764   20446156.008  
                
 21  8 15  9 35 20.0000000  0 13R20R 4G18G21R 5G27G32R21G16G 8R 6G23
                                G10
  19591803.703   104766214.902                    81484865.850    19591811.156  
  19591802.637  
  22774538.766   121956621.932                    94855150.725    22774543.145  
  22774537.754  
  23104076.438   121412717.869    23104084.426    94607342.1334   23104084.730  
                
  24490514.227   128698531.253    24490522.547   100284602.3184                 
                
  19437471.094   103904440.872                    80814574.847    19437475.613  
  19437470.742  
  20625856.562   108389601.099    20625864.871    84459497.1894   20625865.129  
                
  22439692.281   117921396.408    22439702.004    91886853.6784   22439702.430  
                
  20842367.469   111531743.503                    86746921.579    20842371.566  
  20842365.508  
  24525188.711   128880705.613    24525196.574   100426548.1944                 
                
  21834210.414   114739564.204    21834219.637    89407512.3234   21834220.391  
                
  20756083.141   110758459.139                                                  
  20756080.703  
  21603130.352   113525242.357    21603137.668    88461273.3424   21603137.699  
                
  20446922.812   107449320.778    20446931.547    83726806.2604   20446931.211  
                
 21  8 15  9 35 30.0000000  0 13R20R 4G18G21R 5G27G32R21G16G 8R 6G23
                                G10
  19593618.797   104775920.997                    81492415.034    19593626.270  
  19593617.766  
  22782070.656   121996954.952                    94886520.827    22782075.059  
  22782069.652  
  23109293.922   121440135.928    23109301.996    94628706.8084   23109302.273  
                
  24485578.070   128672591.702    24485586.453   100264389.7304                 
                
  19439661.859   103916151.771                    80823683.316    19439666.391  
  19439661.500  
  20626232.945   108391579.022    20626241.277    84461038.4214   20626241.520  
                
  22433965.680   117891302.930    22433975.410    91863404.2314   22433975.816  
                
  20836780.844   111501848.380                    86723669.816    20836784.934  
  20836778.883  
  24531303.500   128912839.260    24531311.406   100451587.3674                 
                
  21830569.688   114720432.093    21830578.879    89392604.1784   21830579.652  
                
  20749792.922   110724893.416                                                  
  20749790.504  
  21607698.031   113549245.638    21607705.355    88479977.1894   21607705.371  
                
  20447706.352   107453438.321    20447715.094    83730014.7324   20447714.754  
                
 21  8 15  9 35 40.0000000  0 13R20R 4G18G21R 5G27G32R21G16G 8R 6G23
                                G10
  19595445.328   104785688.256                    81500011.778    19595452.809  
  19595444.312  
  22789606.812   122037310.618                    94917908.547    22789611.234  
  22789605.809  
  23114514.969   121467572.721    23114523.102    94650086.0954   23114523.387  
                
  24480642.562   128646655.570    24480650.918   100244179.7314                 
                
  19441867.531   103927942.347                    80832853.769    19441872.074  
  19441867.176  
  20626621.977   108393623.377    20626630.332    84462631.4194   20626630.555  
                
  22428245.445   117861242.952    22428255.191    91839980.8894   22428255.586  
                
  20831199.883   111471983.626                    86700441.682    20831203.984  
  20831197.902  
  24537420.023   128944982.271    24537428.004   100476633.8284                 
                
  21826938.859   114701352.055    21826948.035    89377736.6244   21826948.828  
                
  20743512.852   110691381.754                                                  
  20743510.441  
  21612270.953   113573276.466    21612278.273    88498702.4964   21612278.289  
                
  20448498.273   107457599.926    20448507.016    83733257.5394   20448506.676  
                
 21  8 15  9 35 50.0000000  0 13R20R 4G18G21R 5G27G32R21G16G 8R 6G23
                                G10
  19597283.188   104795516.080                    81507655.654    19597290.668  
  19597282.203  
  22797147.031   122077688.135                    94949313.264    22797151.473  
  22797146.055  
  23119739.500   121495027.667    23119747.668    94671479.5304   23119747.973  
                
  24475707.734   128620722.481    24475715.977   100223972.1804                 
                
  19444087.977   103939811.936                    80842085.668    19444092.539  
  19444087.625  
  20627023.547   108395733.615    20627031.926    84464275.7554   20627032.141  
                
  22422531.484   117831216.009    22422541.250    91816583.3064   22422541.645  
                
  20825624.500   111442148.691                    86677236.756    20825628.605  
  20825622.500  
  24543538.266   128977133.944    24543546.289   100501687.0454                 
                
  21823317.867   114682323.618    21823327.047    89362909.2804   21823327.844  
                
  20737242.773   110657923.415                                                  
  20737240.359  
  21616849.000   113597334.199    21616856.332    88517448.7814   21616856.340  
                
  20449298.484   107461805.025    20449307.223    83736534.2414   20449306.891  
                
 21  8 15  9 36  0.0000000  0 13R20R 4G18G21R 5G27G32R21G16G 8R 6G23
                                G10
  19599132.430   104805404.749                    81515346.820    19599139.906  
  19599131.457  
  22804691.383   122118087.728                    94980735.153    22804695.832  
  22804690.469  
  23124967.523   121522500.951    23124975.707    94692887.2564   23124976.000  
                
  24470773.445   128594792.493    24470781.578   100203766.9324                 
                
  19446323.273   103951760.855                    80851379.266    19446327.852  
  19446322.922  
  20627437.703   108397909.969    20627446.102    84465971.6134   20627446.312  
                
  22416823.883   117801222.451    22416833.656    91793211.7114   22416834.023  
                
  20820054.781   111412344.029                    86654055.354    20820058.887  
  20820052.758  
  24549658.273   129009294.401    24549666.262   100526747.1104                 
                
  21819706.805   114663347.402    21819715.996    89348122.6124   21819716.801  
                
  20730982.789   110624518.969                                                  
  20730980.371  
  21621432.195   113621419.005    21621439.535    88536216.1444   21621439.531  
                
  20450107.000   107466053.799    20450115.715    83739844.9734   20450115.410  
                
 21  8 15  9 36 10.0000000  0 13R20R 4G18G21R 5G27G32R21G16G 8R 6G23
                                G10
  19600993.000   104815354.052                    81523085.164    19601000.465  
  19600992.051  
  22812239.750   122158508.995                    95012173.911    22812244.211  
  22812238.832  
  23130198.969   121549992.446    23130207.195    94714309.1644   23130207.461  
                
  24465839.727   128568865.360    24465847.688   100183563.9634                 
                
  19448573.344   103963788.809                    80860734.337    19448577.934  
  19448572.988  
  20627864.398   108400152.263    20627872.805    84467718.8564   20627873.004  
                
  22411122.602   117771262.184    22411132.344    91769866.0654   22411132.719  
                
  20814490.672   111382569.452                    86630897.321    20814494.762  
  20814488.660  
  24555779.859   129041463.334    24555787.855   100551813.7904                 
                
  21816105.625   114644423.111    21816114.832    89333376.4184   21816115.629  
                
  20724732.844   110591168.159                                                  
  20724730.430  
  21626020.484   113645530.632    21626027.832    88555004.4154   21626027.824  
                
  20450923.781   107470346.026    20450932.465    83743189.5694   20450932.188  
                
 21  8 15  9 36 20.0000000  0 13R20R 4G18G21R 5G27G32R21G16G 8R 6G23
                                G10
  19602864.969   104825364.252                    81530870.858    19602872.410  
  19602864.059  
  22819792.219   122198952.204                    95043629.712    22819796.723  
  22819791.270  
  23135433.930   121577502.327    23135442.191    94735745.3934   23135442.438  
                
  24460906.602   128542941.343    24460914.520   100163363.4684                 
                
  19450838.211   103975895.835                    80870150.917    19450842.828  
  19450837.855  
  20628303.695   108402460.723    20628312.105    84469517.6494   20628312.305  
                
  22405427.727   117741335.516    22405437.355    91746546.5984   22405437.793  
                
  20808932.281   111352825.372                    86607763.051    20808936.348  
  20808930.258  
  24561902.977   129073640.827    24561911.070   100576887.1424                 
                
  21812514.391   114625551.106    21812523.613    89318670.9654   21812524.395  
                
  20718493.016   110557871.340                                                  
  20718490.605  
  21630613.914   113669669.240    21630621.258    88573813.7144   21630621.258  
                
  20451748.875   107474681.893    20451757.512    83746568.1684   20451757.258  
                
 21  8 15  9 36 30.0000000  0 13R20R 4G18G21R 5G27G32R21G16G 8R 6G23
                                G10
  19604748.328   104835435.342                    81538703.931    19604755.746  
  19604747.422  
  22827348.773   122239417.179                    95075102.428    22827353.293  
  22827347.809  
  23140672.414   121605030.612    23140680.695    94757195.9774   23140680.926  
                
  24455974.078   128517020.522    24455981.938   100143165.4254                 
                
  19453117.852   103988081.838                    80879628.908    19453122.488  
  19453117.508  
  20628755.578   108404835.402    20628763.984    84471368.0474   20628764.199  
                
  22399739.289   117711442.599    22399748.797    91723253.4254   22399749.305  
                
  20803379.617   111323111.960                    86584652.624    20803383.672  
  20803377.586  
  24568027.797   129105826.849    24568035.887   100601967.1094                 
                
  21808933.078   114606731.192    21808942.309    89304006.1044   21808943.090  
                
  20712263.367   110524628.873                                                  
  20712260.938  
  21635212.469   113693834.785    21635219.812    88592644.0024   21635219.828  
                
  20452582.273   107479061.404    20452590.867    83749980.7784   20452590.645  
                
 21  8 15  9 36 40.0000000  0 13R20R 4G18G21R 5G27G32R21G16G 8R 6G23
                                G10
  19606643.117   104845567.582                    81546584.555    19606650.516  
  19606642.230  
  22834909.391   122279903.830                    95106592.037    22834913.902  
  22834908.445  
  23145914.414   121632577.428    23145922.707    94778661.0194   23145922.934  
                
  24451042.148   128491103.183    24451050.070   100122970.1424                 
                
  19455412.297   104000346.905                    80889168.407    19455416.941  
  19455411.973  
