     2.11           OBSERVATION DATA    M (MIXED)           RINEX VERSION / TYPE
EFT-CORS.RU                             20210817 144901 UTC PGM / RUN BY / DATE 
MDNG                                                        MARKER NAME         
                                                            MARKER NUMBER       
MDNG                EFT-CORS.RU                             OBSERVER / AGENCY   
0                   TRIMBLE BD970       2.0                 REC # / TYPE / VERS 
0                   UNKNOWN EXT NONE                        ANT # / TYPE        
  3463911.2830  3030468.2400  4402179.3760                  APPROX POSITION XYZ 
        0.0000        0.0000        0.0000                  ANTENNA: DELTA H/E/N
     1     1                                                WAVELENGTH FACT L1/2
     6    C1    L1    P2    L2    C2    P1                  # / TYPES OF OBSERV 
    10.000                                                  INTERVAL            
  2021     8    16    14    30    0.0000000     GPS         TIME OF FIRST OBS   
  2021     8    16    15    30    0.0000000     GPS         TIME OF LAST OBS    
     0                                                      RCV CLOCK OFFS APPL 
                                                            END OF HEADER       
 21  8 16 14 30  0.0000000  0 17G 4G17R 1R24G26R17G 9G31G 1R23G22G19
                                G21R 8R10G 3R 2
  21146036.703   111123215.050    21146044.781    86589567.5924   21146044.551  
                
  24582413.203   129181438.799    24582421.688   100660888.3784   24582421.590  
                
  19656662.828   105076161.780                    81725907.652    19656668.301  
  19656662.270  
  21061389.195   112624739.062                    87597014.736    21061394.699  
  21061388.566  
  24123556.977   126770189.470    24123568.723    98781982.4024   24123568.555  
                
  21520977.227   115163108.682                    89571299.945    21520981.355  
  21520975.496  
  23864111.617   125406767.156    23864121.816    97719606.5964   23864121.621  
                
  21944848.359   115321004.722    21944855.246    89860584.8964   21944855.438  
                
  21700245.320   114035584.870    21700256.195    88858936.7764   21700255.762  
                
  23043976.867   123269721.490                                                  
  23043975.309  
  20810045.586   109357560.647    20810049.887    85213714.9354                 
                
  24215677.367   127254244.232    24215683.898    99159170.4154                 
                
  23199552.930   121914475.318    23199560.492    94998322.3824                 
                
  21198077.680   113514769.746                    88289277.703    21198080.840  
  21198077.102  
  21109860.227   112527445.218                                                  
  21109859.250  
  20267374.531   106505799.384    20267383.270    82991587.5804   20267383.680  
                
  22603959.719   120619056.702                    93814821.911    22603963.656  
  22603957.605  
 21  8 16 14 30 10.0000000  0 17G 4G17R 1R24G26R17G 9G31G 1R23G22G19
                                G21R 8R10G 3R 2
  21142869.438   111106570.993    21142877.504    86576598.1974   21142877.273  
                
  24585953.555   129200043.744    24585962.141   100675385.7344   24585962.023  
                
  19656197.859   105073676.230                    81723974.450    19656203.328  
  19656197.289  
  21066187.430   112650397.343                    87616971.162    21066192.934  
  21066186.762  
  24118897.203   126745702.127    24118908.953    98762901.3834   24118908.801  
                
  21518604.312   115150410.765                    89561423.801    21518608.461  
  21518602.586  
  23858432.555   125376923.227    23858442.719    97696351.6114   23858442.516  
                
  21948881.898   115342201.140    21948888.781    89877101.5754   21948888.945  
                
  21705923.555   114065424.172    21705934.398    88882188.1724   21705933.969  
                
  23052240.492   123313926.252                                                  
  23052238.918  
  20812006.781   109367866.782    20812011.082    85221745.6864                 
                
  24217746.570   127265117.904    24217753.105    99167643.3904                 
                
  23205290.070   121944623.773    23205297.629    95021814.6584                 
                
  21202200.203   113536845.630                    88306447.818    21202203.367  
  21202199.605  
  21110520.453   112530964.640                                                  
  21110519.477  
  20266948.852   106503562.425    20266957.598    82989844.4954   20266958.004  
                
  22598633.336   120590634.092                    93792715.434    22598637.258  
  22598631.242  
 21  8 16 14 30 20.0000000  0 17G 4G17R 1R24G26R17G 9G31G 1R23G22G19
                                G21R 8R10G 3R 2
  21139709.023   111089962.888    21139717.086    86563656.8154   21139716.855  
                
  24589500.539   129218683.354    24589509.168   100689910.0824   24589509.082  
                
  19655739.312   105071225.051                    81722067.967    19655744.781  
  19655738.734  
  21070998.875   112676126.225                    87636982.504    21071004.375  
  21070998.191  
  24114242.781   126721242.984    24114254.527    98743842.3104   24114254.375  
                
  21516247.938   115137801.289                    89551616.440    21516252.113  
  21516246.207  
  23852756.656   125347095.708    23852766.766    97673109.4264   23852766.547  
                
  21952926.203   115363454.132    21952933.082    89893662.3364   21952933.238  
                
  21711609.727   114095305.123    21711620.523    88905472.0274   21711620.129  
                
  23060506.617   123358144.283                                                  
  23060505.062  
  20813976.039   109378215.268    20813980.352    85229809.4374                 
                
  24219827.016   127276050.692    24219833.547    99176162.4254                 
                
  23211031.273   121974793.723    23211038.840    95045323.6874                 
                
  21206326.672   113558942.628                    88323634.364    21206329.848  
  21206326.035  
  21111197.828   112534575.438                                                  
  21111196.844  
  20266531.703   106501370.285    20266540.469    82988136.3294   20266540.867  
                
  22593308.711   120562220.904                    93770616.305    22593312.660  
  22593306.633  
 21  8 16 14 30 30.0000000  0 17G 4G17R 1R24G26R17G 9G31G 1R23G22G19
                                G21R 8R10G 3R 2
  21136555.430   111073390.660    21136563.512    86550743.3974   21136563.273  
                
  24593054.172   129237357.446    24593062.773   100704461.3144   24593062.695  
                
  19655287.219   105068808.343                    81720188.324    19655292.672  
  19655286.629  
  21075823.516   112701925.709                    87657048.767    21075829.035  
  21075822.844  
  24109593.711   126696812.055    24109605.488    98724805.2684   24109605.320  
                
  21513908.117   115125280.459                    89541878.019    21513912.309  
  21513906.367  
  23847083.898   125317284.594    23847093.906    97649879.9984   23847093.676  
                
  21956981.266   115384763.608    21956988.125    89910267.1224   21956988.277  
                
  21717303.789   114125227.616    21717314.574    88928788.2434   21717314.188  
                
  23068775.141   123402375.254                                                  
  23068773.578  
  20815953.344   109388606.096    20815957.680    85237906.1814                 
                
  24221918.688   127287042.431    24221925.164    99184727.4294                 
                
  23216776.383   122004984.785    23216784.012    95068849.1754                 
                
  21210457.055   113581060.672                    88340837.257    21210460.227  
  21210456.379  
  21111892.359   112538277.724                                                  
  21111891.363  
  20266123.078   106499222.949    20266131.883    82986463.0774   20266132.258  
                
  22587985.766   120533816.730                    93748524.207    22587989.754  
  22587983.676  
 21  8 16 14 30 40.0000000  0 17G 4G17R 1R24G26R17G 9G31G 1R23G22G19
                                G21R 8R10G 3R 2
  21133408.734   111056854.656    21133416.855    86537858.2024   21133416.602  
                
  24596614.469   129256066.337    24596623.023   100719039.6604   24596622.969  
                
  19654841.617   105066426.388                    81718335.687    19654847.090  
  19654841.016  
  21080661.367   112727795.808                    87677169.925    21080666.898  
  21080660.699  
  24104950.086   126672409.792    24104961.848    98705790.5134   24104961.707  
                
  21511584.922   115112848.594                    89532208.782    21511589.113  
  21511583.156  
  23841414.242   125287490.250    23841424.207    97626663.6354   23841424.004  
                
  21961047.109   115406129.801    21961053.941    89926916.0974   21961054.102  
                
  21723005.797   114155191.840    21723016.590    88952136.9764   21723016.195  
                
  23077046.219   123446619.265                                                  
  23077044.543  
  20817938.781   109399039.581    20817943.145    85246036.1694                 
                
  24224021.617   127298093.396    24224028.059    99193338.5754                 
                
  23222525.609   122035197.321    23222533.234    95092391.4124                 
                
  21214591.461   113603200.191                    88358056.877    21214594.633  
  21214590.773  
  21112604.109   112542071.820                                                  
  21112603.113  
  20265723.039   106497120.759    20265731.887    82984825.0064   20265732.234  
                
  22582664.656   120505422.407                    93726439.742    22582668.668  
  22582662.555  
 21  8 16 14 30 50.0000000  0 17G 4G17R 1R24G26R17G 9G31G 1R23G22G19
                                G21R 8R10G 3R 2
  21130268.773   111040354.056    21130276.938    86525000.6024   21130276.664  
                
  24600181.195   129274809.081    24600189.754   100733644.3924   24600189.676  
                
  19654402.328   105064078.163                    81716509.292    19654407.805  
  19654401.719  
  21085512.242   112753735.543                    87697345.281    21085517.766  
  21085511.594  
  24100311.812   126648035.516    24100323.547    98686797.5844   24100323.406  
                
  21509278.203   115100504.870                    89522608.113    21509282.387  
  21509276.445  
  23835747.602   125257711.827    23835757.531    97603459.6814   23835757.359  
                
  21965123.578   115427551.812    21965130.371    89943608.5724   21965130.535  
                
  21728715.562   114185196.900    21728726.355    88975517.5254   21728725.988  
                
  23085319.492   123490875.389                                                  
  23085317.750  
  20819932.164   109409514.859    20819936.562    85254198.7234                 
                
  24226135.641   127309202.736    24226142.094    99201995.1804                 
                
  23228278.680   122065430.429    23228286.305    95115949.6744                 
                
  21218729.672   113625360.094                    88375292.350    21218732.840  
  21218729.000  
  21113332.859   112545956.473                                                  
  21113331.832  
  20265331.453   106495062.939    20265340.344    82983221.5114   20265340.672  
                
  22577345.164   120477036.646                    93704361.977    22577349.191  
  22577343.035  
 21  8 16 14 31  0.0000000  0 17G 4G17R 1R24G26R17G 9G31G 1R23G22G19
                                G21R 8R10G 3R 2
  21127135.641   111023889.382    21127143.824    86512170.9874   21127143.547  
                
  24603754.414   129293586.113    24603763.008   100748275.8214   24603762.879  
                
  19653969.500   105061764.480                    81714709.752    19653974.980  
  19653968.879  
  21090376.219   112779745.386                    87717575.147    21090381.754  
  21090375.539  
  24095679.016   126623689.860    24095690.711    98667826.9224   24095690.555  
                
  21506988.031   115088249.754                    89513076.335    21506992.207  
  21506986.270  
  23830084.109   125227949.881    23830093.992    97580268.5734   23830093.809  
                
  21969210.742   115449030.033    21969217.480    89960344.8424   21969217.672  
                
  21734433.172   114215243.175    21734443.969    88998930.1954   21734443.621  
                
  23093595.172   123535144.064                                                  
  23093593.277  
  20821933.594   109420032.459    20821938.027    85262394.2464                 
                
  24228260.852   127320370.830    24228267.336    99210697.5494                 
                
  23234035.734   122095684.549    23234043.355    95139524.2884                 
                
  21222871.820   113647541.127                    88392544.256    21222875.008  
  21222871.129  
  21114078.742   112549932.564                                                  
  21114077.691  
  20264948.406   106493050.021    20264957.336    82981652.9984   20264957.633  
                
  22572027.438   120448660.255                    93682291.475    22572031.445  
  22572025.312  
 21  8 16 14 31 10.0000000  0 17G 4G17R 1R24G26R17G 9G31G 1R23G22G19
                                G21R 8R10G 3R 2
  21124009.391   111007460.850    21124017.578    86499369.5424   21124017.320  
                
  24607334.219   129312397.567    24607342.766   100762934.0784   24607342.605  
                
  19653543.156   105059485.435                    81712937.160    19653548.633  
  19653542.520  
  21095253.305   112805825.366                    87737859.548    21095258.855  
  21095252.586  
  24091051.688   126599373.079    24091063.363    98648878.8024   24091063.199  
                
  21504714.516   115076083.701                    89503613.859    21504718.672  
  21504712.742  
  23824423.891   125198204.673    23824433.637    97557090.5044   23824433.480  
                
  21973308.617   115470564.528    21973315.293    89977124.9574   21973315.512  
                
  21740158.664   114245330.794    21740169.500    89022375.0794   21740169.141  
                
  23101872.977   123579425.306                                                  
  23101871.184  
  20823943.133   109430592.623    20823947.594    85270622.9414                 
                
  24230397.281   127331597.793    24230403.812    99219445.8344                 
                
  23239796.898   122125959.888    23239804.523    95163115.4314                 
                
  21227017.914   113669743.279                    88409812.576    21227021.121  
  21227017.188  
  21114841.812   112554000.178                                                  
  21114840.746  
  20264573.953   106491082.268    20264582.914    82980119.6884   20264583.195  
                
  22566711.531   120420293.515                    93660228.401    22566715.477  
  22566709.426  
 21  8 16 14 31 20.0000000  0 17G 4G17R 1R24G26R17G 9G31G 1R23G22G19
                                G21R 8R10G 3R 2
  21120889.953   110991068.114    21120898.141    86486595.9804   21120897.895  
                
  24610920.461   129331242.796    24610928.879   100777618.6654   24610928.719  
                
  19653123.227   105057240.688                    81711191.251    19653128.711  
  19653122.574  
  21100143.430   112831975.026                    87758198.154    21100148.988  
  21100142.727  
  24086429.820   126575084.999    24086441.496    98629953.0304   24086441.336  
                
  21502457.602   115064006.431                    89494220.428    21502461.750  
  21502455.859  
  23818766.773   125168475.843    23818776.414    97533925.2084   23818776.277  
                
  21977417.109   115492154.773    21977423.738    89993948.5374   21977423.980  
                
  21745891.938   114275459.311    21745902.816    89045851.8434   21745902.438  
                
  23110152.945   123623718.498                                                  
  23110151.379  
  20825960.695   109441194.994    20825965.180    85278884.5274                 
                
  24232544.836   127342883.197    24232551.375    99228239.6444                 
                
  23245562.109   122156255.929    23245569.656    95186722.7134                 
                
  21231167.930   113691966.436                    88427097.231    21231171.184  
  21231167.176  
  21115622.008   112558159.102                                                  
  21115620.941  
  20264208.031   106489159.342    20264217.008    82978621.3014   20264217.285  
                
  22561397.391   120391936.142                    93638172.676    22561401.316  
  22561395.316  
 21  8 16 14 31 30.0000000  0 17G 4G17R 1R24G26R17G 9G31G 1R23G22G19
                                G21R 8R10G 3R 2
  21117777.422   110974711.647    21117785.629    86473850.6904   21117785.355  
                
  24614513.211   129350122.274    24614521.473   100792329.9314   24614521.316  
                
  19652709.820   105055030.784                    81709472.436    19652715.285  
  19652709.148  
  21105046.672   112858194.712                    87778591.249    21105052.238  
  21105046.008  
  24081813.523   126550826.164    24081825.168    98611050.0594   24081825.031  
                
  21500217.352   115052018.378                    89484896.394    21500221.477  
  21500215.645  
  23813112.742   125138763.887    23813122.387    97510773.0604   23813122.289  
                
  21981536.312   115513801.306    21981542.910    90010815.9644   21981543.160  
                
  21751633.070   114305629.080    21751643.980    89069360.7404   21751643.613  
                
  23118435.609   123668024.167                                                  
  23118433.945  
  20827986.398   109451840.085    20827990.887    85287179.3954                 
                
  24234703.594   127354227.490    24234710.098    99237079.3504                 
                
  23251331.438   122186573.155    23251338.820    95210346.5194                 
                
  21235321.930   113714210.849                    88444398.417    21235325.215  
  21235321.176  
  21116419.367   112562409.488                                                  
  21116418.301  
  20263850.742   106487281.742    20263859.727    82977158.2364   20263860.004  
                
  22556085.047   120363588.434                    93616124.478    22556088.961  
  22556082.996  
 21  8 16 14 31 40.0000000  0 17G 4G17R 1R24G26R17G 9G31G 1R23G22G19
                                G21R 8R10G 3R 2
  21114671.836   110958391.678    21114680.055    86461133.8334   21114679.781  
                
  24618112.445   129369036.117    24618120.574   100807067.9674   24618120.438  
                
  19652302.961   105052855.879                    81707780.854    19652308.449  
  19652302.285  
  21109962.984   112884484.368                    87799038.751    21109968.566  
  21109962.359  
  24077202.852   126526596.936    24077214.465    98592170.1514   24077214.352  
                
  21497993.812   115040119.728                    89475641.879    21497997.934  
  21497992.105  
  23807461.953   125109069.058    23807471.578    97487634.2364   23807471.531  
                
  21985666.242   115535504.194    21985672.828    90027727.3124   21985673.098  
                
  21757382.070   114335840.233    21757393.020    89092901.8844   21757392.637  
                
  23126720.461   123712342.224                                                  
  23126718.770  
  20830020.250   109462528.031    20830024.734    85295507.6604                 
                
  24236873.578   127365630.755    24236880.047    99245965.0454                 
                
  23257104.859   122216911.679    23257112.047    95233986.9264                 
                
  21239479.930   113736476.730                    88461716.322    21239483.254  
  21239479.211  
  21117233.977   112566751.796                                                  
  21117232.910  
  20263502.125   106485449.721    20263511.113    82975730.6884   20263511.387  
                
  22550774.523   120335250.457                    93594083.839    22550778.441  
  22550772.465  
 21  8 16 14 31 50.0000000  0 17G 4G17R 1R24G26R17G 9G31G 1R23G22G19
                                G21R 8R10G 3R 2
  21111573.023   110942107.338    21111581.258    86448444.7444   21111580.965  
                
  24621718.023   129387983.410    24621726.043   100821832.0594   24621725.938  
                
  19651902.469   105050715.062                    81706115.769    19651907.945  
  19651901.789  
  21114892.203   112910843.125                    87819539.988    21114897.812  
  21114891.586  
  24072597.648   126502396.528    24072609.215    98573312.6964   24072609.109  
                
  21495786.836   115028309.788                    89466456.352    21495790.945  
  21495785.105  
  23801814.250   125079390.506    23801823.852    97464508.0984   23801823.859  
                
  21989806.719   115557262.507    21989813.309    90044681.8304   21989813.582  
                
  21763138.750   114366091.784    21763149.742    89116474.5044   21763149.355  
                
  23135007.320   123756671.624                                                  
  23135005.707  
  20832062.086   109473257.964    20832066.566    85303868.6464                 
                
  24239054.594   127377092.044    24239061.008    99254895.9054                 
                
  23262882.078   122247270.418    23262889.152    95257643.0704                 
                
  21243641.781   113758763.227                    88479050.253    21243645.129  
  21243641.059  
  21118065.648   112571185.119                                                  
  21118064.605  
  20263162.016   106483662.457    20263171.004    82974338.0094   20263171.285  
                
  22545465.734   120306921.727                    93572050.377    22545469.660  
  22545463.641  
 21  8 16 14 32  0.0000000  0 17G 4G17R 1R24G26R17G 9G31G 1R23G22G19
                                G21R 8R10G 3R 2
  21108481.047   110925858.911    21108489.281    86435783.6404   21108488.980  
                
  24625330.062   129406964.316    24625337.922   100836622.3644   24625337.859  
                
  19651508.430   105048608.718                    81704477.500    19651513.914  
  19651507.758  
  21119834.344   112937270.885                    87840094.892    21119839.957  
  21119833.711  
  24067998.008   126478225.361    24068009.543    98554478.0294   24068009.438  
                
  21493596.523   115016588.938                    89457340.146    21493600.641  
  21493594.801  
  23796169.688   125049728.512    23796179.293    97441394.8754   23796179.352  
                
  21993957.781   115579076.458    21993964.395    90061679.7094   21993964.660  
                
  21768903.156   114396383.945    21768914.211    89140078.7654   21768913.801  
                
  23143296.477   123801012.528                                                  
  23143294.852  
  20834111.969   109484030.134    20834116.445    85312262.5314                 
                
  24241246.703   127388611.599    24241253.117    99263872.1934                 
                
  23268663.180   122277649.650    23268670.195    95281315.2004                 
                
  21247807.555   113781070.702                    88496400.494    21247810.930  
  21247806.848  
  21118914.414   112575709.477                                                  
  21118913.398  
  20262830.484   106481920.250    20262839.469    82972980.4414   20262839.750  
                
  22540158.578   120278601.901                    93550023.889    22540162.551  
  22540156.469  
 21  8 16 14 32 10.0000000  0 17G 4G17R 1R24G26R17G 9G31G 1R23G22G19
                                G21R 8R10G 3R 2
  21105395.938   110909646.552    21105404.152    86423150.6374   21105403.863  
                
  24628948.414   129425978.920    24628956.227   100851438.9224   24628956.207  
                
  19651120.867   105046536.981                    81702866.142    19651126.328  
  19651120.195  
  21124789.445   112963767.933                    87860703.698    21124795.055  
  21124788.844  
  24063404.000   126454083.682    24063415.457    98535666.3244   24063415.387  
                
  21491422.867   115004957.306                    89448293.314    21491426.992  
  21491421.145  
  23790528.352   125020083.266    23790537.949    97418294.6994   23790538.016  
                
  21998119.430   115600946.045    21998126.055    90078720.9414   21998126.316  
                
  21774675.305   114426716.708    21774686.430    89163714.6694   21774685.965  
                
  23151587.789   123845364.841                                                  
  23151586.105  
  20836169.930   109494844.788    20836174.398    85320689.5304                 
                
  24243449.906   127400189.473    24243456.309    99272893.8954                 
                
  23274448.125   122308049.430    23274455.129    95305003.3114                 
                
  21251977.258   113803399.232                    88513767.115    21251980.625  
  21251976.570  
  21119780.289   112580325.124                                                  
  21119779.266  
  20262507.562   106480223.283    20262516.539    82971658.1314   20262516.832  
                
  22534853.281   120250291.866                    93528005.006    22534857.277  
  22534851.180  
 21  8 16 14 32 20.0000000  0 17G 4G17R 1R24G26R17G 9G31G 1R23G22G19
                                G21R 8R10G 3R 2
  21102317.688   110893470.238    21102325.863    86410545.7184   21102325.594  
                
  24632573.062   129445027.169    24632580.961   100866281.7074   24632580.977  
                
  19650739.781   105044499.863                    81701281.716    19650745.234  
  19650739.113  
  21129757.438   112990333.899                    87881366.095    21129763.039  
  21129756.848  
  24058815.602   126429971.587    24058827.047    98516877.6894   24058826.984  
                
  21489265.883   114993414.891                    89439315.881    21489270.004  
  21489264.176  
  23784890.203   124990454.755    23784899.816    97395207.5754   23784899.875  
                
  22002291.641   115622871.133    22002298.281    90095805.4194   22002298.539  
                
  21780455.164   114457089.980    21780466.312    89187382.1454   21780465.840  
                
  23159881.117   123889728.458                                                  
  23159879.469  
  20838235.977   109505701.917    20838240.449    85329149.6254                 
                
  24245664.203   127411825.573    24245670.578    99281960.9764                 
                
  23280237.000   122338469.684    23280244.000    95328707.3854                 
                
  21256150.883   113825748.753                    88531150.080    21256154.258  
  21256150.207  
  21120663.344   112585032.305                                                  
  21120662.324  
  20262193.250   106478571.569    20262202.219    82970371.0724   20262202.527  
                
  22529549.773   120221991.356                    93505993.463    22529553.770  
  22529547.703  
 21  8 16 14 32 30.0000000  0 17G 4G17R 1R24G26R17G 9G31G 1R23G22G19
                                G21R 8R10G 3R 2
  21099246.312   110877330.059    21099254.449    86397968.9534   21099254.191  
                
  24636204.102   129464108.788    24636212.082   100881150.4704   24636212.137  
                
  19650365.172   105042497.364                    81699724.219    19650370.617  
  19650364.500  
  21134738.312   113016968.798                    87902082.114    21134743.914  
  21134737.730  
  24054232.883   126405889.235    24054244.324    98498112.2334   24054244.262  
                
  21487125.625   114981961.957                    89430408.045    21487129.758  
  21487123.875  
  23779255.312   124960843.094    23779264.898    97372133.5724   23779264.938  
                
  22006474.406   115644851.683    22006481.062    90112933.1164   22006481.316  
                
  21786242.727   114487503.738    21786253.848    89211081.1684   21786253.414  
                
  23168176.625   123934103.146                                                  
  23168174.930  
  20840310.117   109516601.545    20840314.605    85337642.8384                 
                
  24247889.578   127423519.925    24247895.969    99291073.4294                 
                
  23286029.672   122368910.283    23286036.762    95352427.3284                 
                
  21260328.469   113848119.440                    88548549.492    21260331.863  
  21260327.801  
  21121563.508   112589830.697                                                  
  21121562.480  
  20261887.562   106476965.180    20261896.527    82969119.3454   20261896.836  
                
  22524248.047   120193700.361                    93483989.413    22524252.043  
  22524245.980  
 21  8 16 14 32 40.0000000  0 17G 4G17R 1R24G26R17G 9G31G 1R23G22G19
                                G21R 8R10G 3R 2
  21096181.781   110861225.871    21096189.883    86385420.2334   21096189.641  
                
  24639841.508   129483223.574    24639849.535   100896045.1074   24639849.570  
                
  19649996.992   105040529.276                    81698193.486    19650002.422  
  19649996.312  
  21139732.008   113043672.287                    87922851.494    21139737.586  
  21139731.430  
  24049655.812   126381836.618    24049667.250    98479369.9464   24049667.184  
                
  21485002.039   114970598.240                    89421569.621    21485006.195  
  21485000.254  
  23773623.523   124931248.150    23773633.125    97349072.5874   23773633.125  
                
  22010667.688   115666887.484    22010674.363    90130103.8694   22010674.617  
                
  21792037.945   114517957.750    21792049.027    89234811.5544   21792048.617  
                
  23176474.062   123978488.740                                                  
  23176472.395  
  20842392.320   109527543.581    20842396.820    85346169.1054                 
                
  24250126.000   127435272.294    24250132.441    99300231.1254                 
                
  23291826.125   122399371.029    23291833.332    95376162.9294                 
                
  21264509.922   113870510.881                    88565965.046    21264513.320  
  21264509.277  
  21122480.781   112594720.316                                                  
  21122479.750  
  20261590.484   106475404.030    20261599.449    82967902.8604   20261599.750  
                
  22518948.102   120165418.818                    93461992.672    22518952.105  
  22518946.039  
 21  8 16 14 32 50.0000000  0 17G 4G17R 1R24G26R17G 9G31G 1R23G22G19
                                G21R 8R10G 3R 2
  21093124.094   110845157.584    21093132.176    86372899.5014   21093131.941  
                
  24643485.164   129502371.475    24643493.328   100910965.5364   24643493.316  
                
  19649635.250   105038595.544                    81696689.464    19649640.652  
  19649634.582  
  21144738.508   113070444.252                    87943674.121    21144744.074  
  21144737.934  
  24045084.391   126357813.770    24045095.863    98460650.8574   24045095.777  
                
  21482895.148   114959323.828                    89412800.626    21482899.320  
  21482893.371  
  23767994.945   124901669.856    23768004.500    97326024.5694   23768004.477  
                
  22014871.469   115688978.431    22014878.137    90147317.5924   22014878.391  
                
  21797840.789   114548451.810    21797851.852    89258573.1464   21797851.426  
                
  23184773.461   124022885.023                                                  
  23184771.867  
  20844482.578   109538527.921    20844487.090    85354728.3274                 
                
  24252373.414   127447082.483    24252379.859    99309433.8894                 
                
  23297626.289   122429851.739    23297633.656    95399914.1214                 
                
  21268695.273   113892923.189                    88583396.826    21268698.684  
  21268694.625  
  21123415.125   112599700.889                                                  
  21123414.109  
  20261302.016   106473888.089    20261310.988    82966721.6054   20261311.289  
                
  22513649.984   120137147.039                    93440003.525    22513653.965  
  22513647.914  
 21  8 16 14 33  0.0000000  0 17G 4G17R 1R24G26R17G 9G31G 1R23G22G19
                                G21R 8R10G 3R 2
  21090073.281   110829125.446    21090081.352    86360406.9264   21090081.117  
                
  24647135.109   129521552.543    24647143.441   100925911.8134   24647143.410  
                
  19649280.023   105036696.652                    81695212.550    19649285.414  
  19649279.371  
  21149757.820   113097284.708                    87964550.018    21149763.395  
  21149757.262  
  24040518.672   126333820.990    24040530.145    98441955.1964   24040530.066  
                
  21480804.984   114948138.983                    89404101.293    21480809.164  
  21480803.207  
  23762369.633   124872108.457    23762379.133    97302989.7254   23762379.109  
                
  22019085.766   115711124.624    22019092.426    90164574.3674   22019092.688  
                
  21803651.273   114578986.021    21803662.320    89282366.0284   21803661.906  
                
  23193074.891   124067291.932                                                  
  23193073.305  
  20846580.914   109549554.733    20846585.441    85363320.6444                 
                
  24254631.875   127458950.681    24254638.289    99318681.8144                 
                
  23303430.297   122460352.617    23303437.770    95423680.9894                 
                
  21272884.539   113915356.415                    88600844.888    21272887.961  
  21272883.914  
  21124366.562   112604772.609                                                  
  21124365.562  
  20261022.188   106472417.551    20261031.168    82965575.7294   20261031.473  
                
  22508353.609   120108884.607                    93418021.632    22508357.559  
  22508351.520  
 21  8 16 14 33 10.0000000  0 17G 4G17R 1R24G26R17G 9G31G 1R23G22G19
                                G21R 8R10G 3R 2
  21087029.375   110813129.624    21087037.438    86347942.6534   21087037.195  
                
  24650791.453   129540766.886    24650799.914   100940884.0214   24650799.840  
                
  19648931.289   105034832.458                    81693762.621    19648936.656  
  19648930.652  
  21154789.930   113124193.624                    87985479.172    21154795.504  
  21154789.375  
  24035958.734   126309858.583    24035970.215    98423283.1994   24035970.164  
                
  21478731.602   114937043.886                    89395471.771    21478735.773  
  21478729.844  
  23756747.594   124842564.180    23756757.039    97279968.2164   23756756.969  
                
  22023310.578   115733326.152    22023317.246    90181874.2524   22023317.523  
                
  21809469.406   114609560.494    21809480.395    89306190.2814   21809480.008  
                
  23201378.344   124111709.559                                                  
  23201376.711  
  20848687.383   109560624.285    20848691.914    85371946.2584                 
                
  24256901.391   127470876.984    24256907.770    99327975.0244                 
                
  23309238.203   122490873.759    23309245.699    95447463.6774                 
                
  21277077.766   113937810.939                    88618309.489    21277081.199  
  21277077.145  
  21125335.227   112609936.124                                                  
  21125334.242  
  20260751.039   106470992.679    20260760.035    82964465.4354   20260760.320  
                
  22503059.094   120080632.236                    93396047.566    22503063.059  
  22503056.984  
 21  8 16 14 33 20.0000000  0 17G 4G17R 1R24G26R17G 9G31G 1R23G22G19
                                G21R 8R10G 3R 2
  21083992.320   110797169.782    21084000.359    86335506.4144   21084000.121  
                
  24654454.133   129560014.067    24654462.652   100955881.8234   24654462.539  
                
  19648589.016   105033002.810                    81692339.572    19648594.367  
  19648588.391  
  21159834.766   113151170.580                    88006461.235    21159840.328  
  21159834.199  
  24031404.555   126285926.348    24031416.113    98404634.7224   24031416.059  
                
  21476674.945   114926038.260                    89386911.844    21476679.102  
  21476673.172  
  23751128.781   124813036.684    23751138.180    97256959.7914   23751138.043  
                
  22027545.828   115755582.498    22027552.520    90199216.8594   22027552.793  
                
  21815295.117   114640174.766    21815306.062    89330045.5584   21815305.719  
                
  23209683.641   124156137.358                                                  
  23209681.992  
  20850801.898   109571736.139    20850806.430    85380604.8364                 
                
  24259181.875   127482860.892    24259188.277    99337313.1444                 
                
  23315049.914   122521414.687    23315057.402    95471261.7924                 
                
  21281274.875   113960286.153                    88635790.193    21281278.293  
  21281274.246  
  21126320.938   112615190.552                                                  
  21126319.957  
  20260488.523   106469613.134    20260497.535    82963390.4684   20260497.816  
                
  22497766.289   120052388.988                    93374080.616    22497770.285  
  22497764.148  
 21  8 16 14 33 30.0000000  0 17G 4G17R 1R24G26R17G 9G31G 1R23G22G19
                                G21R 8R10G 3R 2
  21080962.055   110781245.639    21080970.055    86323097.9904   21080969.828  
                
  24658123.047   129579293.712    24658131.543   100970904.9144   24658131.383  
                
  19648253.141   105031207.387                    81690943.124    19648258.477  
  19648252.523  
  21164892.250   113178215.207                    88027495.936    21164897.824  
  21164891.680  
  24026856.078   126262024.109    24026867.699    98386009.5954   24026867.625  
                
  21474634.977   114915122.024                    89378421.435    21474639.133  
  21474633.172  
  23745513.094   124783525.706    23745522.461    97233964.2274   23745522.293  
                
  22031791.445   115777893.373    22031798.164    90216601.9514   22031798.430  
                
  21821128.328   114670828.461    21821139.289    89353931.5434   21821138.938  
                
  23217990.773   124200574.943                                                  
  23217989.125  
  20852924.406   109582890.002    20852928.938    85389296.1454                 
                
  24261473.273   127494902.132    24261479.684    99346695.9354                 
                
  23320865.383   122551975.139    23320872.797    95495075.1254                 
                
  21285475.797   113982781.879                    88653286.863    21285479.211  
  21285475.164  
  21127323.648   112620535.560                                                  
  21127322.652  
  20260234.586   106468278.675    20260243.613    82962350.6304   20260243.883  
                
  22492475.258   120024155.161                    93352120.985    22492479.254  
  22492473.129  
 21  8 16 14 33 40.0000000  0 17G 4G17R 1R24G26R17G 9G31G 1R23G22G19
                                G21R 8R10G 3R 2
  21077938.656   110765357.570    21077946.598    86310717.6764   21077946.391  
                
  24661798.172   129598606.112    24661806.652   100985953.5224   24661806.457  
                
  19647923.742   105029446.524                    81689573.561    19647929.074  
  19647923.137  
  21169962.391   113205327.487                    88048583.247    21169967.973  
  21169961.836  
  24022313.383   126238152.319    24022325.062    98367408.2054   24022324.980  
                
  21472611.766   114904295.431                    89370000.733    21472615.922  
  21472609.965  
  23739900.594   124754031.631    23739909.957    97210981.8494   23739909.777  
                
  22036047.500   115800259.022    22036054.238    90234029.7344   22036054.504  
                
  21826969.094   114701521.832    21826980.094    89377848.4364   21826979.719  
                
  23226299.727   124245022.397                                                  
  23226298.078  
  20855055.008   109594086.323    20855059.527    85398020.5424                 
                
  24263775.594   127507000.924    24263782.020    99356123.5604                 
                
  23326684.688   122582555.300    23326691.945    95518903.8164                 
                
  21289680.602   114005298.351                    88670799.652    21289684.004  
  21289679.980  
  21128343.477   112625971.850                                                  
  21128342.453  
  20259989.305   106466989.695    20259998.348    82961346.2294   20259998.605  
                
  22487186.023   119995930.938                    93330168.819    22487190.020  
  22487183.918  
 21  8 16 14 33 50.0000000  0 18G 4G17R 1R24G26R17G 9G31G 1R23G 6G22
                                G19G21R 8R10G 3R 2
  21074922.141   110749505.694    21074930.035    86298365.5594   21074929.848  
                
  24665479.391   129617951.249    24665487.949   101001027.6144   24665487.727  
                
  19647600.852   105027720.476                    81688231.075    19647606.176  
  19647600.242  
  21175045.242   113232507.698                    88069723.387    21175050.805  
  21175044.680  
  24017776.531   126214311.185    24017788.227    98348830.7104   24017788.152  
                
  21470605.336   114893558.631                    89361649.893    21470609.477  
  21470603.559  
  23734291.320   124724554.590    23734300.691    97188012.7464   23734300.465  
                
  22040313.969   115822679.489    22040320.723    90251500.2174   22040320.984  
                
  21832817.406   114732254.896    21832828.426    89401796.2664   21832828.043  
                
  23234610.648   124289479.754                                                  
  23234608.922  
  24707720.867   129839929.375    24707730.969   101174028.4154   24707731.332  
                
  20857193.688   109605325.169    20857198.188    85406778.0784                 
                
  24266088.891   127519157.357    24266095.316    99365596.0954                 
                
  23332507.703   122613155.168    23332514.895    95542747.8504                 
                
  21293889.344   114027835.895                    88688328.858    21293892.715  
  21293888.758  
  21129380.383   112631499.218                                                  
  21129379.355  
  20259752.703   106465746.317    20259761.766    82960377.3624   20259761.996  
                
  22481898.594   119967716.273                    93308224.095    22481902.609  
  22481896.508  
 21  8 16 14 34  0.0000000  0 18G 4G17R 1R24G26R17G 9G31G 1R23G 6G22
                                G19G21R 8R10G 3R 2
  21071912.492   110733689.907    21071920.379    86286041.5764   21071920.188  
                
  24669166.867   129637328.958    24669175.430   101016127.0834   24669175.203  
                
  19647284.422   105026028.999                    81686915.494    19647289.746  
  19647283.805  
  21180140.703   113259755.368                    88090916.015    21180146.266  
  21180140.160  
  24013245.531   126190500.787    24013257.270    98330277.1584   24013257.188  
                
  21468615.711   114882911.683                    89353368.935    21468619.836  
  21468613.945  
  23728685.250   124695094.514    23728694.652    97165056.8444   23728694.387  
                
  22044590.828   115845154.562    22044597.594    90269013.2624   22044597.840  
                
  21838673.242   114763027.472    21838684.234    89425774.8854   21838683.871  
                
  23242923.195   124333946.702                                                  
  23242921.559  
  24701646.016   129808005.464    24701656.070   101149152.6384   24701656.473  
                
  20859340.453   109616606.483    20859344.938    85415568.7084                 
                
  24268413.117   127531371.239    24268419.543    99375113.4014                 
                
  23338334.445   122643774.618    23338341.652    95566607.1544                 
                
  21298102.016   114050394.502                    88705874.427    21298105.367  
  21298101.430  
  21130434.391   112637117.703                                                  
  21130433.359  
  20259524.773   106464548.510    20259533.852    82959443.9994   20259534.070  
                
  22476613.016   119939511.485                    93286287.044    22476617.059  
  22476610.941  
 21  8 16 14 34 10.0000000  0 18G 4G17R 1R24G26R17G 9G31G 1R23G 6G22
                                G19G21R 8R10G 3R 2
  21068909.703   110717910.134    21068917.621    86273745.6574   21068917.398  
                
  24672860.516   129656739.029    24672869.051   101031251.7844   24672868.797  
                
  19646974.461   105024372.088                    81685626.783    19646979.789  
  19646973.852  
  21185248.734   113287070.276                    88112160.926    21185254.301  
  21185248.191  
  24008720.398   126166721.088    24008732.152    98311747.5284   24008732.066  
                
  21466642.844   114872354.430                    89345157.719    21466646.953  
  21466641.098  
  23723082.406   124665651.355    23723091.852    97142114.1444   23723091.570  
                
  22048878.047   115867684.069    22048884.797    90286568.7204   22048885.051  
                
  21844536.562   114793839.328    21844547.531    89449784.1184   21844547.184  
                
  23251237.523   124378423.042                                                  
  23251235.938  
  24695576.695   129776110.900    24695586.625   101124299.7374   24695587.117  
                
  20861495.273   109627930.110    20861499.734    85424392.3114                 
                
  24270748.242   127543642.435    24270754.645    99384675.3734                 
                
  23344164.812   122674413.431    23344172.074    95590481.5254                 
                
  21302318.555   114072973.749                    88723436.058    21302321.914  
  21302318.004  
  21131505.453   112642827.071                                                  
  21131504.426  
  20259305.500   106463396.204    20259314.594    82958546.0994   20259314.793  
                
  22471329.219   119911316.120                    93264357.343    22471333.250  
  22471327.152  
 21  8 16 14 34 20.0000000  0 18G 4G17R 1R24G26R17G 9G31G 1R23G 6G22
                                G19G21R 8R10G 3R 2
  21065913.781   110702166.463    21065921.734    86261477.8694   21065921.473  
                
  24676560.391   129676181.425    24676568.793   101046401.6914   24676568.543  
                
  19646670.992   105022749.828                    81684365.024    19646676.316  
  19646670.383  
  21190369.312   113314452.261                    88133458.016    21190374.883  
  21190368.758  
  24004201.133   126142972.288    24004212.934    98293241.9884   24004212.852  
                
  21464686.766   114861887.050                    89337016.423    21464690.863  
  21464685.008  
  23717482.766   124636225.204    23717492.312    97119184.6984   23717492.008  
                
  22053175.625   115890267.980    22053182.355    90304166.5654   22053182.625  
                
  21850407.352   114824690.457    21850418.352    89473823.9514   21850417.980  
                
  23259553.742   124422908.755                                                  
  23259552.117  
  24689513.055   129744245.865    24689522.910   101099469.8454   24689523.465  
                
  20863658.156   109639296.084    20863662.605    85433248.9194                 
                
  24273094.266   127555970.940    24273100.691    99394282.0004                 
                
  23349998.867   122705071.621    23350006.180    95614370.9914                 
                
  21306538.969   114095573.805                    88741013.860    21306542.355  
  21306538.402  
  21132593.594   112648627.505                                                  
  21132592.574  
  20259094.906   106462289.505    20259104.016    82957683.7364   20259104.211  
                
  22466047.180   119883130.134                    93242434.934    22466051.207  
  22466045.133  
 21  8 16 14 34 30.0000000  0 18G 4G17R 1R24G26R17G 9G31G 1R23G 6G22
                                G19G21R 8R10G 3R 2
  21062924.797   110686459.248    21062932.770    86249238.4844   21062932.477  
                
  24680266.312   129695656.403    24680274.719   101061576.9814   24680274.504  
                
  19646374.078   105021162.624                    81683130.534    19646379.402  
  19646373.480  
  21195502.523   113341901.796                    88154807.652    21195508.090  
  21195501.988  
  23999687.828   126119254.886    23999699.695    98274760.9114   23999699.617  
                
  21462747.578   114851510.006                    89328945.389    21462751.668  
  21462745.820  
  23711886.383   124606816.396    23711896.055    97096268.7624   23711895.734  
                
  22057483.602   115912906.585    22057490.340    90321807.0414   22057490.602  
                
  21856285.664   114855581.133    21856296.719    89497894.5914   21856296.332  
                
  23267871.789   124467403.920                                                  
  23267870.098  
  24683455.031   129712410.788    24683465.012   101074663.3264   24683465.512  
                
  20865829.172   109650704.816    20865833.621    85442138.8364                 
                
  24275451.242   127568357.022    24275457.711    99403933.4754                 
                
  23355836.617   122735749.494    23355844.039    95638275.8084                 
                
  21310763.305   114118194.974                    88758608.077    21310766.723  
  21310762.719  
  21133698.844   112654519.151                                                  
  21133697.805  
  20258893.055   106461228.780    20258902.176    82956857.1954   20258902.355  
                
  22460766.984   119854954.151                    93220520.281    22460771.020  
  22460764.934  
 21  8 16 14 34 40.0000000  0 18G 4G17R 1R24G26R17G 9G31G 1R23G 6G22
                                G19G21R 8R10G 3R 2
  21059942.734   110670788.416    21059950.699    86237027.4434   21059950.398  
                
  24683978.320   129715163.760    24683986.820   101076777.4744   24683986.633  
                
  19646083.672   105019610.240                    81681923.116    19646088.973  
  19646083.098  
  21200648.312   113369418.522                    88176209.522    21200653.879  
  21200647.773  
  23995180.484   126095568.860    23995192.418    98256304.3034   23995192.352  
                
  21460825.234   114841223.123                    89320944.487    21460829.312  
  21460823.465  
  23706293.320   124577424.916    23706303.055    97073366.3194   23706302.746  
                
  22061801.945   115935599.641    22061808.695    90339489.9344   22061808.949  
                
  21862171.461   114886511.141    21862182.562    89521995.8814   21862182.164  
                
  23276191.531   124511908.325                                                  
  23276189.781  
  24677402.750   129680605.712    24677412.770   101049880.1274   24677413.262  
                
  20868008.336   109662156.368    20868012.789    85451062.1164                 
                
  24277819.156   127580800.488    24277825.695    99413629.6564                 
                
  23361678.133   122766446.904    23361685.602    95662195.8364                 
                
  21314991.578   114140837.224                    88776218.711    21314995.031  
  21314990.973  
  21134821.211   112660502.068                                                  
  21134820.168  
  20258699.953   106460213.976    20258709.078    82956066.4384   20258709.258  
                
  22455488.711   119826788.359                    93198613.597    22455492.766  
  22455486.668  
 21  8 16 14 34 50.0000000  0 17G 4R 1R24G26R17G 9G31G 1R23G 6G22G19
                                G21R 8R10G 3R 2
  21056967.438   110655153.104    21056975.355    86224844.0804   21056975.078  
                
  19645799.625   105018091.824                    81680742.128    19645804.922  
  19645799.055  
  21205806.477   113397001.435                    88197662.884    21205812.039  
  21205805.938  
  23990678.992   126071913.530    23990690.988    98237871.5834   23990690.910  
                
  21458919.617   114831025.776                    89313013.199    21458923.699  
  21458917.840  
  23700703.336   124548049.933    23700713.168    97050476.7374   23700712.898  
                
  22066130.477   115958346.260    22066137.227    90357214.5604   22066137.488  
                
  21868064.562   114917479.571    21868075.711    89546127.1114   21868075.309  
                
  23284512.766   124556421.003                                                  
  23284510.977  
  24671356.047   129648829.880    24671366.098   101025119.7594   24671366.582  
                
  20870195.469   109673649.797    20870199.918    85460018.0334                 
                
  24280197.820   127593300.431    24280204.406    99423369.8584                 
                
  23367523.180   122797162.800    23367530.652    95686130.2904                 
                
  21319223.680   114163499.917                    88793845.237    21319227.156  
  21319223.047  
  21135960.531   112666575.295                                                  
  21135959.469  
  20258515.430   106459244.319    20258524.562    82955310.8614   20258524.734  
                
  22450212.156   119798631.632                    93176713.920    22450216.211  
  22450210.117  
 21  8 16 14 35  0.0000000  0 17G 4R 1R24G26R17G 9G31G 1R23G 6G22G19
                                G21R 8R10G 3R 2
  21053998.977   110639553.817    21054006.852    86212688.7964   21054006.617  
                
  19645522.039   105016608.002                    81679588.053    19645527.359  
  19645521.465  
  21210977.086   113424650.862                    88219167.974    21210982.629  
  21210976.551  
  23986183.430   126048289.446    23986195.555    98219463.2264   23986195.480  
                
  21457030.805   114820918.370                    89305151.895    21457034.895  
  21457029.027  
  23695116.656   124518691.942    23695126.535    97027600.4004   23695126.250  
                
  22070469.273   115981146.809    22070476.035    90374981.2174   22070476.328  
                
  21873965.039   114948486.768    21873976.242    89570288.5444   21873975.809  
                
  23292835.680   124600942.255                                                  
  23292833.801  
  24665315.031   129617083.890    24665325.066   101000382.6184   24665325.590  
                
  20872390.656   109685185.572    20872395.098    85469006.9304                 
                
  24282587.305   127605857.252    24282593.910    99433154.3944                 
                
  23373371.953   122827897.599    23373379.316    95710079.4714                 
                
  21323459.586   114186183.058                    88811487.647    21323463.086  
  21323458.930  
  21137116.891   112672739.399                                                  
  21137115.828  
  20258339.602   106458320.287    20258348.738    82954590.8374   20258348.906  
                
  22444937.367   119770484.387                    93154821.608    22444941.406  
  22444935.316  
 21  8 16 14 35 10.0000000  0 17G 4R 1R24G26R17G 9G31G 1R23G 6G22G19
                                G21R 8R10G 3R 2
  21051037.500   110623991.154    21051045.375    86200562.0544   21051045.141  
                
  19645251.070   105015159.513                    81678461.441    19645256.387  
  19645250.477  
  21216160.234   113452367.358                    88240725.237    21216165.758  
  21216159.730  
  23981693.938   126024697.342    23981706.184    98201079.7734   23981706.137  
                
  21455158.938   114810901.601                    89297361.074    21455163.047  
  21455157.172  
  23689533.281   124489351.564    23689543.273    97004737.7904   23689542.961  
                
  22074818.445   116004001.846    22074825.227    90392790.3294   22074825.516  
                
  21879873.000   114979533.242    21879884.230    89594480.5884   21879883.789  
                
  23301160.289   124645472.409                                                  
  23301158.312  
  24659279.805   129585368.417    24659289.863   100975669.2834   24659290.395  
                
  20874594.008   109696764.225    20874598.430    85478029.2534                 
                
  24284987.742   127618471.532    24284994.344    99442983.6854                 
                
  23379224.359   122858651.852    23379231.668    95734043.8094                 
                
  21327699.484   114208887.485                    88829146.633    21327702.992  
  21327698.816  
  21138290.375   112678994.738                                                  
  21138289.297  
  20258172.570   106457442.527    20258181.711    82953906.8684   20258181.883  
                
  22439664.508   119742347.420                    93132937.301    22439668.535  
  22439662.465  
 21  8 16 14 35 20.0000000  0 17G 4R 1R24G26R17G 9G31G 1R23G 6G22G19
                                G21R 8R10G 3R 2
  21048082.836   110608464.304    21048090.750    86188463.2164   21048090.492  
                
  19644986.523   105013745.377                    81677361.571    19644991.844  
  19644985.914  
  21221355.695   113480149.715                    88262333.728    21221361.207  
  21221355.195  
  23977210.344   126001136.478    23977222.707    98182720.7074   23977222.664  
                
  21453303.844   114800974.659                    89289640.099    21453307.945  
  21453302.086  
  23683953.109   124460028.006    23683963.195    96981888.2824   23683962.879  
                
  22079177.797   116026910.396    22079184.586    90410641.1424   22079184.871  
                
  21885788.250   115010618.067    21885799.465    89618702.5214   21885799.043  
                
  23309486.430   124690010.614                                                  
  23309484.312  
