     2.11           OBSERVATION DATA    M (MIXED)           RINEX VERSION / TYPE
EFT-CORS.RU                             20210817 150618 UTC PGM / RUN BY / DATE 
MDNG                                                        MARKER NAME         
                                                            MARKER NUMBER       
MDNG                EFT-CORS.RU                             OBSERVER / AGENCY   
0                   TRIMBLE BD970       2.0                 REC # / TYPE / VERS 
0                   UNKNOWN EXT NONE                        ANT # / TYPE        
  3463911.2830  3030468.2400  4402179.3760                  APPROX POSITION XYZ 
        0.0000        0.0000        0.0000                  ANTENNA: DELTA H/E/N
     1     1                                                WAVELENGTH FACT L1/2
     6    C1    L1    P2    L2    C2    P1                  # / TYPES OF OBSERV 
    10.000                                                  INTERVAL            
  2021     8    14    10    30    0.0000000     GPS         TIME OF FIRST OBS   
  2021     8    14    11    30    0.0000000     GPS         TIME OF LAST OBS    
     0                                                      RCV CLOCK OFFS APPL 
                                                            END OF HEADER       
 21  8 14 10 30  0.0000000  0 13R 4G 8G21G27G22G32G10G23R 6R21R20R 5
                                R19
  20593076.195   110275036.206                    85769474.206    20593079.125  
  20593075.145  
  21238605.648   111609639.790    21238615.125    86968594.1034   21238615.551  
                
  23040759.656   121080007.580    23040766.051    94348112.7074                 
                
  21303638.680   111951390.618    21303647.328    87234884.8074   21303647.438  
                
  24684334.180   129717047.484    24684340.680   101078246.0744                 
                
  21071067.992   110729253.862    21071076.805    86282590.1084   21071077.113  
                
  21028565.000   110505891.407    21028574.066    86108550.0624   21028573.543  
                
  23170892.117   121763871.825    23170900.473    94880987.8454   23170900.449  
                
  22964565.453   122543310.378                                                  
  22964562.773  
  23090067.727   123559619.526                    96101919.706    23090071.578  
  23090065.742  
  19321756.438   103322107.696                    80361699.548    19321762.891  
  19321755.660  
  19233374.852   102813442.722                    79966027.986    19233378.910  
  19233374.520  
  21154497.672   113162326.018                    88015169.231    21154501.977  
  21154496.215  
 21  8 14 10 30 10.0000000  0 13R 4G 8G21G27G22G32G10G23R 6R21R20R 5
                                R19
  20598650.000   110304883.713                    85792688.933    20598652.949  
  20598648.934  
  21238467.453   111608913.594    21238476.961    86968028.2334   21238477.367  
                
  23036218.953   121056146.085    23036225.355    94329519.3504                 
                
  21307634.156   111972386.937    21307642.836    87251245.5704   21307642.938  
                
  24678650.453   129687179.387    24678656.957   101054972.2584                 
                
  21068022.047   110713247.386    21068030.875    86270117.5464   21068031.188  
                
  21031491.367   110521269.565    21031500.449    86120533.0444   21031499.918  
                
  23176497.211   121793326.593    23176505.559    94903939.6084   23176505.480  
                
  22957142.070   122503698.192                                                  
  22957139.391  
  23082509.055   123519171.578                    96070460.223    23082512.902  
  23082507.051  
  19319746.812   103311361.347                    80353341.274    19319753.270  
  19319746.016  
  19231847.086   102805275.996                    79959676.100    19231851.180  
  19231846.762  
  21160383.281   113193809.901                    88039656.668    21160387.559  
  21160381.879  
 21  8 14 10 30 20.0000000  0 13R 4G 8G21G27G22G32G10G23R 6R21R20R 5
                                R19
  20604231.969   110334774.963                    85815937.660    20604234.945  
  20604230.891  
  21238341.758   111608253.055    21238351.293    86967513.5234   21238351.668  
                
  23031680.430   121032295.997    23031686.750    94310934.8634                 
                
  21311640.031   111993437.936    21311648.730    87267648.9344   21311648.820  
                
  24672968.961   129657323.780    24672975.582   101031708.1484                 
                
  21064986.945   110697297.866    21064995.789    86257689.3464   21064996.098  
                
  21034423.383   110536677.463    21034432.484    86132539.1974   21034431.945  
                
  23182104.117   121822790.884    23182112.438    94926898.8034   23182112.336  
                
  22949723.516   122464111.622                                                  
  22949720.863  
  23074951.859   123478731.557                    96039006.898    23074955.723  
  23074949.820  
  19317749.781   103300682.400                    80345035.421    19317756.254  
  19317748.996  
  19230333.422   102797184.617                    79953382.812    19230337.531  
  19230333.109  
  21166278.117   113225343.064                    88064182.481    21166282.348  
  21166276.770  
 21  8 14 10 30 30.0000000  0 13R 4G 8G21G27G22G32G10G23R 6R21R20R 5
                                R19
  20609822.078   110364709.724                    85839220.249    20609825.051  
  20609821.008  
  21238228.539   111607658.057    21238238.090    86967049.8814   21238238.438  
                
  23027144.094   121008457.328    23027150.352    94292359.2844                 
                
  21315656.297   112014543.554    21315665.008    87284094.8644   21315665.094  
                
  24667289.891   129627480.789    24667296.617   101008453.9094                 
                
  21061962.695   110681405.352    21061971.551    86245305.5724   21061971.859  
                
  21037361.070   110552115.078    21037370.184    86144568.4914   21037369.633  
                
  23187712.828   121852264.715    23187721.113    94949865.4244   23187721.012  
                
  22942309.648   122424550.649                                                  
  22942307.164  
  23067396.172   123438299.511                    96007559.771    23067400.062  
  23067394.098  
  19315765.352   103290070.821                    80336781.973    19315771.836  
  19315764.551  
  19228833.898   102789168.740                    79947148.236    19228838.020  
  19228833.613  
  21172182.156   113256925.521                    88088746.604    21172186.379  
  21172180.836  
 21  8 14 10 30 40.0000000  0 13R 4G 8G21G27G22G32G10G23R 6R21R20R 5
                                R19
  20615420.469   110394688.771                    85862537.294    20615423.441  
  20615419.410  
  21238128.031   111607129.895    21238137.586    86966638.3214   21238137.934  
                
  23022610.109   120984631.074    23022616.367    94273793.3824                 
                
  21319683.125   112035704.672    21319691.836    87300584.0344   21319691.930  
                
  24661613.531   129597651.330    24661620.223   100985210.1954                 
                
  21058949.477   110665570.856    21058958.332    86232967.0094   21058958.641  
                
  21040304.578   110567583.292    21040313.711    86156621.6464   21040313.145  
                
  23193323.516   121881748.982    23193331.762    94972840.1574   23193331.676  
                
  22934901.000   122385016.662                                                  
  22934898.543  
  23059842.156   123397876.566                    95976119.720    23059846.059  
  23059840.074  
  19313793.758   103279527.777                    80328581.828    19313800.242  
  19313792.938  
  19227348.664   102781229.295                    79940973.122    19227352.801  
  19227348.406  
  21178095.602   113288558.318                    88113349.878    21178099.809  
  21178094.277  
 21  8 14 10 30 50.0000000  0 13R 4G 8G21G27G22G32G10G23R 6R21R20R 5
                                R19
  20621026.930   110424711.132                    85885888.009    20621029.906  
  20621025.859  
  21238040.023   111606667.416    21238049.562    86966277.9434   21238049.906  
                
  23018078.336   120960816.469    23018084.574    94255236.5524                 
                
  21323720.328   112056920.336    21323729.039    87317115.7154   21323729.145  
                
  24655939.586   129567834.559    24655946.207   100961976.3634                 
                
  21055947.141   110649793.526    21055955.980    86220672.9914   21055956.309  
                
  21043253.734   110583081.205    21043262.883    86168697.9364   21043262.305  
                
  23198936.000   121911242.747    23198944.246    94995822.2904   23198944.168  
                
  22927497.000   122345508.343                                                  
  22927494.680  
  23052289.656   123357461.836                    95944686.077    23052293.574  
  23052287.562  
  19311834.773   103269052.257                    80320434.200    19311841.270  
  19311833.961  
  19225877.570   102773365.493                    79934856.835    19225881.723  
  19225877.336  
  21184018.227   113320240.296                    88137991.395    21184022.414  
  21184016.910  
 21  8 14 10 31  0.0000000  0 13R 4G 8G21G27G22G32G10G23R 6R21R20R 5
                                R19
  20626641.484   110454776.774                    85909272.375    20626644.465  
  20626640.445  
  21237964.523   111606270.650    21237974.047    86965968.7684   21237974.402  
                
  23013548.781   120937013.537    23013555.020    94236688.8314                 
                
  21327767.883   112078190.373    21327776.602    87333689.7664   21327776.695  
                
  24650268.031   129538030.534    24650274.660   100938752.5024                 
                
  21052955.680   110634073.354    21052964.508    86208423.5124   21052964.848  
                
  21046208.516   110598608.678    21046217.676    86180797.2534   21046217.090  
                
  23204550.281   121940745.866    23204558.531    95018811.7284   23204558.441  
                
  22920097.797   122306025.854                                                  
  22920095.660  
  23044738.758   123317055.573                    95913258.989    23044742.680  
  23044736.699  
  19309888.461   103258644.479                    80312339.264    19309894.965  
  19309887.637  
  19224420.586   102765577.057                    79928799.162    19224424.746  
  19224420.375  
  21189950.023   113351971.260                    88162671.028    21189954.176  
  21189948.723  
 21  8 14 10 31 10.0000000  0 13R 4G 8G21G27G22G32G10G23R 6R21R20R 5
                                R19
  20632264.148   110484885.846                    85932690.543    20632267.125  
  20632263.133  
  21237901.602   111605939.978    21237911.109    86965711.1044   21237911.465  
                
  23009021.539   120913222.695    23009027.762    94218150.5094                 
                
  21331825.867   112099515.240    21331834.602    87350306.5374   21331834.680  
                
  24644599.016   129508239.685    24644605.645   100915538.8744                 
                
  21049975.211   110618410.913    21049984.027    86196219.0124   21049984.367  
                
  21049169.016   110614166.183    21049178.191    86192919.9854   21049177.590  
                
  23210166.430   121970258.850    23210174.672    95041808.8454   23210174.555  
                
  22912703.984   122266569.812                                                  
  22912701.598  
  23037189.523   123276658.256                    95881838.845    23037193.438  
  23037187.520  
  19307954.914   103248305.002                    80304297.444    19307961.434  
  19307954.062  
  19222977.789   102757864.474                    79922800.493    19222981.969  
  19222977.605  
  21195891.125   113383752.036                    88187389.389    21195895.277  
  21195889.789  
 21  8 14 10 31 20.0000000  0 13R 4G 8G21G27G22G32G10G23R 6R21R20R 5
                                R19
  20637894.961   110515038.516                    85956142.616    20637897.930  
  20637893.945  
  21237851.312   111605675.680    21237860.809    86965505.1584   21237861.164  
                
  23004496.641   120889444.170    23004502.871    94199621.7974                 
                
  21335894.305   112120895.033    21335903.059    87366966.1064   21335903.121  
                
  24638932.633   129478462.205    24638939.164   100892335.6764                 
                
  21047005.758   110602806.394    21047014.570    86184059.6574   21047014.926  
                
  21052135.258   110629753.854    21052144.434    86205066.2174   21052143.836  
                
  23215784.477   121999781.808    23215792.688    95064813.7274   23215792.566  
                
  22905315.086   122227140.652                                                  
  22905312.586  
  23029642.031   123236270.191                    95850425.916    23029645.953  
  23029640.043  
  19306034.195   103238034.081                    80296308.948    19306040.730  
  19306033.336  
  19221549.266   102750228.157                    79916861.139    19221553.441  
  19221549.109  
  21201841.516   113415582.514                    88212146.410    21201845.637  
  21201840.105  
 21  8 14 10 31 30.0000000  0 13R 4G 8G21G27G22G32G10G23R 6R21R20R 5
                                R19
  20643533.680   110545233.589                    85979627.666    20643536.660  
  20643532.668  
  21237813.492   111605476.940    21237822.973    86965350.2944   21237823.324  
                
  22999973.891   120865677.072    22999980.137    94181101.9864                 
                
  21339973.000   112142328.733    21339981.754    87383667.6824   21339981.812  
                
  24633268.602   129448697.245    24633275.055   100869142.2074                 
                
  21044047.164   110587258.929    21044055.965    86171944.7534   21044056.324  
                
  21055107.039   110645370.697    21055116.215    86217235.1794   21055115.609  
                
  23221404.234   122029313.764    23221412.449    95087825.6264   23221412.316  
                
  22897930.930   122187737.218                                                  
  22897928.402  
  23022096.055   123195890.416                    95819019.458    23022099.980  
  23022094.043  
  19304126.125   103227830.797                    80288373.053    19304132.672  
  19304125.273  
  19220134.789   102742666.954                    79910980.210    19220138.957  
  19220134.664  
  21207800.953   113447461.536                    88236941.200    21207805.043  
  21207799.500  
 21  8 14 10 31 40.0000000  0 13R 4G 8G21G27G22G32G10G23R 6R21R20R 5
                                R19
  20649180.398   110575471.470                    86003146.019    20649183.402  
  20649179.395  
  21237788.234   111605344.158    21237797.695    86965246.8294   21237798.062  
                
  22995453.406   120841921.852    22995459.641    94162591.4444                 
                
  21344062.039   112163816.751    21344070.809    87400411.5874   21344070.855  
                
  24627607.031   129418945.224    24627613.438   100845958.8434                 
                
  21041099.539   110571769.055    21041108.312    86159874.7244   21041108.680  
                
  21058084.469   110661017.133    21058093.633    86229427.2044   21058093.027  
                
  23227025.805   122058855.133    23227034.008    95110844.8504   23227033.875  
                
  22890551.883   122148360.250                                                  
  22890549.207  
  23014551.781   123155519.809                    95787620.138    23014555.770  
  23014549.762  
  19302230.828   103217695.779                    80280490.265    19302237.383  
  19302229.969  
  19218734.469   102735181.399                    79905158.111    19218738.637  
  19218734.352  
  21213769.602   113479389.750                    88261774.259    21213773.688  
  21213768.145  
 21  8 14 10 31 50.0000000  0 13R 4G 8G21G27G22G32G10G23R 6R21R20R 5
                                R19
  20654835.078   110605752.011                    86026697.547    20654838.113  
  20654834.098  
  21237775.500   111605277.250    21237784.938    86965194.6854   21237785.320  
                
  22990935.195   120818178.567    22990941.449    94144090.1944                 
                
  21348161.391   112185358.956    21348170.191    87417197.7144   21348170.219  
                
  24621947.867   129389206.130    24621954.250   100822785.5334                 
                
  21038162.875   110556336.767    21038171.609    86147849.5604   21038171.996  
                
  21061067.508   110676693.100    21061076.648    86241642.2384   21061076.043  
                
  23232649.141   122088405.827    23232657.355    95133871.3454   23232657.230  
                
  22883177.516   122109009.929                                                  
  22883174.898  
  23007009.203   123115158.216                    95756227.796    23007013.234  
  23007007.227  
  19300348.305   103207629.109                    80272660.630    19300354.867  
  19300347.461  
  19217348.266   102727771.340                    79899394.739    19217352.434  
  19217348.176  
  21219747.391   113511367.002                    88286645.451    21219751.508  
  21219745.906  
 21  8 14 10 32  0.0000000  0 13R 4G 8G21G27G22G32G10G23R 6R21R20R 5
                                R19
  20660497.867   110636075.969                    86050282.846    20660500.934  
  20660496.895  
  21237775.469   111605277.036    21237784.898    86965194.5164   21237785.301  
                
  22986419.422   120794448.131    22986425.711    94125598.9774                 
                
  21352271.195   112206956.136    21352280.027    87434026.6754   21352280.043  
                
  24616291.273   129359480.827    24616297.684   100799622.9794                 
                
  21035237.328   110540962.958    21035246.043    86135869.9734   21035246.441  
                
  21064056.320   110692399.396    21064065.434    86253880.9084   21064064.832  
                
  23238274.406   122117966.682    23238282.617    95156905.7424   23238282.488  
                
  22875808.273   122069687.121                                                  
  22875805.797  
  22999468.531   123074806.651                    95724843.248    22999472.555  
  22999466.602  
  19298478.711   103197631.602                    80264884.784    19298485.293  
  19298477.902  
  19215976.375   102720437.762                    79893690.837    19215980.527  
  19215976.309  
  21225734.500   113543394.007                    88311555.300    21225738.633  
  21225732.965  
 21  8 14 10 32 10.0000000  0 13R 4G 8G21G27G22G32G10G23R 6R21R20R 5
                                R19
  20666168.523   110666442.093                    86073900.929    20666171.621  
  20666167.551  
  21237787.922   111605342.490    21237797.363    86965245.5214   21237797.766  
                
  22981905.930   120770729.594    22981912.219    94107116.9944                 
                
  21356391.258   112228607.171    21356400.113    87450897.6044   21356400.117  
                
  24610637.164   129329768.315    24610643.551   100776470.3894                 
                
  21032322.734   110525646.655    21032331.441    86123935.1974   21032331.828  
                
  21067050.695   110708134.950    21067059.785    86266142.3754   21067059.184  
                
  23243901.398   122147536.605    23243909.590    95179947.2364   23243909.457  
                
  22868444.125   122030390.424                                                  
  22868441.586  
  22991929.578   123034464.239                    95693465.826    22991933.559  
  22991927.676  
  19296621.906   103187702.417                    80257162.083    19296628.477  
  19296621.105  
  19214618.555   102713179.411                    79888045.456    19214622.699  
  19214618.500  
  21231730.695   113575469.725                    88336503.073    21231734.844  
  21231729.148  
 21  8 14 10 32 20.0000000  0 13R 4G 8G21G27G22G32G10G23R 6R21R20R 5
                                R19
  20671847.125   110696850.653                    86097552.022    20671850.246  
  20671846.148  
  21237812.930   111605473.864    21237822.402    86965347.8904   21237822.797  
                
  22977394.758   120747023.207    22977401.039    94088644.4844                 
                
  21360521.617   112250312.294    21360530.500    87467810.6834   21360530.488  
                
  24604985.555   129300068.944    24604991.926   100753328.0334                 
                
  21029419.148   110510388.222    21029427.852    86112045.5114   21029428.238  
                
  21070050.695   110723899.998    21070059.754    86278426.8224   21070059.152  
                
  23249530.180   122177115.856    23249538.340    95202995.9884   23249538.246  
                
  22861085.055   121991120.779                                                  
  22861082.527  
  22984392.445   122994131.343                    95662095.814    22984396.406  
  22984390.566  
  19294777.953   103177841.945                    80249492.822    19294784.516  
  19294777.168  
  19213274.922   102705996.871                    79882459.055    19213279.066  
  19213274.883  
  21237736.055   113607594.351                    88361488.884    21237740.234  
  21237734.480  
 21  8 14 10 32 30.0000000  0 13R 4G 8G21G27G22G32G10G23R 6R21R20R 5
                                R19
  20677533.562   110727301.197                    86121235.775    20677536.688  
  20677532.562  
  21237850.469   111605671.155    21237859.988    86965501.6124   21237860.359  
                
  22972885.859   120723328.831    22972892.141    94070181.3404                 
                
  21364662.219   112272071.267    21364671.121    87484765.7204   21364671.086  
                
  24599336.461   129270382.519    24599342.801   100730195.7684                 
                
  21026526.555   110495187.521    21026535.246    86100200.8154   21026535.621  
                
  21073056.266   110739694.346    21073065.301    86290734.1074   21073064.707  
                
  23255160.680   122206704.236    23255168.879    95226051.8544   23255168.766  
                
  22853731.141   121951878.130                                                  
  22853728.461  
  22976857.070   122953807.950                    95630733.208    22976860.988  
  22976855.211  
  19292946.836   103168050.126                    80241876.963    19292953.410  
  19292946.051  
  19211945.375   102698889.691                    79876931.238    19211949.492  
  19211945.340  
  21243750.484   113639767.557                    88386512.459    21243754.703  
  21243748.879  
 21  8 14 10 32 40.0000000  0 13R 4G 8G21G27G22G32G10G23R 6R21R20R 5
                                R19
  20683227.883   110757793.997                    86144952.391    20683231.012  
  20683226.898  
  21237900.617   111605934.666    21237910.191    86965706.9404   21237910.535  
                
  22968379.312   120699646.829    22968385.605    94051727.8424                 
                
  21368813.086   112293884.238    21368821.984    87501762.8294   21368821.941  
                
  24593689.836   129240709.295    24593696.176   100707073.8064                 
                
  21023644.992   110480044.846    21023653.664    86088401.3274   21023654.035  
                
  21076067.438   110755518.187    21076076.441    86303064.3674   21076075.863  
                
  23260792.938   122236301.911    23260801.172    95249114.9574   23260801.031  
                
  22846382.188   121912662.440                                                  
  22846379.473  
  22969323.531   122913494.311                    95599378.149    22969327.355  
  22969321.668  
  19291128.609   103158327.251                    80234314.722    19291135.172  
  19291127.816  
  19210630.000   102691858.241                    79871462.333    19210634.117  
  19210629.973  
  21249774.039   113671989.484                    88411573.942    21249778.281  
  21249772.457  
 21  8 14 10 32 50.0000000  0 13R 4G 8G21G27G22G32G10G23R 6R21R20R 5
                                R19
  20688930.070   110788328.755                    86168701.645    20688933.191  
  20688929.109  
  21237963.344   111606264.269    21237972.973    86965963.7714   21237973.309  
                
  22963875.109   120675977.181    22963881.418    94033283.9724                 
                
  21372974.219   112315751.074    21372983.102    87518801.9224   21372983.051  
                
  24588045.742   129211049.255    24588052.066   100683962.1044                 
                
  21020774.492   110464960.188    21020783.156    86076647.0534   21020783.520  
                
  21079084.227   110771371.410    21079093.207    86315417.5254   21079092.641  
                
  23266426.961   122265908.826    23266435.180    95272185.2644   23266435.039  
                
  22839038.250   121873473.892                                                  
  22839035.551  
  22961791.852   122873190.624                    95568030.844    22961795.621  
  22961789.977  
  19289323.281   103148673.294                    80226806.091    19289329.844  
  19289322.500  
  19209328.773   102684902.399                    79866052.243    19209332.871  
  19209328.750  
  21255806.758   113704260.216                    88436673.401    21255810.980  
  21255805.215  
 21  8 14 10 33  0.0000000  0 13R 4G 8G21G27G22G32G10G23R 6R21R20R 5
                                R19
  20694640.055   110818905.404                    86192483.471    20694643.188  
  20694639.090  
  21238038.617   111606659.836    21238048.297    86966271.9974   21238048.609  
                
  22959373.258   120652319.863    22959379.574    94014849.7174                 
                
  21377145.578   112337671.695    21377154.441    87535882.9134   21377154.395  
                
  24582404.148   129181402.434    24582410.473   100660860.6964                 
                
  21017915.016   110449933.568    21017923.688    86064938.0004   21017924.055  
                
  21082106.578   110787253.955    21082115.535    86327793.5314   21082114.977  
                
  23272062.742   122295524.894    23272070.859    95295262.7154   23272070.746  
                
  22831699.336   121834312.550                                                  
  22831696.699  
  22954262.008   122832896.968                    95536691.348    22954265.789  
  22954260.105  
  19287530.859   103139088.446                    80219351.210    19287537.422  
  19287530.078  
  19208041.680   102678022.132                    79860700.921    19208045.758  
  19208041.668  
  21261848.508   113736579.472                    88461810.586    21261852.730  
  21261846.988  
 21  8 14 10 33 10.0000000  0 13R 4G 8G21G27G22G32G10G23R 6R21R20R 5
                                R19
  20700357.812   110849523.748                    86216297.738    20700360.980  
  20700356.844  
  21238126.477   111607121.511    21238136.199    86966631.7434   21238136.504  
                
  22954873.789   120628675.036    22954880.098    93996425.1844                 
                
  21381327.172   112359646.086    21381336.027    87553005.8094   21381335.977  
                
  24576765.039   129151768.905    24576771.398   100637769.6464                 
                
  21015066.625   110434965.145    21015075.316    86053274.3024   21015075.672  
                
  21085134.523   110803165.869    21085143.457    86340192.4254   21085142.906  
                
  23277700.281   122325150.166    23277708.332    95318347.3444   23277708.215  
                
  22824365.422   121795178.622                                                  
  22824362.980  
  22946734.039   122792613.416                    95505359.714    22946737.844  
  22946732.113  
  19285751.383   103129572.736                    80211950.108    19285757.941  
  19285750.629  
  19206768.742   102671217.542                    79855408.465    19206772.793  
  19206768.719  
  21267899.367   113768947.417                    88486985.623    21267903.621  
  21267897.824  
 21  8 14 10 33 20.0000000  0 13R 4G 8G21G27G22G32G10G23R 6R21R20R 5
                                R19
  20706083.367   110880183.765                    86240144.407    20706086.562  
  20706082.410  
  21238226.922   111607649.334    21238236.668    86967043.0244   21238236.965  
                
  22950376.695   120605042.668    22950382.969    93978010.3594                 
                
  21385518.969   112381674.113    21385527.809    87570170.4994   21385527.758  
                
  24571128.430   129122148.589    24571134.812   100614688.9144                 
                
  21012229.289   110420054.866    21012238.000    86041655.9084   21012238.336  
                
  21088168.023   110819107.019    21088176.926    86352614.1014   21088176.387  
                
  23283339.539   122354784.519    23283347.551    95341439.0374   23283347.422  
                
  22817036.969   121756072.102                                                  
  22817034.473  
  22939208.008   122752340.155                    95474036.086    22939211.816  
  22939206.043  
  19283984.844   103120126.300                    80204602.878    19283991.410  
  19283984.082  
  19205509.938   102664488.526                    79850174.784    19205513.957  
  19205509.910  
  21273959.281   113801363.834                    88512198.374    21273963.566  
  21273957.766  
 21  8 14 10 33 30.0000000  0 13R 4G 8G21G27G22G32G10G23R 6R21R20R 5
                                R19
  20711816.664   110910885.281                    86264023.360    20711819.883  
  20711815.742  
  21238339.945   111608243.221    21238349.699    86967505.7934   21238349.984  
                
  22945882.016   120581422.926    22945888.250    93959605.3514                 
                
  21389720.977   112403755.736    21389729.797    87587376.9524   21389729.750  
                
  24565494.312   129092541.572    24565500.777   100591618.5214                 
                
  21009403.047   110405202.842    21009411.785    86030082.9044   21009412.109  
                
  21091207.102   110835077.434    21091215.973    86365058.5714   21091215.449  
                
  23288980.531   122384427.970    23288988.480    95364537.8274   23288988.383  
                
  22809713.719   121716993.228                                                  
  22809711.129  
  22931683.859   122712077.184                    95442720.471    22931687.730  
  22931681.891  
  19282231.297   103110749.296                    80197309.638    19282237.863  
  19282230.523  
  19204265.266   102657835.006                    79844999.834    19204269.270  
  19204265.238  
  21280028.297   113833828.831                    88537448.927    21280032.574  
  21280026.805  
 21  8 14 10 33 40.0000000  0 13R 4G 8G21G27G22G32G10G23R 6R21R20R 5
                                R19
  20717557.688   110941628.216                    86287934.526    20717560.934  
  20717556.785  
  21238465.562   111608903.313    21238475.312    86968020.1504   21238475.613  
                
  22941389.719   120557815.739    22941395.965    93941210.1464                 
                
  21393933.156   112425890.904    21393941.957    87604625.1324   21393941.922  
                
  24559862.797   129062947.932    24559869.316   100568558.5524                 
                
  21006587.898   110390409.138    21006596.680    86018555.3524   21006596.980  
                
  21094251.734   110851077.073    21094260.582    86377525.8224   21094260.074  
                
  23294623.242   122414080.474    23294631.109    95387643.6664   23294631.051  
                
  22802395.297   121677941.674                                                  
  22802392.828  
  22924161.648   122671824.742                    95411413.057    22924165.613  
  22924159.715  
  19280490.727   103101441.742                    80190070.435    19280497.305  
  19280489.941  
  19203034.734   102651257.085                    79839883.667    19203038.719  
  19203034.703  
  21286106.359   113866342.293                    88562737.169    21286110.633  
  21286104.895  
 21  8 14 10 33 50.0000000  0 13R 4G 8G21G27G22G32G10G23R 6R21R20R 5
                                R19
  20723306.367   110972412.058                    86311877.509    20723309.609  
  20723305.465  
  21238603.664   111609629.027    21238613.402    86968585.6444   21238613.695  
                
  22936899.734   120534220.793    22936906.023    93922824.5084                 
                
  21398155.453   112448079.214    21398164.234    87621914.7144   21398164.211  
                
  24554233.812   129033367.295    24554240.328   100545508.7184                 
                
  21003783.781   110375673.441    21003792.598    86007072.9964   21003792.883  
                
  21097301.859   110867105.547    21097310.680    86390015.5374   21097310.191  
                
  23300267.602   122443741.673    23300275.441    95410756.2784   23300275.395  
                
  22795082.000   121638917.578                                                  
  22795079.703  
  22916641.391   122631582.556                    95380113.593    22916645.406  
  22916639.484  
  19278763.109   103092203.374                    80182885.046    19278769.699  
  19278762.344  
  19201818.273   102644754.440                    79834826.064    19201822.258  
  19201818.227  
  21292193.391   113898903.727                    88588062.721    21292197.699  
  21292191.887  
 21  8 14 10 34  0.0000000  0 13R 4G 8G21G27G22G32G10G23R 6R21R20R 5
                                R19
  20729062.742   111003237.111                    86335852.546    20729065.973  
  20729061.820  
  21238754.375   111610420.974    21238764.094    86969202.7454   21238764.395  
                
  22932412.195   120510638.631    22932418.477    93904448.8074                 
                
  21402387.930   112470320.977    21402396.688    87639245.9404   21402396.664  
                
  24548607.469   129003800.131    24548613.953   100522469.3924                 
                
  21000990.805   110360996.246    21000999.648    85995636.2254   21000999.906  
                
  21100357.531   110883163.231    21100366.336    86402528.0074   21100365.848  
                
  23305913.688   122473411.938    23305921.508    95433875.9584   23305921.461  
                
  22787774.344   121599921.530                                                  
  22787771.883  
  22909123.203   122591351.224                    95348822.575    22909127.203  
  22909121.312  
  19277048.523   103083034.682                    80175753.837    19277055.117  
  19277047.762  
  19200615.953   102638327.303                    79829827.179    19200619.918  
  19200615.914  
  21298289.414   113931513.266                    88613425.673    21298293.738  
  21298287.898  
 21  8 14 10 34 10.0000000  0 13R 4G 8G21G27G22G32G10G23R 6R21R20R 5
                                R19
  20734826.742   111034102.996                    86359859.336    20734829.965  
  20734825.797  
  21238917.633   111611278.888    21238927.328    86969871.2504   21238927.645  
                
  22927927.047   120487069.005    22927933.281    93886082.8564                 
                
  21406630.516   112492615.864    21406639.266    87656618.5794   21406639.242  
                
  24542983.602   128974246.205    24542990.109   100499440.3724                 
                
  20998208.914   110346377.310    20998217.785    85984244.8524   20998218.027  
                
  21103418.711   110899249.822    21103427.508    86415063.0084   21103427.020  
                
  23311561.430   122503090.961    23311569.254    95457002.4374   23311569.219  
                
  22780471.539   121560953.023                                                  
  22780469.129  
  22901606.984   122551130.557                    95317539.820    22901610.957  
  22901605.137  
  19275346.938   103073935.591                    80168676.766    19275353.547  
  19275346.184  
  19199427.742   102631975.648                    79824887.013    19199431.695  
  19199427.691  
  21304394.445   113964171.026                    88638826.138    21304398.781  
  21304392.895  
 21  8 14 10 34 20.0000000  0 13R 4G 8G21G27G22G32G10G23R 6R21R20R 5
                                R19
  20740598.281   111065009.243                    86383897.524    20740601.480  
  20740597.316  
  21239093.414   111612202.600    21239103.082    86970591.0264   21239103.414  
                
  22923444.242   120463511.715    22923450.473    93867726.5354                 
                
  21410883.125   112514963.475    21410891.875    87674032.2914   21410891.852  
                
  24537362.109   128944705.213    24537368.699   100476421.4394                 
                
  20995438.062   110331816.378    20995446.953    85972898.6754   20995447.184  
                
  21106485.320   110915364.941    21106494.113    86427620.2394   21106493.617  
                
  23317210.773   122532778.365    23317218.613    95480135.4594   23317218.578  
                
  22773173.945   121522012.026                                                  
  22773171.535  
  22894092.727   122510920.270                    95286265.169    22894096.688  
  22894090.891  
  19273658.328   103064905.850                    80161653.633    19273664.938  
  19273657.586  
  19198253.547   102625698.879                    79820005.083    19198257.480  
  19198253.496  
  21310508.375   113996876.393                    88664263.620    21310512.750  
  21310506.801  
 21  8 14 10 34 30.0000000  0 13R 4G 8G21G27G22G32G10G23R 6R21R20R 5
                                R19
  20746377.570   111095956.989                    86407967.996    20746380.738  
  20746376.598  
  21239281.867   111613192.916    21239291.523    86971362.7014   21239291.863  
                
  22918964.000   120439967.885    22918970.219    93849380.7034                 
                
  21415145.984   112537364.934    21415154.738    87691487.9644   21415154.699  
                
  24531743.312   128915178.410    24531749.926   100453413.5774                 
                
  20992678.477   110317314.668    20992687.391    85961598.6534   20992687.609  
                
  21109557.570   110931509.764    21109566.352    86440200.6194   21109565.855  
                
  23322861.938   122562475.319    23322869.797    95503275.9294   23322869.746  
                
  22765881.961   121483099.735                                                  
  22765879.363  
  22886580.680   122470721.910                    95254999.791    22886584.625  
  22886578.863  
  19271982.922   103055946.651                    80154685.363    19271989.535  
  19271982.195  
  19197093.609   102619498.376                    79815182.470    19197097.531  
  19197093.551  
  21316631.422   114029630.513                    88689739.036    21316635.832  
  21316629.855  
 21  8 14 10 34 40.0000000  0 13R 4G 8G21G27G22G32G10G23R 6R21R20R 5
                                R19
  20752164.391   111126945.055                    86432069.812    20752167.543  
  20752163.449  
  21239482.852   111614249.106    21239492.520    86972185.6994   21239492.867  
                
  22914486.164   120416436.702    22914492.371    93831044.7134                 
                
  21419418.914   112559819.271    21419427.660    87708984.8494   21419427.617  
                
  24526127.008   128885664.943    24526133.727   100430416.0884                 
                
  20989930.016   110302871.397    20989938.961    85950344.1584   20989939.160  
                
  21112635.312   110947683.361    21112644.078    86452803.4144   21112643.594  
                
  23328514.727   122592180.941    23328522.617    95526423.1394   23328522.535  
                
  22758594.898   121444215.233                                                  
  22758592.359  
  22879070.695   122430534.444                    95223742.883    22879074.637  
  22879068.930  
  19270320.570   103047057.275                    80147771.404    19270327.168  
  19270319.816  
  19195947.750   102613373.069                    79810418.349    19195951.656  
  19195947.680  
  21322763.422   114062432.502                    88715251.690    21322767.855  
  21322761.859  
 21  8 14 10 34 50.0000000  0 13R 4G 8G21G27G22G32G10G23R 6R21R20R 5
                                R19
  20757958.641   111157972.921                    86456202.592    20757961.781  
  20757957.719  
  21239696.289   111615370.731    21239706.000    86973059.6924   21239706.332  
                
  22910010.625   120392917.638    22910016.828    93812718.1814                 
                
  21423701.781   112582325.887    21423710.496    87726522.4644   21423710.465  
                
  24520513.258   128856164.265    24520519.930   100407428.5664                 
                
  20987192.570   110288486.034    20987201.527    85939134.7864   20987201.719  
                
  21115718.406   110963885.146    21115727.156    86465428.1764   21115726.684  
                
  23334169.055   122621894.602    23334176.949    95549576.6234   23334176.852  
                
  22751312.867   121405358.453                                                  
  22751310.559  
  22871562.664   122390357.533                    95192494.204    22871566.617  
  22871560.898  
  19268671.188   103038237.297                    80140911.412    19268677.777  
  19268670.438  
  19194815.883   102607322.645                    79805712.465    19194819.770  
  19194815.781  
  21328904.211   114095281.594                    88740800.975    21328908.672  
  21328902.672  
 21  8 14 10 35  0.0000000  0 13R 4G 8G21G27G22G32G10G23R 6R21R20R 5
                                R19
  20763760.438   111189041.219                    86480366.820    20763763.574  
  20763759.543  
  21239922.375   111616558.845    21239932.145    86973985.4854   21239932.445  
                
  22905537.547   120369411.492    22905543.750    93794401.7154                 
                
  21427994.727   112604885.413    21428003.410    87744101.3164   21428003.406  
                
  24514902.031   128826677.130    24514908.660   100384451.5944                 
                
  20984466.289   110274159.373    20984475.250    85927971.1604   20984475.434  
                
  21118807.000   110980115.817    21118815.738    86478075.4504   21118815.281  
                
  23339825.047   122651617.007    23339832.926    95572736.9284   23339832.820  
                
  22744036.336   121366529.843                                                  
  22744034.094  
  22864056.695   122350192.094                    95161254.438    22864060.715  
  22864054.949  
  19267034.922   103029487.441                    80134105.978    19267041.512  
  19267034.168  
  19193698.125   102601347.638                    79801065.234    19193701.996  
  19193698.000  
  21335053.953   114128178.573                    88766387.483    21335058.445  
  21335052.391  
 21  8 14 10 35 10.0000000  0 13R 4G 8G21G27G22G32G10G23R 6R21R20R 5
                                R19
  20769569.727   111220149.618                    86504562.245    20769572.852  
  20769568.867  
  21240160.984   111617812.719    21240170.805    86974962.5284   21240171.086  
                
  22901066.898   120345918.151    22901073.141    93776095.2214                 
                
  21432297.688   112627497.608    21432306.387    87761721.2104   21432306.367  
                
  24509293.430   128797203.365    24509299.988   100361485.0524                 
                
  20981751.164   110259891.274    20981760.125    85916853.1724   20981760.305  
                
  21121901.047   110996375.125    21121909.789    86490745.0444   21121909.340  
                
  23345482.641   122681347.940    23345490.547    95595903.8744   23345490.406  
                
  22736765.102   121327729.502                                                  
  22736762.891  
  22856552.883   122310038.037                    95130023.512    22856556.918  
  22856551.156  
  19265411.852   103020807.717                    80127355.078    19265418.352  
  19265411.035  
  19192594.422   102595447.747                    79796476.438    19192598.301  
  19192594.273  
  21341212.578   114161123.112                    88792011.005    21341217.059  
  21341211.016  
 21  8 14 10 35 20.0000000  0 13R 4G 8G21G27G22G32G10G23R 6R21R20R 5
                                R19
  20775386.492   111251298.048                    86528788.780    20775389.598  
  20775385.637  
  21240412.180   111619132.740    21240422.039    86975991.1134   21240422.312  
                
  22896598.727   120322437.803    22896604.977    93757798.8604                 
                
  21436610.703   112650162.597    21436619.426    87779382.2284   21436619.395  
                
  24503687.352   128767743.209    24503693.906   100338529.0934                 
                
  20979047.219   110245681.972    20979056.160    85905780.9884   20979056.348  
                
  21125000.570   111012663.239    21125009.336    86503437.0764   21125008.879  
                
  23351141.891   122711087.559    23351149.828    95619077.5754   23351149.652  
                
  22729499.398   121288957.396                                                  
  22729496.996  
  22849051.352   122269895.651                    95098801.673    22849055.328  
  22849049.574  
  19263801.836   103012198.315                    80120658.879    19263808.352  
  19263801.031  
  19191504.844   102589623.348                    79791946.366    19191508.711  
  19191504.676  
  21347380.148   114194115.433                    88817671.710    21347384.641  
  21347378.559  
 21  8 14 10 35 30.0000000  0 13R 4G 8G21G27G22G32G10G23R 6R21R20R 5
                                R19
  20781210.789   111282486.815                    86553046.721    20781213.871  
  20781209.938  
  21240675.984   111620519.018    21240685.867    86977071.3264   21240686.137  
                
  22892133.102   120298970.851    22892139.340    93739512.9294                 
                
  21440933.797   112672880.571    21440942.523    87797084.5364   21440942.500  
                
  24498083.797   128738296.927    24498090.434   100315583.9604                 
                
  20976354.523   110231531.782    20976363.438    85894754.8654   20976363.652  
                
  21128105.625   111028980.402    21128114.430    86516151.7514   21128113.961  
                
  23356802.852   122740836.083    23356810.793    95642258.2334   23356810.594  
                
  22722239.008   121250214.353                                                  
  22722236.562  
  22841552.016   122229765.298                    95067589.190    22841555.992  
  22841550.238  
  19262205.070   103003659.674                    80114017.710    19262211.586  
  19262204.258  
  19190429.414   102583874.610                    79787475.113    19190433.277  
  19190429.219  
  21353556.703   114227155.787                    88843369.752    21353561.223  
  21353555.047  
 21  8 14 10 35 40.0000000  0 13R 4G 8G21G27G22G32G10G23R 6R21R20R 5
                                R19
  20787042.500   111313715.310                    86577335.545    20787045.574  
  20787041.656  
  21240952.391   111621971.509    21240962.281    86978203.1394   21240962.555  
                
  22887669.961   120275516.937    22887676.176    93721237.1554                 
                
  21445266.875   112695651.031    21445275.609    87814827.7414   21445275.598  
                
  24492482.914   128708864.228    24492489.555   100292649.3954                 
                
  20973673.016   110217440.389    20973681.898    85883774.5644   20973682.129  
                
  21131216.117   111045326.172    21131224.977    86528888.7084   21131224.492  
                
  23362465.430   122770593.074    23362473.398    95665445.4974   23362473.176  
                
  22714983.828   121211499.757                                                  
  22714981.402  
  22834054.867   122189646.751                    95036385.895    22834058.875  
  22834053.125  
  19260621.414   102995191.365                    80107431.253    19260627.949  
  19260620.625  
  19189368.055   102578201.109                    79783062.387    19189371.902  
  19189367.848  
  21359742.125   114260243.648                    88869104.738    21359746.660  
  21359740.457  
 21  8 14 10 35 50.0000000  0 13R 4G 8G21G27G22G32G10G23R 6R21R20R 5
                                R19
  20792881.617   111344983.539                    86601655.275    20792884.676  
  20792880.773  
  21241241.375   111623490.101    21241251.250    86979386.4554   21241251.547  
                
  22883209.336   120252076.200    22883215.543    93702971.6634                 
                
  21449609.953   112718474.039    21449618.699    87832611.8974   21449618.684  
                
  24486884.547   128679445.134    24486891.273   100269725.4604                 
                
  20971002.719   110203407.915    20971011.578    85872840.1734   20971011.809  
                
  21134332.070   111061700.613    21134340.984    86541648.0084   21134340.488  
                
  23368129.633   122800358.632    23368137.602    95688639.4414   23368137.363  
                
  22707734.164   121172813.933                                                  
  22707731.652  
  22826560.031   122149540.272                    95005191.976    22826564.020  
  22826558.266  
  19259051.000   102986793.746                    80100899.765    19259057.535  
  19259050.219  
  19188320.805   102572602.944                    79778708.264    19188324.645  
  19188320.590  
  21365936.438   114293378.981                    88894876.643    21365940.980  
  21365934.715  
 21  8 14 10 36  0.0000000  0 13R 4G 8G21G27G22G32G10G23R 6R21R20R 5
                                R19
  20798728.156   111376291.438                    86626005.849    20798731.188  
  20798727.273  
  21241542.961   111625074.909    21241552.809    86980621.3714   21241553.121  
                
  22878751.234   120228648.729    22878757.465    93684716.4944                 
                
  21453963.047   112741349.608    21453971.777    87850437.0144   21453971.785  
                
  24481288.930   128650039.795    24481295.609   100246812.2164                 
                
  20968343.680   110189434.520    20968352.508    85861951.8144   20968352.758  
                
  21137453.492   111078103.789    21137462.457    86554429.6924   21137461.949  
                
  23373795.492   122830132.791    23373803.422    95711840.0744   23373803.203  
                
  22700489.797   121134157.007                                                  
  22700487.367  
  22819067.422   122109445.988                    94974007.566    22819071.477  
  22819065.648  
  19257493.891   102978467.063                    80094423.451    19257500.402  
  19257493.105  
  19187287.688   102567080.351                    79774412.917    19187291.527  
  19187287.461  
  21372139.609   114326561.750                    88920685.455    21372144.176  
  21372137.879  
 21  8 14 10 36 10.0000000  0 13R 4G 8G21G27G22G32G10G23R 6R21R20R 5
                                R19
  20804581.961   111407638.325                    86650386.742    20804584.996  
  20804581.035  
  21241857.008   111626725.255    21241866.797    86981907.3474   21241867.113  
                
  22874295.539   120205233.944    22874301.789    93666471.2064                 
                
  21458325.984   112764277.022    21458334.691    87868302.5214   21458334.715  
                
  24475695.789   128620647.669    24475702.441   100223909.2434                 
                
  20965695.758   110175519.646    20965704.566    85851109.0504   20965704.820  
                
  21140580.242   111094535.017    21140589.258    86567233.2324   21140588.742  
                
  23379462.859   122859914.905    23379470.789    95735046.9184   23379470.582  
                
  22693251.000   121095528.395                                                  
  22693248.398  
  22811577.000   122069363.475                    94942832.299    22811581.090  
  22811575.230  
  19255949.891   102970210.484                    80088001.669    19255956.348  
  19255949.109  
  19186268.508   102561632.331                    79770175.575    19186272.336  
  19186268.270  
  21378351.531   114359791.355                    88946530.685    21378356.102  
  21378349.766  
 21  8 14 10 36 20.0000000  0 14R 4G 8G21G 1G27G22G32G10G23R 6R21R20
                                R 5R19
  20810443.086   111439024.359                    86674798.096    20810446.113  
  20810442.160  
  21242183.609   111628441.583    21242193.328    86983244.7444   21242193.688  
                
  22869842.344   120181832.252    22869848.598    93648236.1414                 
                
  24195490.047   127148164.294    24195501.234    99076531.8584   24195500.953  
                
  21462698.852   112787256.540    21462707.543    87886208.6394   21462707.574  
                
  24470105.133   128591269.016    24470111.820   100201016.8324                 
                
  20963059.031   110161663.615    20963067.832    85840312.1484   20963068.082  
                
  21143712.383   111110994.593    21143721.438    86580058.8704   21143720.914  
                
  23385131.789   122889705.256    23385139.734    95758260.1584   23385139.520  
                
  22686017.516   121056928.762                                                  
  22686014.844  
  22804088.875   122029293.094                    94911666.461    22804092.949  
  22804087.062  
  19254419.133   102962024.696                    80081634.943    19254425.547  
  19254418.340  
  19185263.414   102556259.552                    79765996.750    19185267.234  
  19185263.172  
  21384572.242   114393067.946                    88972412.474    21384576.836  
  21384570.445  
 21  8 14 10 36 30.0000000  0 14R 4G 8G21G 1G27G22G32G10G23R 6R21R20
                                R 5R19
  20816311.508   111470449.415                    86699239.795    20816314.523  
  20816310.605  
  21242522.812   111630224.062    21242532.469    86984633.6904   21242532.871  
                
  22865391.688   120158443.850    22865397.957    93630011.4194                 
                
  24189064.578   127114397.597    24189075.559    99050220.1424   24189075.266  
                
  21467081.633   112810288.173    21467090.316    87904155.3584   21467090.359  
                
  24464517.234   128561904.067    24464523.773   100178135.0604                 
                
  20960433.547   110147866.587    20960442.340    85829561.2274   20960442.582  
                
  21146849.938   111127482.544    21146859.023    86592906.6234   21146858.480  
                
  23390802.297   122919503.892    23390810.266    95781479.8524   23390810.047  
                
  22678789.344   121018358.007                                                  
  22678786.688  
  22796603.062   121989235.070                    94880510.238    22796607.137  
  22796601.234  
  19252901.664   102953909.779                    80075323.336    19252908.012  
  19252900.836  
  19184272.391   102550961.958                    79761876.404    19184276.203  
  19184272.145  
  21390801.781   114426391.880                    88998331.059    21390806.422  
  21390799.941  
 21  8 14 10 36 40.0000000  0 14R 4G 8G21G 1G27G22G32G10G23R 6R21R20
                                R 5R19
  20822187.195   111501913.454                    86723711.837    20822190.203  
  20822186.293  
  21242874.539   111632072.424    21242884.145    86986073.9644   21242884.574  
                
  22860943.523   120135068.707    22860949.840    93611797.0414                 
                
  24182639.617   127080633.945    24182650.402    99023910.7954   24182650.203  
                
  21471474.305   112833371.796    21471482.988    87922142.5864   21471483.051  
                
  24458931.914   128532552.710    24458938.332   100155263.9014                 
                
  20957819.281   110134128.571    20957828.047    85818856.2824   20957828.309  
                
  21149992.875   111143998.807    21150001.988    86605776.4344   21150001.434  
                
  23396474.344   122949310.751    23396482.355    95804705.9524   23396482.121  
                
  22671566.695   120979816.254                                                  
  22671563.922  
  22789119.578   121949189.536                    94849363.727    22789123.645  
  22789117.754  
  19251397.359   102945865.668                    80069066.799    19251403.691  
  19251396.562  
  19183295.391   102545739.359                    79757814.386    19183299.211  
  19183295.152  
  21397040.109   114459762.804                    89024286.221    21397044.789  
  21397038.215  
 21  8 14 10 36 50.0000000  0 14R 4G 8G21G 1G27G22G32G10G23R 6R21R20
                                R 5R19
  20828070.125   111533416.247                    86748214.009    20828073.133  
  20828069.172  
  21243238.797   111633986.602    21243248.363    86987565.5344   21243248.820  
                
  22856497.883   120111706.706    22856504.188    93593592.8844                 
                
  24176215.234   127046873.278    24176225.918    98997603.7734   24176225.703  
                
  21475876.836   112856507.228    21475885.516    87940170.1904   21475885.582  
                
  24453349.172   128503214.905    24453355.512   100132403.2874                 
                
  20955216.234   110120449.504    20955224.977    85808197.2704   20955225.258  
                
  21153141.172   111160543.240    21153150.309    86618668.1954   21153149.738  
                
  23402147.930   122979125.680    23402155.977    95827938.3444   23402155.738  
                
  22664349.258   120941303.389                                                  
  22664346.645  
  22781638.438   121909156.526                    94818226.972    22781642.508  
  22781636.605  
  19249906.328   102937892.461                    80062865.420    19249912.660  
  19249905.551  
  19182332.406   102540591.668                    79753810.624    19182336.230  
  19182332.156  
  21403287.211   114493180.573                    89050277.794    21403291.926  
  21403285.309  
 21  8 14 10 37  0.0000000  0 14R 4G 8G21G 1G27G22G32G10G23R 6R21R20
                                R 5R19
  20833960.305   111564957.925                    86772746.415    20833963.316  
  20833959.316  
  21243615.633   111635966.893    21243625.176    86989108.6154   21243625.656  
                
