     2.11           OBSERVATION DATA    M (MIXED)           RINEX VERSION / TYPE
EFT-CORS.RU                             20210817 144826 UTC PGM / RUN BY / DATE 
MDNG                                                        MARKER NAME         
                                                            MARKER NUMBER       
MDNG                EFT-CORS.RU                             OBSERVER / AGENCY   
0                   TRIMBLE BD970       2.0                 REC # / TYPE / VERS 
0                   UNKNOWN EXT NONE                        ANT # / TYPE        
  3463911.2830  3030468.2400  4402179.3760                  APPROX POSITION XYZ 
        0.0000        0.0000        0.0000                  ANTENNA: DELTA H/E/N
     1     1                                                WAVELENGTH FACT L1/2
     6    C1    L1    P2    L2    C2    P1                  # / TYPES OF OBSERV 
    10.000                                                  INTERVAL            
  2021     8    16     7    30    0.0000000     GPS         TIME OF FIRST OBS   
  2021     8    16     8    30    0.0000000     GPS         TIME OF LAST OBS    
     0                                                      RCV CLOCK OFFS APPL 
                                                            END OF HEADER       
 21  8 16  7 30  0.0000000  0 15R12G26R 6R 4R21G29R 5G16G18G27R20G15
                                G10G23G13
  23165983.500   123748529.974                    96248848.195    23165987.906  
  23165982.812  
  22084022.773   116052324.750    22084033.047    90430418.1474   22084032.895  
                
  22279553.688   118887978.237                                                  
  22279551.066  
  22111936.664   118408445.179                    92095473.399    22111940.152  
  22111935.684  
  21128503.578   113062903.486                    87937806.428    21128507.020  
  21128501.707  
  22994737.000   120838152.114    22994746.098    94159621.6354   22994746.188  
                
  20052800.219   107193740.677                    83372905.261    20052804.473  
  20052799.770  
  21867915.977   114916686.659    21867921.984    89545498.7944                 
                
  20441610.086   107421422.053    20441617.367    83705022.2124   20441617.246  
                
  23113857.805   121464132.750    23113866.699    94647430.9684   23113866.789  
                
  19996339.555   106929429.066                    83167356.888    19996345.977  
  19996338.824  
  22654303.375   119049199.576    22654310.797    92765645.6194   22654310.668  
                
  22279928.375   117081839.159    22279938.406    91232657.3354   22279937.859  
                
  20458368.375   107509486.169    20458375.855    83773661.0144   20458375.676  
                
  24071561.539   126496914.161    24071568.930    98569061.4854                 
                
 21  8 16  7 30 10.0000000  0 15R12G26R 6R 4R21G29R 5G16G18G27R20G15
                                G10G23G13
  23162744.477   123731227.644                    96235390.835    23162748.898  
  23162743.871  
  22087815.336   116072254.708    22087825.625    90445947.9814   22087825.469  
                
  22271439.656   118844679.725                                                  
  22271436.945  
  22117494.227   118438205.735                    92118620.481    22117497.727  
  22117493.258  
  21123967.242   113038628.663                    87918926.029    21123970.672  
  21123965.344  
  23000490.555   120868387.156    23000499.570    94183181.4044   23000499.688  
                
  20051249.328   107185450.315                    83366457.223    20051253.605  
  20051248.863  
  21867635.180   114915211.050    21867641.195    89544348.9624                 
                
  20443410.828   107430884.995    20443418.070    83712395.9284   20443417.980  
                
  23107853.727   121432581.153    23107862.633    94622845.3084   23107862.727  
                
  19998006.562   106938343.305                    83174290.179    19998012.977  
  19998005.820  
  22653108.938   119042922.765    22653116.387    92760754.6114   22653116.211  
                
  22274316.906   117052350.733    22274326.895    91209679.3574   22274326.359  
                
  20456127.562   107497710.663    20456135.004    83764485.2924   20456134.848  
                
  24071815.547   126498248.959    24071822.918    98570101.5844                 
                
 21  8 16  7 30 20.0000000  0 15R12G26R 6R 4R21G29R 5G16G18G27R20G15
                                G10G23G13
  23159519.883   123714002.310                    96221993.362    23159524.328  
  23159519.336  
  22091617.266   116092233.946    22091627.602    90461516.2024   22091627.410  
                
  22263330.102   118801406.383                                                  
  22263327.516  
  22123063.656   118468029.802                    92141816.961    22123067.148  
  22123062.691  
  21119434.211   113014371.518                    87900059.349    21119437.648  
  21119432.344  
  23006249.375   120898649.837    23006258.324    94206762.7004   23006258.453  
                
  20049715.570   107177251.582                    83360080.438    20049719.863  
  20049715.102  
  21867367.492   114913804.308    21867373.520    89543252.8024                 
                
  20445217.664   107440379.962    20445224.871    83719794.5964   20445224.801  
                
  23101853.055   121401047.387    23101861.953    94598273.5544   23101862.020  
                
  19999680.188   106947292.855                    83181250.944    19999686.609  
  19999679.445  
  22651927.180   119036712.636    22651934.652    92755915.5484   22651934.445  
                
  22268712.039   117022897.004    22268721.965    91186728.4134   22268721.453  
                
  20453898.141   107485994.972    20453905.547    83755356.1864   20453905.406  
                
  24072081.758   126499647.893    24072089.117    98571191.6774                 
                
 21  8 16  7 30 30.0000000  0 15R12G26R 6R 4R21G29R 5G16G18G27R20G15
                                G10G23G13
  23156309.664   123696853.878                    96208655.711    23156314.105  
  23156309.125  
  22095428.578   116112262.506    22095438.965    90477122.8674   22095438.723  
                
  22255225.234   118758158.204                                                  
  22255222.777  
  22128644.945   118497917.370                    92165062.842    22128648.430  
  22128644.027  
  21114904.516   112990132.244                    87881206.603    21114907.953  
  21114902.668  
  23012013.484   120928940.242    23012022.418    94230365.5984   23012022.523  
                
  20048199.031   107169144.846                    83353775.206    20048203.328  
  20048198.555  
  21867112.930   114912466.567    21867118.969    89542210.4054                 
                
  20447030.617   107449907.075    20447037.805    83727218.3264   20447037.742  
                
  23095855.828   121369531.680    23095864.699    94573715.8684   23095864.762  
                
  20001360.469   106956278.108                    83188239.450    20001366.902  
  20001359.715  
  22650758.102   119030569.146    22650765.582    92751128.4294   22650765.371  
                
  22263113.820   116993478.215    22263123.691    91163804.6844   22263123.176  
                
  20451680.125   107474339.290    20451687.496    83746273.8414   20451687.375  
                
  24072360.195   126501111.158    24072367.492    98572331.8884                 
                
 21  8 16  7 30 40.0000000  0 15R12G26R 6R 4R21G29R 5G16G18G27R20G15
                                G10G23G13
  23153113.875   123679782.676                    96195378.120    23153118.355  
  23153113.301  
  22099249.289   116132340.418    22099259.719    90492767.9854   22099259.445  
                
  22247125.297   118714935.522                                                  
  22247122.871  
  22134238.102   118527868.409                    92188358.088    22134241.578  
  22134237.195  
  21110378.180   112965910.941                    87862367.833    21110381.625  
  21110376.320  
  23017782.875   120959258.441    23017791.805    94253990.1424   23017791.906  
                
  20046699.695   107161130.087                    83347541.514    20046704.016  
  20046699.219  
  21866871.523   114911197.973    21866877.555    89541221.8884                 
                
  20448849.719   107459466.459    20448856.891    83734667.1944   20448856.840  
                
  23089862.102   121338034.253    23089870.961    94549172.4134   23089871.027  
                
  20003047.406   106965298.927                    83195255.634    20003053.855  
  20003046.648  
  22649601.742   119024492.455    22649609.191    92746393.3574   22649608.980  
                
  22257522.297   116964094.547    22257532.141    91140908.3264   22257531.629  
                
  20449473.570   107462743.758    20449480.914    83737238.3684   20449480.809  
                
  24072650.906   126502638.838    24072658.137    98573522.2804                 
                
 21  8 16  7 30 50.0000000  0 15R12G26R 6R 4R21G29R 5G16G18G27R20G15
                                G10G23G13
  23149932.531   123662788.650                    96182160.538    23149937.035  
  23149931.902  
  22103079.344   116152467.436    22103089.801    90508451.3664   22103089.520  
                
  22239030.164   118671738.119                                                  
  22239027.648  
  22139843.016   118557882.594                    92211702.467    22139846.504  
  22139842.090  
  21105855.180   112941707.542                    87843542.958    21105858.633  
  21105853.305  
  23023557.516   120989604.152    23023566.395    94277636.1364   23023566.504  
                
  20045217.523   107153207.126                    83341379.206    20045221.855  
  20045217.020  
  21866643.250   114909998.394    21866649.258    89540287.1464                 
                
  20450674.906   107469057.877    20450682.070    83742141.0184   20450682.023  
                
  23083871.797   121306554.950    23083880.691    94524643.0994   23083880.766  
                
  20004741.023   106974355.420                    83202299.577    20004747.469  
  20004740.258  
  22648458.070   119018482.524    22648465.496    92741710.3034   22648465.305  
                
  22251937.414   116934745.850    22251947.219    91118039.2084   22251946.699  
                
  20447278.414   107451208.189    20447285.730    83728249.6144   20447285.637  
                
  24072953.844   126504230.816    24072960.988    98574762.7694                 
                
 21  8 16  7 31  0.0000000  0 15R12G26R 6R 4R21G29R 5G16G18G27R20G15
                                G10G23G13
  23146765.703   123645872.026                    96169003.160    23146770.195  
  23146765.047  
  22106918.773   116172643.727    22106929.246    90524173.1424   22106928.969  
                
  22230939.891   118628566.945                                                  
  22230937.379  
  22145459.742   118587960.013                    92235095.994    22145463.266  
  22145458.797  
  21101335.602   112917522.372                    87824732.276    21101339.062  
  21101333.707  
  23029337.445   121019977.600    23029346.297    94301303.7534   23029346.371  
                
  20043752.625   107145376.426                    83335288.663    20043756.984  
  20043752.102  
  21866428.148   114908868.042    21866434.125    89539406.3444                 
                
  20452506.242   107478681.585    20452513.406    83749640.0104   20452513.352  
                
  23077884.984   121275094.106    23077893.930    94500128.1734   23077894.008  
                
  20006441.297   106983447.540                    83209371.232    20006447.754  
  20006440.527  
  22647327.188   119012539.741    22647334.629    92737079.5784   22647334.441  
                
  22246359.258   116905432.483    22246369.043    91095197.6354   22246368.527  
                
  20445094.742   107439732.904    20445102.035    83719307.8374   20445101.945  
                
  24073269.102   126505887.399    24073276.148    98576053.6204                 
                
 21  8 16  7 31 10.0000000  0 15R12G26R 6R 4R21G29R 5G16G18G27R20G15
                                G10G23G13
  23143613.336   123629032.628                    96155905.875    23143617.848  
  23143612.750  
  22110767.492   116192868.831    22110777.949    90539932.9584   22110777.695  
                
  22222854.414   118585421.343                                                  
  22222851.973  
  22151088.219   118618100.326                    92258538.429    22151091.758  
  22151087.254  
  21096819.344   112893355.009                    87805935.431    21096822.797  
  21096817.484  
  23035122.562   121050378.462    23035131.363    94324992.7234   23035131.445  
                
  20042304.922   107137637.696                    83329269.671    20042309.312  
  20042304.387  
  21866226.141   114907806.514    21866232.094    89538579.1914                 
                
  20454343.641   107488337.185    20454350.809    83757163.8484   20454350.754  
                
  23071901.641   121243651.477    23071910.582    94475627.4264   23071910.684  
                
  20008148.227   106992575.261                    83216470.566    20008154.676  
  20008147.438  
  22646209.000   119006663.740    22646216.496    92732500.8894   22646216.277  
                
  22240787.758   116876154.131    22240797.559    91072383.3464   22240797.035  
                
  20442922.461   107428317.526    20442929.738    83710412.7414   20442929.652  
                
  24073596.562   126507608.226    24073603.582    98577394.5314                 
                
 21  8 16  7 31 20.0000000  0 15R12G26R 6R 4R21G29R 5G16G18G27R20G15
                                G10G23G13
  23140475.461   123612270.561                    96142868.731    23140479.949  
  23140474.938  
  22114625.523   116213142.873    22114635.977    90555730.9104   22114635.730  
                
  22214774.008   118542301.757                                                  
  22214771.449  
  22156728.430   118648303.366                    92282029.700    22156731.973  
  22156727.461  
  21092306.508   112869205.886                    87787152.795    21092309.957  
  21092304.656  
  23040912.922   121080806.882    23040921.645    94348703.1654   23040921.762  
                
  20040874.438   107129990.957                    83323322.212    20040878.844  
  20040873.906  
  21866037.289   114906814.045    21866043.230    89537805.8294                 
                
  20456187.148   107498024.855    20456194.320    83764712.6794   20456194.266  
                
  23065921.812   121212227.310    23065930.766    94451141.0734   23065930.879  
                
  20009861.805   107001738.532                    83223597.536    20009868.285  
  20009860.973  
  22645103.586   119000854.758    22645111.113    92727974.4204   22645110.883  
                
  22235222.977   116846911.053    22235232.816    91049596.5574   22235232.270  
                
  20440761.633   107416962.288    20440768.895    83701564.5054   20440768.816  
                
  24073936.289   126509393.482    24073943.312    98578785.6524                 
                
 21  8 16  7 31 30.0000000  0 15R12G26R 6R 4R21G29R 5G16G18G27R20G15
                                G10G23G13
  23137352.078   123595586.056                    96129891.930    23137356.539  
  23137351.559  
  22118492.836   116233465.733    22118503.297    90571566.8944   22118503.031  
                
  22206698.344   118499208.385                                                  
  22206695.809  
  22162380.344   118678569.112                    92305569.707    22162383.867  
  22162379.359  
  21087797.008   112845074.745                    87768384.148    21087800.461  
  21087795.148  
  23046708.516   121111262.749    23046717.176    94372434.9874   23046717.309  
                
  20039461.195   107122436.404                    83317446.453    20039465.613  
  20039460.676  
  21865861.562   114905890.617    21865867.504    89537086.2804                 
                
  20458036.742   107507744.546    20458043.910    83772286.4604   20458043.840  
                
  23059945.477   121180821.646    23059954.438    94426669.1384   23059954.570  
                
  20011582.047   107010937.514                    83230752.290    20011588.539  
  20011581.207  
  22644010.914   118995112.836    22644018.469    92723500.2054   22644018.215  
                
  22229664.914   116817703.326    22229674.789    91026837.3004   22229674.219  
                
  20438612.234   107405667.174    20438619.469    83692763.1144   20438619.391  
                
  24074288.273   126511243.169    24074295.281    98580226.9504                 
                
 21  8 16  7 31 40.0000000  0 15R12G26R 6R 4R21G29R 5G16G18G27R20G15
                                G10G23G13
  23134243.266   123578979.526                    96116975.723    23134247.723  
  23134242.688  
  22122369.477   116253837.586    22122379.961    90587441.0484   22122379.680  
                
  22198627.727   118456141.710                                                  
  22198625.184  
  22168043.969   118708897.654                    92329158.580    22168047.504  
  22168042.965  
  21083290.961   112820962.054                    87749629.827    21083294.430  
  21083289.082  
  23052509.383   121141746.223    23052517.965    94396188.3454   23052518.117  
                
  20038065.242   107114974.259                    83311642.564    20038069.676  
  20038064.738  
  21865699.039   114905036.581    21865704.988    89536420.7864                 
                
  20459892.477   107517496.485    20459899.637    83779885.3634   20459899.570  
                
  23053972.766   121149434.843    23053981.676    94402211.8894   23053981.824  
                
  20013309.008   107020172.364                    83237934.957    20013315.527  
  20013308.148  
  22642931.039   118989438.151    22642938.617    92719078.3994   22642938.344  
                
  22224113.648   116788531.246    22224123.559    91004105.8244   22224122.996  
                
  20436474.336   107394432.453    20436481.551    83684008.7894   20436481.480  
                
  24074652.555   126513157.527    24074659.535    98581718.6314                 
                
 21  8 16  7 31 50.0000000  0 15R12G26R 6R 4R21G29R 5G16G18G27R20G15
                                G10G23G13
  23131148.992   123562450.541                    96104119.812    23131153.441  
  23131148.355  
  22126255.344   116274257.944    22126265.848    90603353.0174   22126265.574  
                
  22190561.922   118413101.257                                                  
  22190559.426  
  22173719.219   118739288.445                    92352795.847    22173722.770  
  22173718.199  
  21078788.305   112796867.504                    87730889.639    21078791.770  
  21078786.414  
  23058315.445   121172256.950    23058323.965    94419962.9334   23058324.125  
                
  20036686.500   107107604.126                    83305910.248    20036690.957  
  20036686.012  
  21865549.633   114904251.436    21865555.602    89535808.9894                 
                
  20461754.273   107527280.266    20461761.422    83787509.0874   20461761.352  
                
  23048003.570   121118066.589    23048012.453    94377769.1074   23048012.594  
                
  20015042.641   107029442.899                    83245145.361    20015049.184  
  20015041.750  
  22641863.930   118983830.569    22641871.512    92714708.8504   22641871.219  
                
  22218569.109   116759394.518    22218579.043    90981401.8914   22218578.480  
                
  20434347.867   107383257.795    20434355.070    83675301.2654   20434355.008  
                
  24075029.070   126515136.181    24075036.012    98583260.4424                 
                
 21  8 16  7 32  0.0000000  0 15R12G26R 6R 4R21G29R 5G16G18G27R20G15
                                G10G23G13
  23128069.250   123545999.096                    96091324.240    23128073.660  
  23128068.586  
  22130150.422   116294726.733    22130160.949    90619302.7084   22130160.680  
                
  22182500.914   118370087.186                                                  
  22182498.559  
  22179406.078   118769741.329                    92376481.393    22179409.633  
  22179405.074  
  21074289.039   112772791.059                    87712163.515    21074292.504  
  21074287.148  
  23064126.688   121202794.870    23064135.164    94443758.6934   23064135.312  
                
  20035324.992   107100326.164                    83300249.611    20035329.457  
  20035324.520  
  21865413.328   114903535.165    21865419.324    89535250.8524                 
                
  20463622.125   107537095.840    20463629.258    83795157.5784   20463629.188  
                
  23042037.914   121086716.922    23042046.773    94353340.7984   23042046.914  
                
  20016782.906   107038748.877                    83252383.345    20016789.441  
  20016782.004  
  22640809.586   118978290.018    22640817.176    92710391.5544   22640816.883  
                
  22213031.297   116730293.164    22213041.246    90958725.5264   22213040.688  
                
  20432232.820   107372143.163    20432240.016    83666640.5184   20432239.941  
                
  24075417.812   126517179.116    24075424.766    98584852.3374                 
                
 21  8 16  7 32 10.0000000  0 15R12G26R 6R 4R21G29R 5G16G18G27R20G15
                                G10G23G13
  23125004.102   123529625.483                    96078589.184    23125008.477  
  23125003.477  
  22134054.742   116315244.038    22134065.289    90635290.2134   22134065.020  
                
  22174444.883   118327099.926                                                  
  22174442.699  
  22185104.547   118800256.291                    92400215.252    22185108.082  
  22185103.562  
  21069793.227   112748733.098                    87693451.767    21069796.715  
  21069791.340  
  23069943.133   121233360.201    23069951.543    94467575.8224   23069951.699  
                
  20033980.789   107093140.602                    83294660.843    20033985.273  
  20033980.336  
  21865290.188   114902888.013    21865296.207    89534746.5754                 
                
  20465496.055   107546943.382    20465503.164    83802830.9874   20465503.094  
                
  23036075.875   121055386.164    23036084.695    94328927.2214   23036084.832  
                
  20018529.898   107048090.842                    83259649.296    20018536.453  
  20018528.988  
  22639768.062   118972816.820    22639775.648    92706126.7354   22639775.395  
                
  22207500.281   116701227.464    22207510.238    90936076.9454   22207509.680  
                
  20430129.258   107361088.811    20430136.441    83658026.7394   20430136.371  
                
  24075818.836   126519286.574    24075825.820    98586494.4924                 
                
 21  8 16  7 32 20.0000000  0 15R12G26R 6R 4R21G29R 5G16G18G27R20G15
                                G10G23G13
  23121953.539   123513329.801                    96065914.801    23121957.871  
  23121952.984  
  22137968.281   116335809.844    22137978.848    90651315.5074   22137978.570  
                
  22166394.086   118284139.903                                                  
  22166391.945  
  22190814.602   118830833.344                    92423997.400    22190818.152  
  22190813.602  
  21065300.844   112724693.446                    87674754.276    21065304.340  
  21065298.941  
  23075764.750   121263952.862    23075773.070    94491414.2544   23075773.262  
                
  20032653.867   107086047.456                    83289143.962    20032658.375  
  20032653.438  
  21865180.180   114902309.930    21865186.211    89534296.1194                 
                
  20467376.078   107556822.899    20467383.156    83810529.3144   20467383.102  
                
  23030117.422   121024074.361    23030126.219    94304528.4134   23030126.344  
                
  20020283.578   107057468.482                    83266943.019    20020290.152  
  20020282.672  
  22638739.328   118967410.889    22638746.902    92701914.3384   22638746.652  
                
  22201976.070   116672197.524    22201986.004    90913456.2164   22201985.441  
                
  20428037.156   107350094.770    20428044.340    83649459.9524   20428044.277  
                
  24076232.164   126521458.698    24076239.152    98588187.0734                 
                
 21  8 16  7 32 30.0000000  0 15R12G26R 6R 4R21G29R 5G16G18G27R20G15
                                G10G23G13
  23118917.609   123497112.314                    96053301.222    23118921.891  
  23118917.129  
  22141891.055   116356424.113    22141901.641    90667378.5594   22141901.336  
                
  22158348.680   118241206.949                                                  
  22158346.348  
  22196536.219   118861472.372                    92447827.740    22196539.781  
  22196535.238  
  21060811.930   112700672.392                    87656071.227    21060815.418  
  21060810.035  
  23081591.594   121294572.941    23081599.836    94515274.0414   23081600.062  
                
  20031344.234   107079046.751                    83283698.970    20031348.762  
  20031343.828  
  21865083.352   114901801.087    21865089.367    89533899.6134                 
                
  20469262.195   107566734.468    20469269.234    83818252.6154   20469269.203  
                
  23024162.625   120992781.731    23024171.410    94280144.5634   23024171.523  
                
  20022043.969   107066882.069                    83274264.694    20022050.551  
  20022043.062  
  22637723.445   118962072.463    22637731.008    92697754.5384   22637730.758  
                
  22196458.680   116643203.486    22196468.551    90890863.4674   22196468.016  
                
  20425956.555   107339161.147    20425963.738    83640940.2484   20425963.664  
                
  24076657.773   126523695.404    24076664.711    98589929.9404                 
                
 21  8 16  7 32 40.0000000  0 15R12G26R 6R 4R21G29R 5G16G18G27R20G15
                                G10G23G13
  23115896.227   123480972.600                    96040748.146    23115900.496  
  23115895.727  
  22145822.961   116377086.417    22145833.574    90683479.0464   22145833.258  
                
  22150308.258   118198301.236                                                  
  22150305.898  
  22202269.336   118892172.970                    92471705.988    22202272.891  
  22202268.387  
  21056326.445   112676669.668                    87637402.464    21056329.941  
  21056324.566  
  23087423.602   121325220.036    23087431.812    94539154.8824   23087432.035  
                
  20030051.852   107072138.206                    83278325.672    20030056.418  
  20030051.453  
  21864999.648   114901361.173    21865005.648    89533556.8134                 
                
  20471154.344   107576677.724    20471161.344    83826000.6064   20471161.316  
                
  23018211.430   120961507.984    23018220.207    94255775.4164   23018220.340  
                
  20023811.031   107076331.319                    83281614.105    20023817.633  
  20023810.121  
  22636720.359   118956801.267    22636727.902    92693647.1204   22636727.664  
                
  22190948.078   116614245.070    22190957.879    90868298.4744   22190957.383  
                
  20423887.391   107328287.617    20423894.570    83632467.3734   20423894.496  
                
  24077095.633   126525996.443    24077102.512    98591722.9914                 
                
 21  8 16  7 32 50.0000000  0 15R12G26R 6R 4R21G29R 5G16G18G27R20G15
                                G10G23G13
  23112889.414   123464910.943                    96028255.760    23112893.730  
  23112888.848  
  22149764.000   116397796.697    22149774.641    90699616.9154   22149774.301  
                
  22142273.000   118155422.671                                                  
  22142270.512  
  22208013.906   118922934.954                    92495631.974    22208017.457  
  22208012.941  
  21051844.383   112652685.203                    87618747.891    21051847.879  
  21051842.508  
  23093260.734   121355894.085    23093268.961    94563056.7224   23093269.156  
                
  20028776.742   107065322.053                    83273024.240    20028781.336  
  20028776.344  
  21864929.039   114900990.117    21864935.023    89533267.6734                 
                
  20473052.500   107586652.613    20473059.469    83833773.2484   20473059.469  
                
  23012263.836   120930253.192    23012272.633    94231421.0554   23012272.758  
                
  20025584.750   107085816.165                    83288991.202    20025591.359  
  20025583.828  
  22635730.070   118951597.288    22635737.582    92689592.0804   22635737.355  
                
  22185444.250   116585322.329    22185454.027    90845761.2884   22185453.551  
                
  20421829.680   107317474.201    20421836.855    83624041.3344   20421836.785  
                
  24077545.711   126528361.705    24077552.551    98593566.0454                 
                
 21  8 16  7 33  0.0000000  0 15R12G26R 6R 4R21G29R 5G16G18G27R20G15
                                G10G23G13
  23109897.242   123448927.454                    96015824.101    23109901.555  
  23109896.633  
  22153714.148   116418554.848    22153724.797    90715792.0884   22153724.453  
                
  22134242.898   118112571.471                                                  
  22134240.281  
  22213769.914   118953758.095                    92519605.515    22213773.457  
  22213768.926  
  21047365.734   112628719.083                    87600107.569    21047369.223  
  21047363.871  
  23099102.977   121386595.085    23099111.223    94586979.5634   23099111.402  
                
  20027518.883   107058598.126                    83267794.519    20027523.500  
  20027518.496  
  21864871.539   114900687.985    21864877.508    89533032.2474                 
                
  20474956.680   107596659.162    20474963.617    83841570.5534   20474963.629  
                
  23006319.875   120899017.488    23006328.660    94207081.5514   23006328.781  
                
  20027365.094   107095336.563                    83296395.945    20027371.711  
  20027364.188  
  22634752.586   118946460.686    22634760.086    92685589.5354   22634759.844  
                
  22179947.227   116556435.378    22179957.000    90823251.9924   22179956.527  
                
  20419783.391   107306720.936    20419790.570    83615662.1624   20419790.496  
                
  24078008.039   126530791.308    24078014.879    98595459.2714                 
                
 21  8 16  7 33 10.0000000  0 15R12G26R 6R 4R21G29R 5G16G18G27R20G15
                                G10G23G13
  23106919.781   123433022.224                    96003453.348    23106924.066  
  23106919.188  
  22157673.438   116439360.995    22157684.094    90732004.6654   22157683.742  
                
  22126217.969   118069748.064                                                  
  22126215.254  
  22219537.391   118984642.534                    92543626.742    22219540.922  
  22219536.449  
  21042890.578   112604771.633                    87581481.783    21042894.074  
  21042888.715  
  23104950.406   121417323.276    23104958.672    94610923.5804   23104958.824  
                
  20026278.336   107051966.671                    83262636.722    20026282.953  
  20026277.945  
  21864827.203   114900454.931    21864833.164    89532850.6534                 
                
  20476866.922   107606697.524    20476873.840    83849392.6514   20476873.859  
                
  23000379.602   120867801.097    23000388.332    94182757.0904   23000388.484  
                
  20029152.188   107104892.831                    83303828.594    20029158.805  
  20029151.250  
  22633787.953   118941391.604    22633795.457    92681639.6194   22633795.191  
                
  22174457.070   116527584.465    22174466.801    90800770.7694   22174466.332  
                
  20417748.602   107296028.020    20417755.801    83607330.0274   20417755.703  
                
  24078482.648   126533285.431    24078489.500    98597402.7674                 
                
 21  8 16  7 33 20.0000000  0 15R12G26R 6R 4R21G29R 5G16G18G27R20G15
                                G10G23G13
  23103957.180   123417196.466                    95991144.441    23103961.457  
  23103956.629  
  22161642.039   116460216.069    22161652.691    90748255.3624   22161652.328  
                
  22118198.281   118026953.642                                                  
  22118195.629  
  22225316.453   119015589.114                    92567696.301    22225319.969  
  22225315.543  
  21038419.102   112580843.893                    87562871.330    21038422.598  
  21038417.230  
  23110803.164   121448079.556    23110811.469    94634889.4984   23110811.617  
                
  20025055.305   107045428.899                    83257551.792    20025059.922  
  20025054.922  
  21864796.195   114900291.968    21864802.168    89532723.6624                 
                
  20478783.414   107616768.692    20478790.324    83857240.3124   20478790.355  
                
  22994443.203   120836605.116    22994451.895    94158448.5424   22994452.043  
                
  20030946.188   107114486.185                    83311290.089    20030952.816  
  20030945.250  
  22632836.383   118936391.114    22632843.871    92677743.1484   22632843.598  
                
  22168973.977   116498770.661    22168983.633    90778318.4634   22168983.199  
                
  20415725.492   107285396.498    20415732.715    83599045.7274   20415732.598  
                
  24078969.742   126535845.120    24078976.590    98599397.3594                 
                
 21  8 16  7 33 30.0000000  0 15R12G26R 6R 4R21G29R 5G16G18G27R20G15
                                G10G23G13
  23101008.922   123401447.377                    95978895.175    23101013.184  
  23101008.438  
  22165619.430   116481117.340    22165630.059    90764542.0614   22165629.695  
                
  22110183.047   117984185.352                                                  
  22110180.758  
  22231106.609   119046595.131                    92591812.101    22231110.164  
  22231105.711  
  21033950.812   112556933.227                    87544274.157    21033954.293  
  21033948.934  
  23116660.742   121478861.252    23116669.098    94658875.2114   23116669.227  
                
  20023849.312   107038982.175                    83252537.681    20023853.934  
  20023848.934  
  21864778.023   114900196.455    21864783.973    89532649.2324                 
                
  20480705.625   107626870.014    20480712.527    83865111.4654   20480712.562  
                
  22988510.211   120805427.036    22988518.840    94134153.9204   22988519.000  
                
  20032746.555   107124113.678                    83318778.139    20032753.199  
  20032745.617  
  22631897.375   118931456.646    22631904.812    92673898.1134   22631904.547  
                
  22163497.453   116469991.424    22163507.051    90755893.0934   22163506.648  
                
  20413713.570   107274823.765    20413720.828    83590807.2304   20413720.688  
                
  24079468.820   126538467.835    24079475.672    98601441.0324                 
                
 21  8 16  7 33 40.0000000  0 15R12G26R 6R 4R21G29R 5G16G18G27R20G15
                                G10G23G13
  23098075.438   123385777.287                    95966707.365    23098079.711  
  23098074.922  
  22169605.977   116502066.748    22169616.566    90780866.2654   22169616.230  
                
  22102173.664   117941445.898                                                  
  22102171.332  
  22236908.211   119077662.431                    92615975.534    22236911.812  
  22236907.289  
  21029486.125   112533041.800                    87525691.943    21029489.621  
  21029484.238  
  23122523.531   121509670.299    23122531.879    94682882.2484   23122532.016  
                
  20022660.719   107032628.468                    83247595.908    20022665.332  
  20022660.355  
  21864773.070   114900170.415    21864778.988    89532628.9414                 
                
  20482633.969   107637003.476    20482640.871    83873007.6624   20482640.906  
                
  22982581.000   120774268.881    22982589.559    94109874.8374   22982589.715  
                
  20034553.719   107133777.419                    83326294.374    20034560.367  
  20034552.789  
  22630971.320   118926590.226    22630978.684    92670106.1004   22630978.453  
                
  22158027.906   116441248.797    22158037.492    90733496.2514   22158037.090  
                
  20411713.219   107264311.833    20411720.527    83582616.1134   20411720.359  
                
  24079980.266   126541155.476    24079987.160    98603535.2914                 
                
 21  8 16  7 33 50.0000000  0 15R12G26R 6R 4R21G29R 5G16G18G27R20G15
                                G10G23G13
  23095156.664   123370185.906                    95954580.735    23095161.000  
  23095156.098  
  22173601.602   116523063.836    22173612.152    90797227.6334   22173611.832  
                
  22094169.539   117898734.731                                                  
  22094167.246  
  22242721.164   119108790.524                    92640186.256    22242724.801  
  22242720.254  
  21025024.961   112509169.221                    87507124.386    21025028.461  
  21025023.074  
  23128391.461   121540506.310    23128399.781    94706910.2974   23128399.934  
                
  20021489.461   107026367.466                    83242726.238    20021494.070  
  20021489.109  
  21864781.266   114900213.482    21864787.129    89532662.4984                 
                
  20484568.344   107647168.708    20484575.246    83880928.6204   20484575.293  
                
  22976655.547   120743130.425    22976664.051    94085611.1124   22976664.199  
                
  20036367.617   107143477.114                    83333838.562    20036374.262  
  20036366.691  
  22630058.156   118921791.554    22630065.465    92666366.8924   22630065.246  
                
  22152565.273   116412542.529    22152574.875    90711127.7434   22152574.457  
                
  20409724.375   107253860.361    20409731.730    83574472.1154   20409731.535  
                
  24080504.016   126543907.772    24080510.973    98605679.9334                 
                
 21  8 16  7 34  0.0000000  0 15R12G26R 6R 4R21G29R 5G16G18G27R20G15
                                G10G23G13
  23092252.602   123354673.034                    95942515.140    23092256.922  
  23092251.992  
  22177606.250   116544108.385    22177616.762    90813625.9714   22177616.465  
                
  22086170.836   117856052.025                                                  
  22086168.504  
  22248545.414   119139979.223                    92664444.112    22248549.090  
  22248544.492  
  21020567.281   112485315.322                    87488571.352    21020570.773  
  21020565.391  
  23134264.492   121571369.116    23134272.766    94730959.2244   23134272.918  
                
  20020335.539   107020199.119                    83237928.638    20020340.141  
  20020335.199  
  21864802.594   114900325.571    21864808.434    89532749.8454                 
                
  20486508.734   107657365.526    20486515.637    83888874.1874   20486515.691  
                
  22970733.836   120712011.588    22970742.328    94061362.6844   22970742.473  
                
  20038188.211   107153212.636                    83341410.621    20038194.863  
  20038187.293  
  22629157.859   118917060.512    22629165.133    92662680.3734   22629164.926  
                
  22147109.547   116383872.509    22147119.152    90688787.4884   22147118.723  
                
  20407747.008   107243469.231    20407754.410    83566375.1354   20407754.195  
                
  24081040.039   126546724.599    24081047.082    98607874.8644                 
                
 21  8 16  7 34 10.0000000  0 15R12G26R 6R 4R21G29R 5G16G18G27R20G15
                                G10G23G13
  23089363.344   123339239.133                    95930510.999    23089367.648  
  23089362.734  
  22181619.961   116565200.551    22181630.469    90830061.4194   22181630.160  
                
  22078177.672   117813398.072                                                  
  22078175.180  
  22254380.984   119171228.438                    92688749.060    22254384.660  
  22254380.043  
  21016113.172   112461480.494                    87470033.172    21016116.660  
  21016111.285  
  23140142.641   121602258.957    23140150.887    94755029.2184   23140151.051  
                
  20019198.984   107014123.572                    83233203.216    20019203.590  
  20019198.645  
  21864837.094   114900506.862    21864842.906    89532891.0974                 
                
  20488455.180   107667594.161    20488462.102    83896844.5494   20488462.145  
                
  22964815.914   120680912.710    22964824.449    94037129.8024   22964824.566  
                
  20040015.562   107162984.332                    83349010.813    20040022.227  
  20040014.672  
  22628270.484   118912397.382    22628277.738    92659046.7614   22628277.512  
                
  22141660.781   116355239.081    22141670.395    90666475.7304   22141669.938  
                
  20405781.172   107233138.721    20405788.598    83558325.3864   20405788.371  
                
  24081588.398   126549606.212    24081595.531    98610120.2694                 
                
 21  8 16  7 34 20.0000000  0 15R12G26R 6R 4R21G29R 5G16G18G27R20G15
                                G10G23G13
  23086488.844   123323883.937                    95918568.087    23086493.125  
  23086488.285  
  22185642.656   116586339.917    22185653.164    90846533.6334   22185652.855  
                
  22070189.820   117770772.813                                                  
  22070187.254  
  22260227.789   119202537.849                    92713100.834    22260231.477  
  22260226.852  
  21011662.578   112437664.493                    87451509.615    21011666.078  
  21011660.707  
  23146025.875   121633175.426    23146034.078    94779119.9624   23146034.242  
                
  20018079.742   107008140.574                    83228549.776    20018084.332  
  20018079.434  
  21864884.688   114900756.963    21864890.488    89533085.9784                 
                
  20490407.609   107677854.238    20490414.551    83904839.4154   20490414.598  
                
  22958901.750   120649833.553    22958910.320    94012912.2734   22958910.406  
                
  20041849.633   107172791.888                    83356638.921    20041856.309  
  20041848.738  
  22627396.000   118907801.984    22627403.254    92655465.9374   22627403.051  
                
  22136218.930   116326641.965    22136228.547    90644192.2694   22136228.078  
                
  20403826.820   107222868.505    20403834.270    83550322.6284   20403834.039  
                
  24082149.000   126552552.175    24082156.203    98612415.8254                 
                
 21  8 16  7 34 30.0000000  0 15R12G26R 6R 4R21G29R 5G16G18G27R20G15
                                G10G23G13
  23083629.117   123308607.677                    95906686.552    23083633.398  
  23083628.570  
  22189674.375   116607526.679    22189684.875    90863042.7914   22189684.578  
                
  22062207.422   117728176.704                                                  
  22062204.785  
  22266085.828   119233907.452                    92737499.399    22266089.543  
  22266084.914  
  21007215.555   112413867.587                    87433000.916    21007219.055  
  21007213.699  
  23151914.188   121664118.723    23151922.406    94803231.6094   23151922.547  
                
  20016977.875   107002250.471                    83223968.596    20016982.457  
  20016977.570  
  21864945.430   114901076.138    21864951.211    89533334.6794                 
                
  20492366.086   107688146.062    20492373.055    83912859.0144   20492373.090  
                
  22952991.398   120618774.418    22952999.965    93988710.3544   22953000.027  
                
  20043690.438   107182635.490                    83364295.039    20043697.113  
  20043689.559  
  22626534.461   118903274.561    22626541.699    92651938.0804   22626541.520  
                
  22130784.055   116298081.511    22130793.652    90621937.3784   22130793.172  
                
  20401883.992   107212658.887    20401891.457    83542367.0824   20401891.223  
                
  24082721.906   126555562.896    24082729.168    98614761.8224                 
                
 21  8 16  7 34 40.0000000  0 15R12G26R 6R 4R21G29R 5G16G18G27R20G15
                                G10G23G13
  23080784.156   123293410.491                    95894866.518    23080788.449  
  23080783.617  
  22193715.086   116628760.700    22193725.570    90879588.7784   22193725.293  
                
  22054230.492   117685609.857                                                  
  22054227.797  
  22271955.125   119265337.188                    92761944.720    22271958.852  
  22271954.207  
  21002772.109   112390089.832                    87414507.111    21002775.605  
  21002770.273  
  23157807.578   121695088.703    23157815.805    94827364.0344   23157815.945  
                
  20015893.383   106996453.263                    83219459.669    20015897.953  
  20015893.082  
  21865019.312   114901464.414    21865025.105    89533637.2254                 
                
  20494330.578   107698469.544    20494337.570    83920903.2834   20494337.590  
                
  22947084.852   120587735.391    22947093.391    93964524.1054   22947093.457  
                
  20045537.969   107192515.053                    83371979.139    20045544.660  
  20045537.109  
  22625685.836   118898815.090    22625693.070    92648463.1734   22625692.891  
                
  22125356.148   116269557.757    22125365.727    90599711.0864   22125365.266  
                
  20399952.695   107202509.854    20399960.176    83534458.7464   20399959.938  
                
  24083307.141   126558638.380    24083314.492    98617158.3304                 
                
 21  8 16  7 34 50.0000000  0 15R12G26R 6R 4R21G29R 5G16G18G27R20G15
                                G10G23G13
  23077953.961   123278292.193                    95883107.837    23077958.262  
  23077953.344  
  22197764.711   116650041.600    22197775.176    90896171.2854   22197774.914  
                
  22046258.844   117643071.918                                                  
  22046256.238  
  22277835.547   119296826.455                    92786436.359    22277839.309  
  22277834.625  
  20998332.188   112366330.893                    87396027.938    20998335.688  
  20998330.359  
  23163706.023   121726085.190    23163714.262    94851517.1204   23163714.430  
                
  20014826.227   106990748.719                    83215022.789    20014830.781  
  20014825.922  
  21865106.305   114901921.527    21865112.102    89533993.4214                 
                
  20496301.039   107708824.343    20496308.062    83928971.9514   20496308.070  
                
  22941182.094   120556716.214    22941190.629    93940353.3284   22941190.676  
                
  20047392.195   107202430.402                    83379691.075    20047398.875  
  20047391.348  
  22624850.109   118894423.320    22624857.348    92645041.0284   22624857.172  
                
  22119935.188   116241070.436    22119944.766    90577513.1794   22119944.305  
                
  20398032.859   107192421.080    20398040.363    83526597.3654   20398040.129  
                
  24083904.633   126561778.156    24083912.074    98619604.9244                 
                
 21  8 16  7 35  0.0000000  0 15R12G26R 6R 4R21G29R 5G16G18G27R20G15
                                G10G23G13
  23075138.570   123263252.999                    95871410.670    23075142.855  
  23075137.953  
  22201823.289   116671369.536    22201833.738    90912790.4464   22201833.480  
                
  22038292.641   117600563.431                                                  
  22038290.129  
  22283727.133   119328375.609                    92810974.579    22283730.902  
  22283726.207  
  20993895.867   112342591.214                    87377563.741    20993899.363  
  20993894.066  
  23169609.594   121757108.413    23169617.805    94875691.0454   23169617.980  
                
  20013776.461   106985137.117                    83210658.207    20013781.016  
  20013776.164  
  21865206.430   114902447.677    21865212.254    89534403.4044                 
                
  20498277.500   107719210.709    20498284.547    83937065.2294   20498284.547  
                
  22935283.195   120525717.263    22935291.766    93916198.3084   22935291.781  
                
  20049253.164   107212381.790                    83387431.028    20049259.836  
  20049252.324  
  22624027.328   118890099.605    22624034.578    92641671.9014   22624034.391  
                
  22114521.227   116212619.887    22114530.844    90555343.9324   22114530.355  
                
  20396124.547   107182392.859    20396132.074    83518783.1754   20396131.836  
                
  24084514.422   126564982.589    24084521.957    98622101.9074                 
                
 21  8 16  7 35 10.0000000  0 15R12G26R 6R 4R21G29R 5G16G18G27R20G15
                                G10G23G13
  23072338.000   123248292.728                    95859774.929    23072342.250  
  23072337.445  
  22205890.766   116692744.274    22205901.223    90929446.0804   22205900.957  
                
  22030332.023   117558084.301                                                  
  22030329.504  
  22289629.812   119359984.177                    92835559.005    22289633.621  
  22289628.875  
  20989463.094   112318870.593                    87359114.375    20989466.582  
  20989461.309  
  23175518.227   121788158.144    23175526.422    94899885.6374   23175526.559  
                
  20012744.031   106979618.194                    83206365.723    20012748.578  
  20012743.738  
  21865319.656   114903042.706    21865325.508    89534867.0584                 
                
  20500259.945   107729628.491    20500267.004    83945182.9754   20500266.996  
                
  22929388.125   120494738.467    22929396.758    93892058.9864   22929396.770  
                
  20051120.844   107222369.104                    83395198.938    20051127.512  
  20051119.992  
  22623217.461   118885843.753    22623224.746    92638355.6624   22623224.559  
                
  22109114.234   116184206.040    22109123.883    90533203.2794   22109123.383  
                
  20394227.734   107172425.065    20394235.285    83511016.0684   20394235.047  
                
  24085136.461   126568251.488    24085144.039    98624649.0884                 
                
 21  8 16  7 35 20.0000000  0 15R12G26R 6R 4R21G29R 5G16G18G27R20G15
                                G10G23G13
  23069552.242   123233411.706                    95848200.817    23069556.457  
  23069551.750  
  22209967.164   116714165.865    22209977.625    90946138.2174   22209977.348  
                
  22022376.969   117515635.279                                                  
  22022374.527  
  22295543.578   119391652.175                    92860189.660    22295547.410  
  22295542.617  
  20985033.922   112295169.197                    87340679.964    20985037.387  
  20985032.121  
  23181431.898   121819234.395    23181440.102    94924100.8894   23181440.188  
                
  20011728.977   106974192.150                    83202145.473    20011733.516  
  20011728.703  
  21865446.039   114903706.842    21865451.922    89535384.5654                 
                
  20502248.383   107740077.776    20502255.461    83953325.2804   20502255.445  
                
  22923496.914   120463780.001    22923505.613    93867935.5274   22923505.629  
                
  20052995.234   107232392.356                    83402994.793    20053001.902  
  20052994.363  
  22622420.547   118881655.969    22622427.848    92635092.4634   22622427.641  
                
  22103714.273   116155829.077    22103723.938    90511091.3714   22103723.438  
                
  20392342.445   107162517.847    20392350.012    83503296.1614   20392349.762  
                
  24085770.797   126571584.976    24085778.383    98627246.6384                 
                
 21  8 16  7 35 30.0000000  0 15R12G26R 6R 4R21G29R 5G16G18G27R20G15
                                G10G23G13
  23066781.352   123218610.044                    95836688.403    23066785.535  
  23066780.875  
  22214052.477   116735634.237    22214062.910    90962866.8104   22214062.629  
                
  22014427.516   117473216.115                                                  
  22014425.160  
  22301468.414   119423379.404                    92884866.383    22301472.281  
  22301467.441  
  20980608.352   112271487.105                    87322260.571    20980611.793  
  20980606.523  
  23187350.586   121850337.161    23187358.777    94948336.8044   23187358.840  
                
  20010731.344   106968859.215                    83197997.620    20010735.863  
  20010731.078  
  21865585.562   114904440.035    21865591.465    89535955.8844                 
                
  20504242.828   107750558.582    20504249.910    83961492.1384   20504249.887  
                
  22917609.594   120432841.975    22917618.320    93843827.9924   22917618.336  
                
  20054876.430   107242452.022                    83410818.961    20054883.082  
  20054875.535  
  22621636.594   118877536.292    22621643.895    92631882.3384   22621643.695  
                
  22098321.344   116127489.085    22098331.031    90489008.2774   22098330.539  
                
  20390468.695   107152671.238    20390476.273    83495623.4754   20390476.027  
                
  24086417.430   126574983.178    24086425.055    98629894.5624                 
                
 21  8 16  7 35 40.0000000  0 15R12G26R 6R 4R21G29R 5G16G18G27R20G15
                                G10G23G13
  23064025.258   123203887.562                    95825237.583    23064029.484  
  23064024.695  
  22218146.609   116757149.025    22218157.000    90979631.5734   22218156.742  
                
  22006483.789   117430826.719                                                  
  22006481.395  
  22307404.258   119455165.621                    92909588.986    22307408.145  
  22307403.289  
  20976186.352   112247824.144                    87303856.034    20976189.766  
  20976184.531  
  23193274.227   121881466.155    23193282.387    94972593.1494   23193282.473  
                
  20009751.031   106963618.875                    83193921.811    20009755.531  
  20009750.766  
  21865738.172   114905242.023    21865744.074    89536580.8054                 
                
  20506243.195   107761070.579    20506250.281    83969683.3084   20506250.258  
                
  22911726.141   120401924.209    22911734.852    93819736.2274   22911734.883  
                
  20056764.289   107252547.253                    83418670.808    20056770.930  
  20056763.391  
  22620865.562   118873484.535    22620872.891    92628725.1414   22620872.684  
                
  22092935.414   116099185.863    22092945.148    90466953.8234   22092944.641  
                
  20388606.414   107142884.959    20388613.996    83487997.8114   20388613.754  
                
  24087076.305   126578445.714    24087083.938    98632592.6674                 
                
 21  8 16  7 35 50.0000000  0 15R12G26R 6R 4R21G29R 5G16G18G27R20G15
                                G10G23G13
  23061284.000   123189244.371                    95813848.436    23061288.285  
  23061283.352  
  22222249.578   116778710.199    22222259.930    90996432.4794   22222259.688  
                
  21998545.633   117388467.337                                                  
  21998543.266  
  22313351.109   119487010.713                    92934357.402    22313355.000  
  22313350.168  
  20971767.922   112224180.277                    87285466.373    20971771.332  
  20971766.133  
  23199202.898   121912621.418    23199211.051    94996869.9554   23199211.121  
                
  20008788.117   106958471.516                    83189918.311    20008792.598  
  20008787.867  
  21865903.875   114906112.796    21865909.797    89537259.3304                 
                
  20508249.516   107771613.823    20508256.613    83977898.8224   20508256.574  
                
  22905846.570   120371026.862    22905855.285    93795660.3744   22905855.309  
                
  20058658.852   107262678.423                    83426550.590    20058665.500  
  20058657.926  
  22620107.492   118869500.848    22620114.891    92625620.9714   22620114.676  
                
  22087556.508   116070919.535    22087566.305    90444928.1234   22087565.777  
                
  20386755.633   107133159.111    20386763.215    83480419.2304   20386762.977  
                
  24087747.461   126581972.761    24087755.102    98635341.0414                 
                
 21  8 16  7 36  0.0000000  0 15R12G26R 6R 4R21G29R 5G16G18G27R20G15
                                G10G23G13
  23058557.594   123174680.567                    95802521.033    23058561.945  
  23058556.844  
  22226361.367   116800317.743    22226371.676    91013269.5134   22226371.465  
                
  21990613.062   117346138.115                                                  
  21990610.734  
  22319308.914   119518914.521                    92959171.471    22319312.836  
  22319307.980  
  20967353.125   112200555.812                    87267091.786    20967356.523  
  20967351.355  
  23205136.578   121943803.008    23205144.734    95021167.2784   23205144.785  
                
  20007842.562   106953416.967                    83185986.984    20007847.027  
  20007842.328  
  21866082.680   114907052.395    21866088.621    89537991.4834                 
                
  20510261.781   107782188.359    20510268.883    83986138.7164   20510268.844  
                
  22899970.891   120340150.031    22899979.633    93771600.5304   22899979.652  
                
  20060560.188   107272845.696                    83434458.460    20060566.805  
  20060559.238  
  22619362.375   118865585.261    22619369.820    92622569.8724   22619369.590  
                
  22082184.633   116042690.223    22082194.445    90422931.2704   22082193.926  
                
  20384916.367   107123493.756    20384923.953    83472887.7924   20384923.711  
                
  24088430.891   126585564.256    24088438.523    98638139.6054                 
                
 21  8 16  7 36 10.0000000  0 15R12G26R 6R 4R21G29R 5G16G18G27R20G15
                                G10G23G13
  23055846.102   123160196.275                    95791255.514    23055850.480  
