     2.11           OBSERVATION DATA    M (MIXED)           RINEX VERSION / TYPE
EFT-CORS.RU                             20210817 150708 UTC PGM / RUN BY / DATE 
MDNG                                                        MARKER NAME         
                                                            MARKER NUMBER       
MDNG                EFT-CORS.RU                             OBSERVER / AGENCY   
0                   TRIMBLE BD970       2.0                 REC # / TYPE / VERS 
0                   UNKNOWN EXT NONE                        ANT # / TYPE        
  3463911.2830  3030468.2400  4402179.3760                  APPROX POSITION XYZ 
        0.0000        0.0000        0.0000                  ANTENNA: DELTA H/E/N
     1     1                                                WAVELENGTH FACT L1/2
     6    C1    L1    P2    L2    C2    P1                  # / TYPES OF OBSERV 
    10.000                                                  INTERVAL            
  2021     8    14    20    30    0.0000000     GPS         TIME OF FIRST OBS   
  2021     8    14    21    30    0.0000000     GPS         TIME OF LAST OBS    
     0                                                      RCV CLOCK OFFS APPL 
                                                            END OF HEADER       
 21  8 14 20 30  0.0000000  0 17G17G15R21R 3G 9G14G 7G 5G13G 8R13G20
                                G30R 2R20R12R 1
  24274175.461   127561654.033    24274182.496    99398719.6724   24274182.312  
                
  24182659.484   127080731.939    24182665.969    99023976.8984   24182666.109  
                
  23217866.117   124243493.422                    96633827.330    23217869.574  
  23217864.164  
  22208360.680   118883114.789                    92464642.437    22208365.008  
  22208359.465  
  24274858.102   127565267.206    24274866.215    99401555.2174   24274866.312  
                
  20677011.961   108658447.743    20677018.602    84668965.7544   20677018.570  
                
  21749175.961   114292737.389    21749181.887    89059324.2574   21749181.812  
                
  22780674.727   119713256.650    22780680.750    93283098.1404   22780680.852  
                
  21852882.164   114837681.716    21852888.004    89483942.5064                 
                
  23448435.898   123222372.000    23448444.730    96017484.2564   23448445.328  
                
  22333783.266   119261182.507                    92758697.268    22333786.516  
  22333781.293  
  23135726.328   121579057.090    23135732.441    94736962.4424                 
                
  20523672.992   107852678.688    20523681.348    84041103.3924   20523681.477  
                
  19377944.086   103404444.851                    80425677.286    19377947.152  
  19377942.055  
  23454821.398   125423473.659                    97551605.377    23454826.605  
                
  19462071.812   103962920.566                    80860042.955    19462075.293  
  19462071.309  
  21868388.984   116899082.259                    90921507.773    21868395.148  
  21868388.414  
 21  8 14 20 30 10.0000000  0 17G17G15R21R 3G 9G14G 7G 5G13G 8R13G20
                                G30R 2R20R12R 1
  24267692.617   127527586.371    24267699.598    99372173.4334   24267699.414  
                
  24176035.648   127045923.516    24176042.180    98996853.4674   24176042.309  
                
  23212817.625   124216477.544                    96612814.962    23212820.984  
  23212815.641  
  22201652.945   118847207.727                    92436714.721    22201657.246  
  22201651.734  
  24281776.172   127601622.078    24281784.301    99429883.7024   24281784.422  
                
  20673881.758   108641998.427    20673888.434    84656148.1104   20673888.398  
                
  21752565.938   114310551.823    21752571.855    89073205.6294   21752571.797  
                
  22782370.484   119722167.919    22782376.574    93290041.9944   22782376.664  
                
  21847816.180   114811059.850    21847822.047    89463198.1964                 
                
  23451400.547   123237951.469    23451409.391    96029624.0944   23451409.953  
                
  22328184.656   119231286.098                    92735444.498    22328187.871  
  22328182.695  
  23140601.773   121604677.696    23140607.863    94756926.5614                 
                
  20524058.086   107854702.366    20524066.445    84042680.2864   20524066.574  
                
  19377954.211   103404498.893                    80425719.320    19377957.293  
  19377952.172  
  23456013.609   125429848.296                    97556563.442    23456018.723  
                
  19461468.094   103959695.639                    80857534.682    19461471.570  
  19461467.586  
  21876212.086   116940901.448                    90954033.807    21876218.277  
  21876211.531  
 21  8 14 20 30 20.0000000  0 17G17G15R21R 3G 9G14G 7G 5G13G 8R13G20
                                G30R 2R20R12R 1
  24261210.141   127493520.632    24261217.078    99345628.7224   24261216.910  
                
  24169415.570   127011134.896    24169422.160    98969745.4944   24169422.281  
                
  23207779.383   124189516.813                    96591845.530    23207782.738  
  23207777.383  
  22194953.695   118811346.143                    92408822.374    22194957.977  
  22194952.512  
  24288697.195   127637992.045    24288705.301    99458223.9374   24288705.434  
                
  20670761.555   108625601.617    20670768.262    84643371.3794   20670768.211  
                
  21755960.250   114328389.009    21755966.164    89087104.7344   21755966.109  
                
  22784077.977   119731140.860    22784084.141    93297033.8974   22784084.211  
                
  21842756.359   114784470.327    21842762.238    89442479.0964                 
                
  23454376.781   123253591.756    23454385.641    96041811.3224   23454386.211  
                
  22322591.406   119201418.175                    92712213.887    22322594.543  
  22322589.398  
  23145483.562   121630331.613    23145489.629    94776916.6254                 
                
  20524449.531   107856759.408    20524457.906    84044283.1784   20524458.023  
                
  19377981.438   103404644.118                    80425832.269    19377984.520  
  19377979.402  
  23457221.555   125436307.762                    97561587.467    23457226.699  
                
  19460873.586   103956519.855                    80855064.638    19460877.051  
  19460873.070  
  21884041.602   116982754.821                    90986586.411    21884047.879  
  21884041.066  
 21  8 14 20 30 30.0000000  0 17G17G15R21R 3G 9G14G 7G 5G13G 8R13G20
                                G30R 2R20R12R 1
  24254728.023   127459456.883    24254734.926    99319085.5494   24254734.797  
                
  24162799.273   126976366.070    24162805.875    98942652.9124   24162806.004  
                
  23202751.445   124162611.292                    96570919.053    23202754.820  
  23202749.445  
  22188263.000   118775530.291                    92380965.594    22188267.234  
  22188261.820  
  24295621.016   127674376.920    24295629.145    99486575.7854   24295629.262  
                
  20667651.312   108609257.219    20667658.039    84630635.4894   20667657.977  
                
  21759358.867   114346248.867    21759364.785    89101021.5034   21759364.723  
                
  22785797.164   119740175.263    22785803.391    93304073.6744   22785803.445  
                
  21837702.688   114757913.184    21837708.582    89421785.2314                 
                
  23457364.609   123269292.967    23457373.473    96054046.0234   23457374.062  
                
  22317003.273   119171578.183                    92689005.055    22317006.461  
  22317001.332  
  23150371.609   121656018.497    23150377.664    94796932.3904                 
                
  20524847.289   107858849.630    20524855.684    84045911.9204   20524855.785  
                
  19378025.711   103404880.357                    80426016.001    19378028.785  
  19378023.668  
  23458445.297   125442851.967                    97566677.424    23458450.547  
                
  19460288.211   103953392.904                    80852632.561    19460291.664  
  19460287.707  
  21891877.422   117024642.065                    91019165.364    21891883.848  
  21891876.949  
 21  8 14 20 30 40.0000000  0 17G17G15R21R 3G 9G14G 7G 5G13G 8R13G20
                                G30R 2R20R12R 1
  24248246.312   127425395.246    24248253.133    99292544.0294   24248253.055  
                
  24156186.750   126941617.106    24156193.352    98915575.8104   24156193.504  
                
  23197733.812   124135761.180                    96550035.649    23197737.270  
  23197731.832  
  22181580.820   118739760.171                    92353144.392    22181585.027  
  22181579.656  
  24302547.633   127710776.708    24302555.836    99514939.2454   24302555.930  
                
  20664551.062   108592965.322    20664557.805    84617940.5124   20664557.738  
                
  21762761.797   114364131.397    21762767.734    89114955.9344   21762767.664  
                
  22787528.031   119749271.055    22787534.328    93311161.3044   22787534.355  
                
  21832655.219   114731388.579    21832661.125    89401116.7184                 
                
  23460363.977   123285054.816    23460372.840    96066327.9744   23460373.430  
                
  22311420.430   119141766.354                    92665818.094    22311423.691  
  22311418.531  
  23155265.938   121681738.313    23155271.965    94816973.8304                 
                
  20525251.375   107860973.132    20525259.805    84047566.5994   20525259.887  
                
  19378087.125   103405208.070                    80426270.886    19378090.199  
  19378085.090  
  23459685.000   125449480.796                    97571833.162    23459690.223  
                
  19459711.984   103950314.828                    80850238.517    19459715.438  
  19459711.473  
  21899719.656   117066562.914                    91051770.452    21899726.105  
  21899719.129  
 21  8 14 20 30 50.0000000  0 17G17G15R21R 3G 9G14G 7G 5G13G 8R13G20
                                G30R 2R20R12R 1
  24241765.133   127391336.357    24241771.855    99266004.6454   24241771.793  
                
  24149578.102   126906888.558    24149584.727    98888514.6294   24149584.875  
                
  23192726.688   124108967.163                    96529195.845    23192730.125  
  23192724.723  
  22174907.344   118704036.588                    92325359.382    22174911.527  
  22174906.176  
  24309477.117   127747191.783    24309485.426    99543314.6344   24309485.516  
                
  20661460.898   108576726.429    20661467.648    84605286.8354   20661467.586  
                
  21766169.133   114382037.084    21766175.098    89128908.4074   21766175.031  
                
  22789270.688   119758428.850    22789277.047    93318297.2494   22789277.070  
                
  21827614.047   114704897.110    21827619.945    89380474.0204                 
                
  23463375.016   123300877.983    23463383.887    96078657.7074   23463384.488  
                
  22305842.914   119111983.089                    92642653.362    22305846.238  
  22305841.000  
  23160166.578   121707491.404    23160172.609    94837041.1694                 
                
  20525661.891   107863130.391    20525670.355    84049247.5824   20525670.414  
                
  19378165.688   103405627.301                    80426596.954    19378168.766  
  19378163.652  
  23460940.602   125456194.953                    97577055.302    23460945.836  
                
  19459145.016   103947286.193                    80847882.919    19459148.473  
  19459144.512  
  21907568.305   117108517.938                    91084402.141    21907574.738  
  21907567.707  
 21  8 14 20 31  0.0000000  0 17G17G15R21R 3G 9G14G 7G 5G13G 8R13G20
                                G30R 2R20R12R 1
  24235284.508   127357280.083    24235291.094    99239467.2774   24235291.039  
                
  24142973.312   126872180.362    24142979.949    98861469.2954   24142980.094  
                
  23187730.031   124082229.048                    96508399.549    23187733.438  
  23187728.078  
  22168242.531   118668359.408                    92297610.462    22168246.711  
  22168241.383  
  24316409.523   127783621.874    24316417.879    99571701.7174   24316417.945  
                
  20658380.781   108560540.347    20658387.516    84592674.3114   20658387.473  
                
  21769580.828   114399965.681    21769586.816    89142878.7404   21769586.738  
                
  22791025.102   119767648.388    22791031.500    93325481.2904   22791031.488  
                
  21822579.172   114678438.735    21822585.031    89359857.1034                 
                
  23466397.672   123316762.195    23466406.559    96091034.9984   23466407.176  
                
  22300270.773   119082228.397                    92619510.844    22300274.121  
  22300268.844  
  23165073.500   121733277.548    23165079.574    94857134.2744                 
                
  20526078.781   107865321.161    20526087.285    84050954.6764   20526087.324  
                
  19378261.367   103406137.826                    80426994.027    19378264.449  
  19378259.328  
  23462212.117   125462994.038                    97582343.475    23462217.289  
                
  19458587.242   103944306.643                    80845565.494    19458590.688  
  19458586.734  
  21915423.219   117150506.716                    91117060.085    21915429.652  
  21915422.578  
 21  8 14 20 31 10.0000000  0 17G17G15R21R 3G 9G14G 7G 5G13G 8R13G20
                                G30R 2R20R12R 1
  24228804.383   127323226.377    24228810.797    99212931.9024   24228810.809  
                
  24136372.375   126837492.349    24136378.996    98834439.6894   24136379.152  
                
  23182743.844   124055546.928                    96487646.795    23182747.223  
  23182741.887  
  22161586.406   118632728.696                    92269897.704    22161590.578  
  22161585.270  
  24323344.695   127820066.759    24323353.133    99600100.3334   24323353.176  
                
  20655310.695   108544406.937    20655317.422    84580102.8234   20655317.387  
                
  21772996.852   114417916.965    21773002.867    89156866.7494   21773002.789  
                
  22792791.266   119776929.612    22792797.676    93332713.4114   22792797.672  
                
  21817550.602   114652013.445    21817556.434    89339265.9774                 
                
  23469431.898   123332707.238    23469440.785    96103459.6924   23469441.402  
                
  22294703.867   119052502.103                    92596390.446    22294707.312  
  22294701.941  
  23169986.688   121759096.360    23169992.758    94877252.8244                 
                
  20526502.023   107867545.299    20526510.559    84052687.7724   20526510.574  
                
  19378374.219   103406740.043                    80427462.426    19378377.324  
  19378372.168  
  23463499.398   125469877.878                    97587697.587    23463504.613  
                
  19458038.609   103941375.959                    80843286.078    19458042.059  
  19458038.102  
  21923284.508   117192529.004                    91149744.112    21923290.773  
  21923283.746  
 21  8 14 20 31 20.0000000  0 17G17G15R21R 3G 9G14G 7G 5G13G 8R13G20
                                G30R 2R20R12R 1
  24222324.719   127289175.257    24222331.020    99186398.5354   24222331.070  
                
  24129775.336   126802824.667    24129781.984    98807425.9274   24129782.125  
                
  23177768.180   124028920.931                    96466937.669    23177771.535  
  23177766.211  
  22154938.992   118597144.397                    92242221.014    22154943.137  
  22154937.875  
  24330282.617   127856526.310    24330291.156    99628510.3764   24330291.180  
                
  20652250.633   108528326.163    20652257.363    84567572.3564   20652257.328  
                
  21776417.195   114435890.971    21776423.238    89170872.4564   21776423.145  
                
  22794569.086   119786272.056    22794575.500    93339993.2414   22794575.520  
                
  21812528.289   114625621.063    21812534.113    89318700.4904                 
                
  23472477.680   123348712.962    23472486.574    96115931.7054   23472487.180  
                
  22289142.250   119022804.142                    92573292.028    22289145.789  
  22289140.344  
  23174906.031   121784947.640    23174912.086    94897396.6974                 
                
  20526931.609   107869802.740    20526940.164    84054446.8164   20526940.172  
                
  19378504.180   103407433.522                    80428001.789    19378507.270  
  19378502.133  
  23464802.477   125476846.484                    97593117.598    23464807.770  
                
  19457499.125   103938494.142                    80841044.666    19457502.566  
  19457498.625  
  21931151.945   117234584.478                    91182453.936    21931158.059  
  21931151.113  
 21  8 14 20 31 30.0000000  0 17G17G15R21R 3G 9G14G 7G 5G13G 8R13G20
                                G30R 2R20R12R 1
  24215845.570   127255126.951    24215851.840    99159867.3754   24215851.879  
                
  24123182.188   126768177.484    24123188.844    98780428.1584   24123188.984  
                
  23172802.961   124002351.170                    96446272.319    23172806.328  
  23172800.984  
  22148300.273   118561606.859                    92214580.699    22148304.402  
  22148299.188  
  24337223.406   127893000.488    24337231.965    99656931.8184   24337231.977  
                
  20649200.586   108512298.097    20649207.320    84555082.9624   20649207.281  
                
  21779841.859   114453887.719    21779847.922    89184895.8954   21779847.832  
                
  22796358.547   119795675.740    22796364.965    93347320.7884   22796365.000  
                
  21807512.273   114599261.740    21807518.078    89298160.7594                 
                
  23475534.938   123364779.065    23475543.891    96128450.7434   23475544.477  
                
  22283585.945   118993134.682                    92550215.789    22283589.586  
  22283584.109  
  23179831.531   121810831.370    23179837.539    94917565.8364                 
                
  20527367.531   107872093.540    20527376.094    84056231.8584   20527376.090  
                
  19378651.305   103408218.622                    80428612.418    19378654.395  
  19378649.266  
  23466121.516   125483899.797                    97598603.516    23466126.797  
                
  19456968.766   103935661.074                    80838841.164    19456972.211  
  19456968.258  
  21939025.594   117276673.200                    91215189.632    21939031.539  
  21939024.719  
 21  8 14 20 31 40.0000000  0 17G17G15R21R 3G 9G14G 7G 5G13G 8R13G20
                                G30R 2R20R12R 1
  24209366.906   127221081.496    24209373.227    99133338.4524   24209373.285  
                
  24116592.969   126733550.820    24116599.594    98753446.3334   24116599.750  
                
  23167848.266   123975837.781                    96425650.797    23167851.641  
  23167846.297  
  22141670.328   118526116.181                    92186976.847    22141674.426  
  22141669.242  
  24344167.008   127929489.257    24344175.566    99685364.6314   24344175.574  
                
  20646160.578   108496322.789    20646167.305    84542634.6774   20646167.266  
                
  21783270.859   114471907.219    21783276.938    89198937.0574   21783276.840  
                
  22798159.680   119805140.727    22798166.094    93354696.0944   22798166.137  
                
  21802502.578   114572935.616    21802508.359    89277646.9094                 
                
  23478603.719   123380905.660    23478612.738    96141016.9304   23478613.285  
                
  22278035.055   118963493.341                    92527161.442    22278038.703  
  22278033.258  
  23184763.180   121836747.447    23184769.191    94937760.1804                 
                
  20527809.812   107874417.727    20527818.379    84058042.9154   20527818.383  
                
  19378815.539   103409094.978                    80429294.029    19378818.633  
  19378813.504  
  23467456.320   125491037.646                    97604155.145    23467461.590  
                
  19456447.555   103932876.893                    80836675.699    19456451.008  
  19456447.035  
  21946905.352   117318794.956                    91247951.021    21946911.230  
  21946904.527  
 21  8 14 20 31 50.0000000  0 17G17G15R21R 3G 9G14G 7G 5G13G 8R13G20
                                G30R 2R20R12R 1
  24202888.844   127187039.166    24202895.234    99106811.9584   24202895.273  
                
  24110007.688   126698944.836    24110014.340    98726480.6654   24110014.477  
                
  23162904.172   123949381.158                    96405073.456    23162907.547  
  23162902.270  
  22135049.203   118490672.634                    92159409.650    22135053.273  
  22135048.086  
  24351113.406   127965992.704    24351121.941    99713808.8894   24351121.945  
                
  20643130.648   108480400.406    20643137.352    84530227.6324   20643137.324  
                
  21786704.203   114489949.560    21786710.289    89212996.0254   21786710.176  
                
  22799972.492   119814667.111    22799978.891    93362119.2474   22799978.938  
                
  21797499.250   114546642.978    21797505.027    89257159.1354                 
                
  23481684.055   123397092.971    23481693.129    96153630.4254   23481693.672  
                
  22272489.484   118933880.680                    92504129.389    22272493.180  
  22272487.758  
  23189700.984   121862695.874    23189707.004    94957979.7394                 
                
  20528258.469   107876775.428    20528267.031    84059880.0904   20528267.039  
                
  19378996.914   103410062.817                    80430046.785    19379000.012  
  19378994.895  
  23468807.031   125498260.450                    97609772.886    23468812.277  
                
  19455935.492   103930141.549                    80834548.213    19455938.953  
  19455934.965  
  21954791.172   117360949.609                    91280737.985    21954797.070  
  21954790.445  
 21  8 14 20 32  0.0000000  0 17G17G15R21R 3G 9G14G 7G 5G13G 8R13G20
                                G30R 2R20R12R 1
  24196411.422   127152999.915    24196417.832    99080287.8784   24196417.855  
                
  24103426.344   126664359.540    24103433.008    98699531.0864   24103433.098  
                
  23157970.688   123922981.270                    96384540.209    23157974.074  
  23157968.816  
  22128436.867   118455276.183                    92131879.075    22128440.918  
  22128435.730  
  24358062.547   128002510.549    24358071.043    99742264.3724   24358071.066  
                
  20640110.750   108464530.768    20640117.434    84517861.6914   20640117.414  
                
  21790141.883   114508014.638    21790147.977    89227072.7074   21790147.852  
                
  22801796.938   119824254.602    22801803.301    93369590.0294   22801803.348  
                
  21792502.281   114520383.728    21792508.043    89236697.3884                 
                
  23484775.922   123413340.788    23484784.973    96166291.0604   23484785.539  
                
  22266949.305   118904296.515                    92481119.486    22266952.961  
  22266947.574  
  23194644.930   121888676.322    23194650.906    94978224.2584                 
                
  20528713.469   107879166.465    20528722.027    84061743.2384   20528722.043  
                
  19379195.414   103411122.035                    80430870.618    19379198.500  
  19379193.406  
  23470173.492   125505567.824                    97615456.437    23470178.766  
                
  19455432.539   103927454.884                    80832458.597    19455436.000  
  19455432.008  
  21962683.078   117403137.092                    91313550.468    21962689.074  
  21962682.422  
 21  8 14 20 32 10.0000000  0 17G17G15R21R 3G 9G14G 7G 5G13G 8R13G20
                                G30R 2R20R12R 1
  24189934.594   127118963.807    24189941.066    99053766.2514   24189941.051  
                
  24096848.914   126629794.917    24096855.609    98672597.6424   24096855.680  
                
  23153047.836   123896638.209                    96364051.164    23153051.219  
  23153045.992  
  22121833.328   118419926.938                    92104385.214    22121837.375  
  22121832.215  
  24365014.438   128039042.703    24365022.867    99770731.0124   24365022.895  
                
  20637100.891   108448713.879    20637107.555    84505536.8444   20637107.539  
                
  21793583.867   114526102.328    21793589.973    89241167.0144   21793589.836  
                
  22803633.016   119833903.177    22803639.324    93377108.3934   22803639.406  
                
  21787511.688   114494157.965    21787517.418    89216261.7324                 
                
  23487879.266   123429648.987    23487888.281    96178998.7624   23487888.871  
                
  22261414.438   118874740.574                    92458131.543    22261418.023  
  22261412.711  
  23199594.945   121914688.703    23199600.875    94998493.6514                 
                
  20529174.805   107881590.786    20529183.359    84063632.3184   20529183.363  
                
  19379411.039   103412272.604                    80431765.511    19379414.129  
  19379409.023  
  23471555.945   125512959.862                    97621205.781    23471561.039  
                
  19454938.672   103924816.725                    80830406.697    19454942.145  
  19454938.145  
  21970580.977   117445357.020                    91346388.180    21970587.184  
  21970580.449  
 21  8 14 20 32 20.0000000  0 17G17G15R21R 3G 9G14G 7G 5G13G 8R13G20
                                G30R 2R20R12R 1
  24183458.422   127084931.133    24183464.930    99027247.2584   24183464.863  
                
  24090275.523   126595251.446    24090282.223    98645680.6444   24090282.305  
                
  23148135.711   123870352.340                    96343606.628    23148139.055  
  23148133.871  
  22115238.719   118384625.309                    92076928.379    22115242.711  
  22115237.633  
  24371969.023   128075589.398    24371977.465    99799208.9694   24371977.520  
                
  20634101.141   108432950.045    20634107.773    84493253.3414   20634107.762  
                
  21797030.203   114544212.885    21797036.320    89255279.1314   21797036.160  
                
  22805480.758   119843613.038    22805487.012    93384674.5214   22805487.098  
                
  21782527.492   114467965.848    21782533.207    89195852.2914                 
                
  23490994.141   123446017.681    23491003.160    96191753.5994   23491003.762  
                
  22255885.062   118845213.464                    92435166.031    22255888.469  
  22255883.258  
  23204551.039   121940733.187    23204556.980    95018788.0594                 
                
  20529642.539   107884048.687    20529651.086    84065547.5724   20529651.086  
                
  19379643.797   103413514.645                    80432731.535    19379646.875  
  19379641.789  
  23472954.016   125520436.489                    97627020.945    23472959.156  
                
  19454453.961   103922227.462                    80828392.827    19454457.441  
  19454453.426  
  21978485.117   117487609.583                    91379251.272    21978491.441  
  21978484.625  
 21  8 14 20 32 30.0000000  0 17G17G15R21R 3G 9G14G 7G 5G13G 8R13G20
                                G30R 2R20R12R 1
  24176982.938   127050901.708    24176989.367    99000730.7884   24176989.266  
                
  24083706.047   126560728.753    24083712.676    98618779.8474   24083712.812  
                
  23143234.195   123844123.565                    96323206.482    23143237.574  
  23143232.363  
  22108652.945   118349371.121                    92049508.472    22108656.914  
  22108651.879  
  24378926.219   128112150.208    24378934.762    99827697.9214   24378934.832  
                
  20631111.406   108417238.938    20631118.000    84481010.9224   20631118.004  
                
  21800480.828   114562346.074    21800486.918    89269408.8794   21800486.785  
                
  22807340.078   119853383.861    22807346.281    93392288.1484   22807346.379  
                
  21777549.656   114441807.134    21777555.371    89175468.8804                 
                
  23494120.430   123462446.407    23494129.461    96204555.2124   23494130.051  
                
  22250360.930   118815714.495                    92412222.392    22250364.262  
  22250359.062  
  23209513.141   121966809.315    23209519.098    95039107.1264                 
                
  20530116.586   107886539.829    20530125.117    84067488.7194   20530125.117  
                
  19379893.727   103414848.339                    80433768.849    19379896.801  
  19379891.723  
  23474368.000   125527997.696                    97632901.894    23474373.098  
                
  19453978.297   103919686.589                    80826416.577    19453981.766  
  19453977.758  
  21986395.383   117529894.311                    91412139.380    21986401.719  
  21986394.859  
 21  8 14 20 32 40.0000000  0 17G17G15R21R 3G 9G14G 7G 5G13G 8R13G20
                                G30R 2R20R12R 1
  24170508.141   127016875.909    24170514.500    98974217.1334   24170514.348  
                
  24077140.617   126526227.257    24077147.164    98591895.5644   24077147.355  
                
  23138343.445   123817952.249                    96302851.020    23138346.824  
  23138341.578  
  22102076.141   118314164.950                    92022125.908    22102080.133  
  22102075.102  
  24385886.094   128148725.360    24385894.816    99856198.0594   24385894.863  
                
  20628131.773   108401580.877    20628138.340    84468809.8364   20628138.367  
                
  21803935.812   114580502.165    21803941.883    89283556.4864   21803941.781  
                
  22809211.031   119863215.784    22809217.195    93399949.3844   22809217.305  
                
  21772578.258   114415682.297    21772583.957    89155111.8764                 
                
  23497258.219   123478935.557    23497267.230    96217403.8884   23497267.832  
                
  22244842.094   118786244.387                    92389301.205    22244845.445  
  22244840.266  
  23214481.266   121992917.197    23214487.270    95059450.9294                 
                
  20530597.016   107889064.503    20530605.531    84069455.9984   20530605.535  
                
  19380160.867   103416273.834                    80434877.568    19380163.945  
  19380158.863  
  23475797.805   125535643.417                    97638848.585    23475802.922  
                
  19453511.758   103917194.438                    80824478.242    19453515.234  
  19453511.238  
  21994311.789   117572211.487                    91445052.753    21994318.066  
  21994311.234  
 21  8 14 20 32 50.0000000  0 17G17G15R21R 3G 9G14G 7G 5G13G 8R13G20
                                G30R 2R20R12R 1
  24164034.062   126982853.813    24164040.344    98947706.3414   24164040.152  
                
  24070579.234   126491747.031    24070585.754    98565027.8614   24070585.938  
                
  23133463.430   123791838.564                    96282540.355    23133466.824  
  23133461.559  
  22095508.297   118279006.821                    91994780.683    22095512.316  
  22095507.266  
  24392848.727   128185314.720    24392857.598    99884709.2624   24392857.594  
                
  20625162.234   108385975.854    20625168.785    84456650.0914   20625168.824  
                
  21807395.156   114598681.118    21807401.242    89297721.8894   21807401.129  
                
  22811093.562   119873108.573    22811099.715    93407658.0534   22811099.836  
                
  21767613.336   114389591.416    21767619.004    89134781.3224                 
                
  23500407.508   123495485.097    23500416.523    96230299.6534   23500417.137  
                
  22239328.656   118756802.978                    92366402.363    22239331.984  
  22239326.863  
  23219455.430   122019056.738    23219461.457    95079819.4194                 
                
  20531083.828   107891622.671    20531092.320    84071449.3814   20531092.336  
                
  19380445.172   103417790.910                    80436057.513    19380448.246  
  19380443.164  
  23477243.359   125543373.805                    97644861.104    23477248.637  
                
  19453054.336   103914750.973                    80822577.775    19453057.809  
  19453053.820  
  22002234.211   117614560.803                    91477991.115    22002240.418  
  22002233.621  
 21  8 14 20 33  0.0000000  0 17G17G15R21R 3G 9G14G 7G 5G13G 8R13G20
                                G30R 2R20R12R 1
  24157560.641   126948835.373    24157566.844    98921198.4184   24157566.648  
                
  24064021.891   126457288.016    24064028.355    98538176.6654   24064028.535  
                
  23128594.219   123765782.543                    96262274.524    23128597.586  
  23128592.348  
  22088949.406   118243896.567                    91967472.720    22088953.465  
  22088948.367  
  24399814.000   128221918.080    24399823.039    99913231.3764   24399822.992  
                
  20622202.758   108370423.723    20622209.301    84444531.5554   20622209.336  
                
  21810858.789   114616882.614    21810864.879    89311904.8754   21810864.750  
                
  22812987.664   119883062.154    22812993.824    93415414.0724   22812993.926  
                
  21762654.844   114363534.400    21762660.488    89114477.1584                 
                
  23503568.242   123512094.771    23503577.277    96243242.2774   23503577.898  
                
  22233820.633   118727389.946                    92343525.555    22233823.855  
  22233818.758  
  23224435.547   122045227.693    23224441.641    95100212.3624                 
                
  20531576.977   107894214.158    20531585.445    84073468.7264   20531585.473  
                
  19380746.586   103419399.314                    80437308.485    19380749.637  
  19380744.570  
  23478704.828   125551188.626                    97650939.294    23478710.094  
                
  19452605.945   103912355.756                    80820714.835    19452609.434  
  19452605.426  
  22010162.602   117656941.929                    91510954.221    22010168.727  
  22010161.969  
 21  8 14 20 33 10.0000000  0 17G17G15R21R 3G 9G14G 7G 5G13G 8R13G20
                                G30R 2R20R12R 1
  24151087.977   126914820.826    24151094.094    98894693.5164   24151093.910  
                
  24057468.617   126422850.446    24057475.035    98511342.1994   24057475.227  
                
  23123735.828   123739784.436                    96242053.796    23123739.203  
  23123733.984  
  22082399.531   118208834.633                    91940202.332    22082403.648  
  22082398.508  
  24406781.992   128258535.520    24406791.141    99941764.4714   24406791.070  
                
  20619253.383   108354924.653    20619259.922    84432454.3664   20619259.949  
                
  21814326.727   114635106.750    21814332.781    89326105.4994   21814332.672  
                
  22814893.352   119893076.642    22814899.520    93423217.5614   22814899.617  
                
  21757702.836   114337511.430    21757708.453    89094199.5084                 
                
  23506740.406   123528764.486    23506749.484    96256231.6624   23506750.082  
                
  22228317.992   118698005.790                    92320671.244    22228321.172  
  22228316.055  
  23229421.711   122071430.064    23229427.836    95120629.8034                 
                
  20532076.500   107896839.153    20532084.949    84075514.1764   20532084.992  
                
  19381065.172   103421099.356                    80438630.746    19381068.207  
  19381063.148  
  23480182.062   125559087.986                    97657083.256    23480187.391  
                
  19452166.664   103910009.176                    80818889.714    19452170.145  
  19452166.148  
  22018096.844   117699354.908                    91543942.093    22018103.016  
  22018096.234  
 21  8 14 20 33 20.0000000  0 17G17G15R21R 3G 9G14G 7G 5G13G 8R13G20
                                G30R 2R20R12R 1
  24144616.008   126880810.234    24144622.098    98868191.6984   24144621.930  
                
  24050919.414   126388434.407    24050925.855    98484524.5154   24050926.039  
                
  23118888.289   123713844.444                    96221878.242    23118891.656  
  23118886.465  
  22075858.711   118173821.167                    91912969.637    22075862.875  
  22075857.707  
  24413752.648   128295166.984    24413761.887    99970308.5004   24413761.789  
                
  20616314.102   108339478.670    20616320.633    84420418.5384   20616320.652  
                
  21817798.984   114653353.632    21817805.023    89340323.8494   21817804.930  
                
  22816810.602   119903151.864    22816816.770    93431068.3744   22816816.879  
                
  21752757.352   114311522.778    21752762.953    89073948.6204                 
                
  23509924.000   123545494.277    23509933.121    96269267.8674   23509933.672  
                
  22222820.602   118668650.176                    92297839.134    22222823.832  
  22222818.684  
  23234413.773   122097663.687    23234419.941    95141071.5954                 
                
  20532582.391   107899497.627    20532590.816    84077585.7124   20532590.867  
                
  19381400.930   103422891.014                    80440024.250    19381403.957  
  19381398.910  
  23481675.109   125567071.805                    97663292.870    23481680.414  
                
  19451736.461   103907711.111                    80817102.328    19451739.945  
  19451735.953  
  22026036.906   117741799.549                    91576954.624    22026043.160  
  22026036.375  
 21  8 14 20 33 30.0000000  0 17G17G15R21R 3G 9G14G 7G 5G13G 8R13G20
                                G30R 2R20R12R 1
  24138144.953   126846803.931    24138150.941    98841693.2494   24138150.758  
                
  24044374.312   126354040.004    24044380.781    98457723.7064   24044380.977  
                
  23114051.688   123687962.628                    96201747.925    23114054.980  
  23114049.852  
  22069327.023   118138856.364                    91885774.781    22069331.184  
  22069326.031  
  24420725.883   128331812.386    24420735.246    99998863.3804   24420735.125  
                
  20613384.938   108324085.788    20613391.461    84408424.0864   20613391.469  
                
  21821275.578   114671623.272    21821281.641    89354559.9304   21821281.539  
                
  22818739.414   119913287.803    22818745.574    93438966.5104   22818745.695  
                
  21747818.383   114285568.315    21747823.996    89053724.3754                 
                
  23513119.016   123562284.055    23513128.121    96282350.8204   23513128.672  
                
  22217328.523   118639323.412                    92275029.478    22217331.887  
  22217326.645  
  23239411.773   122123928.523    23239417.973    95161537.7064                 
                
  20533094.656   107902189.571    20533103.062    84079683.3344   20533103.113  
                
  19381753.875   103424774.410                    80441489.103    19381756.902  
  19381751.852  
  23483183.977   125575140.147                    97669568.266    23483189.238  
                
  19451315.336   103905461.517                    80815352.651    19451318.824  
  19451314.828  
  22033982.906   117784275.857                    91609991.763    22033989.137  
  22033982.406  
 21  8 14 20 33 40.0000000  0 17G17G15R21R 3G 9G14G 7G 5G13G 8R13G20
                                G30R 2R20R12R 1
  24131674.672   126812801.796    24131680.555    98815198.0494   24131680.363  
                
  24037833.320   126319667.247    24037839.848    98430939.7514   24037840.039  
                
  23109225.961   123662139.057                    96181662.956    23109229.230  
  23109224.117  
  22062804.422   118103940.225                    91858617.790    22062808.574  
  22062803.434  
  24427701.844   128368471.567    24427711.258   100027429.0174   24427711.125  
                
  20610465.852   108308745.927    20610472.367    84396470.9554   20610472.367  
                
  21824756.492   114689915.637    21824762.574    89368813.7104   21824762.457  
                
  22820679.734   119923484.284    22820685.891    93446911.8284   22820686.027  
                
  21742885.914   114259648.042    21742891.535    89033526.7594                 
                
  23516325.391   123579133.584    23516334.449    96295480.3194   23516335.016  
                
  22211841.938   118610025.540                    92252242.260    22211845.320  
  22211840.035  
  23244415.695   122150224.297    23244421.875    95182027.9234                 
                
  20533613.266   107904914.904    20533621.648    84081806.9704   20533621.715  
                
  19382123.961   103426749.297                    80443025.126    19382126.980  
  19382121.930  
  23484708.266   125583292.663                    97675909.124    23484713.770  
                
  19450903.234   103903260.165                    80813640.487    19450906.707  
  19450902.723  
  22041934.734   117826783.510                    91643053.274    22041940.961  
  22041934.238  
 21  8 14 20 33 50.0000000  0 17G17G15R21R 3G 9G14G 7G 5G13G 8R13G20
                                G30R 2R20R12R 1
  24125205.062   126778803.846    24125210.969    98788706.1144   24125210.781  
                
  24031296.492   126285316.139    24031303.051    98404172.6514   24031303.242  
                
  23104411.094   123636373.792                    96161623.333    23104414.398  
  23104409.230  
  22056290.914   118069072.816                    91831498.693    22056295.062  
  22056289.930  
  24434680.422   128405144.405    24434689.852   100056005.2754   24434689.699  
                
  20607556.867   108293459.091    20607563.375    84384559.1364   20607563.363  
                
  21828241.727   114708230.657    21828247.824    89383085.1454   21828247.707  
                
  22822631.562   119933741.265    22822637.734    93454904.2664   22822637.871  
                
  21737959.969   114233762.049    21737965.574    89013355.8614                 
                
  23519543.156   123596042.974    23519552.168    96308656.4574   23519552.723  
                
  22206360.719   118580756.082                    92229477.166    22206364.082  
  22206358.777  
  23249425.469   122176551.025    23249431.668    95202542.2704                 
                
  20534138.227   107907673.562    20534146.586    84083956.5784   20534146.664  
                
  19382511.227   103428815.852                    80444632.435    19382514.246  
  19382509.191  
  23486248.539   125591529.546                    97682315.565    23486254.086  
                
  19450500.148   103901106.956                    80811965.775    19450503.613  
  19450499.633  
  22049892.375   117869322.365                    91676139.053    22049898.652  
  22049891.938  
 21  8 14 20 34  0.0000000  0 17G17G15R21R 3G 9G14G 7G 5G13G 8R13G20
                                G30R 2R20R12R 1
  24118736.344   126744810.250    24118742.215    98762217.5854   24118742.051  
                
  24024763.805   126250986.763    24024770.441    98377422.5034   24024770.594  
                
  23099607.188   123610667.197                    96141629.332    23099610.520  
  23099605.301  
  22049786.531   118034254.251                    91804417.580    22049790.660  
  22049785.559  
  24441661.586   128441830.853    24441671.016   100084592.1774   24441670.867  
                
  20604657.969   108278225.293    20604664.477    84372688.6494   20604664.465  
                
  21831731.266   114726568.291    21831737.395    89397374.2174   21831737.266  
                
  22824594.891   119944058.636    22824601.113    93462943.7714   22824601.273  
                
  21733040.594   114207910.591    21733046.199    88993211.8724                 
                
  23522772.281   123613012.086    23522781.230    96321879.1424   23522781.812  
                
  22200884.820   118551515.522                    92206734.527    22200888.254  
  22200882.953  
  23254441.086   122202908.363    23254447.277    95223080.4844                 
                
  20534669.531   107910465.610    20534677.859    84086132.2014   20534677.961  
                
  19382915.641   103430973.935                    80446310.948    19382918.676  
  19382913.602  
  23487804.641   125599850.640                    97688787.536    23487810.195  
                
  19450106.078   103899001.975                    80810328.576    19450109.547  
  19450105.566  
  22057855.883   117911892.300                    91709249.006    22057862.156  
  22057855.508  
 21  8 14 20 34 10.0000000  0 17G17G15R21R 3G 9G14G 7G 5G13G 8R13G20
                                G30R 2R20R12R 1
  24112268.406   126710821.097    24112274.320    98735732.5194   24112274.172  
                
  24018235.266   126216679.200    24018241.953    98350689.3354   24018242.070  
                
  23094814.281   123585019.352                    96121681.027    23094817.598  
  23094812.379  
  22043291.305   117999484.756                    91777374.643    22043295.438  
  22043290.320  
  24448645.414   128478530.792    24448654.762   100113189.5704   24448654.621  
                
  20601769.156   108263044.518    20601775.664    84360859.4794   20601775.656  
                
  21835225.102   114744928.486    21835231.258    89411680.8624   21835231.117  
                
  22826569.711   119954436.356    22826575.957    93471030.3054   22826576.133  
                
  21728127.789   114182093.638    21728133.391    88973094.7634                 
                
  23526012.742   123630040.725    23526021.637    96335148.2164   23526022.227  
                
  22195414.445   118522303.766                    92184014.292    22195417.801  
  22195412.520  
  23259462.516   122229296.314    23259468.691    95243642.5324                 
                
  20535207.180   107913290.965    20535215.477    84088333.7764   20535215.594  
                
  19383337.203   103433223.436                    80448060.548    19383340.246  
  19383335.160  
  23489376.445   125608255.755                    97695324.840    23489381.977  
                
  19449721.039   103896945.167                    80808728.839    19449724.508  
  19449720.543  
  22065825.391   117954492.960                    91742382.850    22065831.480  
  22065824.863  
 21  8 14 20 34 20.0000000  0 17G17G15R21R 3G 9G14G 7G 5G13G 8R13G20
                                G30R 2R20R12R 1
  24105801.328   126676836.437    24105807.320    98709250.9704   24105807.180  
                
  24011710.945   126182393.597    24011717.617    98323973.2794   24011717.711  
                
  23090032.352   123559430.125                    96101778.311    23090035.625  
  23090030.445  
  22036805.266   117964764.419                    91750369.937    22036809.410  
  22036804.277  
  24455631.797   128515244.141    24455641.051   100141797.4004   24455640.910  
                
  20598890.438   108247916.773    20598896.941    84349071.6234   20598896.938  
                
  21838723.219   114763311.226    21838729.367    89426005.0674   21838729.230  
                
  22828556.031   119964874.521    22828562.297    93479163.9374   22828562.508  
                
  21723221.516   114156311.039    21723227.125    88953004.4244                 
                
  23529264.516   123647128.819    23529273.363    96348463.6084   23529273.938  
                
  22189949.391   118493120.534                    92161316.250    22189952.770  
  22189947.434  
  23264489.711   122255714.645    23264495.910    95264228.2324                 
                
  20535751.164   107916149.624    20535759.430    84090561.3024   20535759.574  
                
  19383775.953   103435564.694                    80449881.540    19383779.027  
  19383773.906  
  23490963.992   125616745.084                    97701927.628    23490969.496  
                
  19449345.008   103894936.457                    80807166.506    19449348.473  
  19449344.520  
  22073800.586   117997124.250                    91775540.513    22073806.605  
  22073799.969  
 21  8 14 20 34 30.0000000  0 17G17G15R21R 3G 9G14G 7G 5G13G 8R13G20
                                G30R 2R20R12R 1
  24099335.086   126642856.663    24099341.223    98682773.2364   24099341.070  
                
  24005190.867   126148130.309    24005197.535    98297274.6124   24005197.598  
                
  23085261.477   123533900.146                    96081921.681    23085264.758  
  23085259.578  
  22030328.469   117930093.641                    91723403.778    22030332.629  
  22030327.477  
  24462620.797   128551971.119    24462629.961   100170415.8534   24462629.832  
                
  20596021.867   108232842.391    20596028.371    84337325.3564   20596028.363  
                
  21842225.688   114781716.791    21842231.809    89440347.0564   21842231.660  
                
  22830553.844   119975373.055    22830560.133    93487344.6104   22830560.324  
                
  21718321.875   114130563.256    21718327.504    88932941.2234                 
                
  23532527.672   123664276.789    23532536.480    96361825.6614   23532537.082  
                
  22184489.617   118463966.023                    92138640.520    22184493.004  
  22184487.773  
  23269522.742   122282163.521    23269528.980    95284837.7494                 
                
  20536301.539   107919041.885    20536309.785    84092815.0154   20536309.941  
                
  19384231.828   103437997.363                    80451773.607    19384234.906  
  19384229.773  
  23492567.266   125625318.687                    97708596.006    23492572.801  
                
  19448977.992   103892975.974                    80805641.678    19448981.473  
  19448977.508  
  22081781.516   118039786.533                    91808722.296    22081787.488  
  22081780.883  
 21  8 14 20 34 40.0000000  0 17G17G15R21R 3G 9G14G 7G 5G13G 8R13G20
                                G30R 2R20R12R 1
  24092869.836   126608881.783    24092876.070    98656299.3134   24092875.926  
                
  23998675.031   126113889.259    23998681.719    98270593.2934   23998681.734  
                
  23080501.695   123508429.415                    96062111.071    23080504.910  
  23080499.848  
  22023860.984   117895472.642                    91696476.327    22023865.141  
  22023859.961  
  24469612.406   128588711.549    24469621.453   100199044.7734   24469621.348  
                
  20593163.445   108217821.280    20593169.953    84325620.5954   20593169.941  
                
  21845732.484   114800145.086    21845738.574    89454706.7774   21845738.434  
                
  22832563.141   119985931.891    22832569.465    93495572.2754   22832569.652  
                
  21713428.867   114104850.306    21713434.516    88912905.1694                 
                
  23535802.180   123681484.364    23535810.957    96375234.1684   23535811.566  
                
  22179035.398   118434840.523                    92115987.361    22179038.688  
  22179033.516  
  23274561.570   122308642.708    23274567.844    95305470.8954                 
                
  20536858.297   107921967.650    20536866.520    84095094.8294   20536866.684  
                
  19384704.914   103440521.839                    80453737.087    19384707.996  
  19384702.852  
  23494186.406   125633976.570                    97715329.910    23494191.859  
                
  19448620.008   103891063.688                    80804154.342    19448623.473  
  19448619.535  
  22089768.219   118082479.333                    91841927.820    22089774.098  
  22089767.516  
 21  8 14 20 34 50.0000000  0 17G17G15R21R 3G 9G14G 7G 5G13G 8R13G20
                                G30R 2R20R12R 1
  24086405.445   126574911.500    24086411.773    98629828.9614   24086411.637  
                
  23992163.391   126079670.169    23992170.039    98243929.0474   23992170.055  
                
  23075752.961   123483017.884                    96042346.559    23075756.121  
  23075751.148  
  22017402.711   117860900.976                    91669587.251    22017406.875  
  22017401.672  
  24476606.453   128625465.017    24476615.406   100227683.8804   24476615.305  
                
  20590315.070   108202853.045    20590321.582    84313957.0404   20590321.574  
                
  21849243.516   114818595.709    21849249.578    89469083.8754   21849249.445  
                
  22834583.828   119996550.588    22834590.180    93503846.5864   22834590.344  
                
  21708542.422   114079171.922    21708548.105    88892896.0474                 
                
  23539087.922   123698751.029    23539096.645    96388688.7144   23539097.246  
                
  22173586.422   118405743.443                    92093356.307    22173589.684  
  22173584.531  
  23279606.039   122335151.770    23279612.406    95326127.3004                 
                
  20537421.344   107924926.519    20537429.555    84097400.4454   20537429.730  
                
  19385195.117   103443137.716                    80455771.655    19385198.172  
  19385193.039  
  23495821.211   125642718.088                    97722128.885    23495826.527  
                
  19448270.961   103889199.150                    80802704.142    19448274.410  
  19448270.500  
  22097760.500   118125202.218                    91875156.730    22097766.328  
  22097759.781  
 21  8 14 20 35  0.0000000  0 17G17G15R21R 3G 9G14G 7G 5G13G 8R13G20
                                G30R 2R20R12R 1
  24079942.125   126540946.357    24079948.480    98603362.6114   24079948.297  
                
  23985656.055   126045473.655    23985662.676    98217282.4024   23985662.676  
                
  23071015.328   123457665.965                    96022628.395    23071018.484  
  23071013.516  
  22010953.766   117826379.234                    91642737.025    22010957.926  
  22010952.668  
  24483603.000   128662231.877    24483611.906   100256333.4114   24483611.832  
                
  20587476.867   108187938.193    20587483.375    84302335.0824   20587483.383  
                
  21852758.891   114837069.045    21852764.941    89483478.6764   21852764.816  
                
  22836615.984   120007229.543    22836622.371    93512167.8504   22836622.512  
                
  21703662.695   114053528.756    21703668.418    88872914.3564                 
                
  23542384.969   123716077.103    23542393.684    96402189.5534   23542394.270  
                
  22168142.859   118376675.432                    92070747.866    22168146.156  
  22168141.020  
  23284656.273   122361691.046    23284662.699    95346807.2544                 
                
  20537990.789   107927918.956    20537998.988    84099732.2104   20537999.176  
                
  19385702.500   103445845.211                    80457877.470    19385705.531  
  19385700.430  
  23497471.734   125651543.824                    97728993.352    23497476.992  
                
  19447930.938   103887382.761                    80801291.403    19447934.383  
  19447930.477  
  22105758.398   118167955.504                    91908409.276    22105764.266  
  22105757.668  
 21  8 14 20 35 10.0000000  0 17G17G15R21R 3G 9G14G 7G 5G13G 8R13G20
                                G30R 2R20R12R 1
  24073479.719   126506986.438    24073486.129    98576900.3264   24073485.926  
                
  23979153.008   126011299.756    23979159.609    98190653.3944   23979159.617  
                
  23066288.898   123432373.758                    96002956.683    23066292.016  
  23066287.066  
  22004514.203   117791907.665                    91615925.794    22004518.348  
  22004513.059  
  24490602.102   128699012.035    24490610.949   100284993.3074   24490610.887  
                
  20584648.812   108173076.711    20584655.316    84290754.7054   20584655.336  
                
  21856278.562   114855565.040    21856284.598    89497891.1394   21856284.477  
                
  22838659.570   120017968.552    22838665.984    93520535.9134   22838666.105  
                
  21698789.656   114027920.796    21698795.379    88852960.1114                 
                
  23545693.344   123733462.737    23545702.078    96415736.7884   23545702.637  
                
  22162704.766   118347636.418                    92048162.001    22162708.055  
  22162702.879  
  23289712.234   122388260.320    23289718.691    95367510.5944                 
                
  20538566.609   107930944.928    20538574.801    84102090.1164   20538574.992  
                
  19386227.125   103448644.736                    80460054.860    19386230.148  
  19386225.039  
  23499137.922   125660453.761                    97735923.295    23499143.184  
                
  19447599.898   103885614.423                    80799916.031    19447603.336  
  19447599.410  
  22113761.836   118210738.926                    91941685.262    22113767.840  
  22113761.164  
 21  8 14 20 35 20.0000000  0 17G17G15R21R 3G 9G14G 7G 5G13G 8R13G20
                                G30R 2R20R12R 1
  24067018.375   126473031.865    24067024.801    98550442.2024   24067024.613  
                
  23972654.250   125977148.445    23972660.797    98164041.9764   23972660.828  
                
  23061573.633   123407141.362                    95983331.477    23061576.723  
  23061571.793  
  21998084.031   117757486.365                    91589153.683    21998088.184  
  21998082.867  
  24497603.680   128735805.311    24497612.508   100313663.4144   24497612.441  
                
  20581830.898   108158268.505    20581837.410    84279215.8454   20581837.430  
                
  21859802.523   114874083.568    21859808.539    89512321.1664   21859808.434  
                
  22840714.555   120028767.553    22840720.992    93528950.7124   22840721.105  
                
  21693923.305   114002347.875    21693929.012    88833033.1594                 
                
  23549012.992   123750907.583    23549021.758    96429330.1704   23549022.262  
                
  22157272.164   118318626.559                    92025598.803    22157275.406  
  22157270.277  
  23294773.906   122414859.433    23294780.363    95388237.1704                 
                
  20539148.789   107934004.327    20539156.973    84104474.0654   20539157.176  
                
  19386768.930   103451535.944                    80462303.584    19386771.961  
  19386766.832  
  23500819.805   125669447.634                    97742918.578    23500825.117  
                
