     2.11           OBSERVATION DATA    M (MIXED)           RINEX VERSION / TYPE
EFT-CORS.RU                             20210817 150604 UTC PGM / RUN BY / DATE 
MDNG                                                        MARKER NAME         
                                                            MARKER NUMBER       
MDNG                EFT-CORS.RU                             OBSERVER / AGENCY   
0                   TRIMBLE BD970       2.0                 REC # / TYPE / VERS 
0                   UNKNOWN EXT NONE                        ANT # / TYPE        
  3463911.2830  3030468.2400  4402179.3760                  APPROX POSITION XYZ 
        0.0000        0.0000        0.0000                  ANTENNA: DELTA H/E/N
     1     1                                                WAVELENGTH FACT L1/2
     6    C1    L1    P2    L2    C2    P1                  # / TYPES OF OBSERV 
    10.000                                                  INTERVAL            
  2021     8    14     7    30    0.0000000     GPS         TIME OF FIRST OBS   
  2021     8    14     8    30    0.0000000     GPS         TIME OF LAST OBS    
     0                                                      RCV CLOCK OFFS APPL 
                                                            END OF HEADER       
 21  8 14  7 30  0.0000000  0 19R10G15G26R 4R16R 2G29G18G27G 5R 3R 9
                                G10G23G16R18R17G13R19
  23272945.938   124057889.741                                                  
  23272944.895  
  22728482.352   119439006.345    22728489.789    93069395.9894   22728489.609  
                
  21908821.977   115131632.256    21908831.660    89713014.5344   21908831.625  
                
  22358895.516   119730890.154                    93124019.965    22358900.496  
  22358894.895  
  23075732.195   123266403.633                    95873888.458    23075735.391  
  23075731.547  
  21636875.219   115458524.391                    89801112.137    21636878.812  
  21636873.031  
  22712791.180   119356502.812    22712798.488    93005091.5114   22712798.785  
                
  20360499.133   106995152.661    20360505.867    83372888.4074   20360505.867  
                
  23410492.320   123022973.055    23410500.699    95862090.5694   23410500.898  
                
  24338017.203   127897131.721    24338024.418    99660138.6724   24338024.629  
                
  20204568.250   108156669.627                    84121864.793    20204572.582  
  20204566.824  
  21910378.992   117000222.967                    91000159.990    21910382.301  
  21910378.363  
  22562727.273   118567952.096    22562736.652    92390671.5354   22562736.219  
                
  20582048.062   108159408.591    20582054.840    84280109.3554   20582054.848  
                
  21895130.586   115059708.285    21895136.613    89656944.3834                 
                
  19868839.117   106061214.884                    82492059.316    19868842.480  
  19868837.457  
  22569629.039   120774603.286                    93935790.813    22569633.469  
  22569626.906  
  24074712.320   126513485.080    24074719.277    98581966.2004                 
                
  20576707.922   110071546.501                    85611232.066    20576711.066  
  20576705.535  
 21  8 14  7 30 10.0000000  0 19R10G15G26R 4R16R 2G29G18G27G 5R 3R 9
                                G10G23G16R18R17G13R19
  23269437.906   124039190.033                                                  
  23269436.914  
  22726674.742   119429507.294    22726682.219    93061994.1534   22726682.004  
                
  21912125.742   115148993.656    21912135.402    89726542.8884   21912135.406  
                
  22350779.383   119687428.731                    93090216.662    22350784.305  
  22350778.773  
  23082806.133   123304192.044                    95903279.428    23082809.523  
  23082805.609  
  21641515.758   115483287.123                    89820372.032    21641519.320  
  21641513.582  
  22718271.688   119385302.948    22718278.957    93027533.1644   22718279.277  
                
  20361991.438   107002994.791    20361998.191    83378999.1634   20361998.188  
                
  23404338.227   122990633.114    23404346.590    95836890.6204   23404346.773  
                
  24344820.375   127932882.594    24344827.586    99687996.4904   24344827.793  
                
  20201809.648   108141902.626                    84110379.342    20201813.965  
  20201808.250  
  21912672.383   117012469.544                    91009685.114    21912675.711  
  21912671.738  
  22556805.484   118536832.878    22556814.871    92366422.8134   22556814.445  
                
  20579250.789   108144708.860    20579257.582    84268655.0264   20579257.594  
                
  21894215.070   115054897.195    21894221.094    89653195.4764                 
                
  19870187.023   106068410.077                    82497655.577    19870190.383  
  19870185.375  
  22574929.797   120802967.815                    93957852.117    22574934.098  
  22574927.602  
  24074370.430   126511688.380    24074377.410    98580566.1644                 
                
  20573109.414   110052296.996                    85596260.236    20573112.562  
  20573107.020  
 21  8 14  7 30 20.0000000  0 19R10G15G26R 4R16R 2G29G18G27G 5R 3R 9
                                G10G23G16R18R17G13R19
  23265944.141   124020566.326                                                  
  23265943.207  
  22724879.344   119420072.448    22724886.824    93054642.3434   22724886.605  
                
  21915439.719   115166408.723    21915449.383    89740113.0684   21915449.414  
                
  22342667.977   119643992.225                    93056432.738    22342672.770  
  22342667.320  
  23089884.281   123342003.144                    95932688.030    23089887.816  
  23089883.887  
  21646169.766   115508121.807                    89839687.866    21646173.305  
  21646167.574  
  22723757.883   119414133.008    22723765.145    93049998.1184   22723765.445  
                
  20363490.156   107010870.622    20363496.918    83385136.1674   20363496.906  
                
  23398186.914   122958307.786    23398195.254    95811702.0724   23398195.449  
                
  24351626.727   127968650.206    24351633.922    99715867.3584   24351634.113  
                
  20199067.211   108127222.150                    84098961.208    20199071.508  
  20199065.828  
  21914980.875   117024796.836                    91019272.969    21914984.230  
  21914980.234  
  22550889.727   118505745.364    22550899.176    92342198.7984   22550898.734  
                
  20576464.727   108130068.037    20576471.531    84257246.6004   20576471.547  
                
  21893312.617   115050154.818    21893318.625    89649500.1254                 
                
  19871541.633   106075641.087                    82503279.692    19871544.984  
  19871540.008  
  22580233.742   120831350.534                    93979927.530    22580238.098  
  22580231.598  
  24074040.617   126509955.255    24074047.645    98579215.6794                 
                
  20569515.344   110033071.203                    85581306.841    20569518.488  
  20569512.949  
 21  8 14  7 30 30.0000000  0 19R10G15G26R 4R16R 2G29G18G27G 5R 3R 9
                                G10G23G16R18R17G13R19
  23262464.688   124002018.841                                                  
  23262463.773  
  22723096.211   119410702.059    22723103.680    93047340.7474   22723103.469  
                
  21918763.930   115183877.563    21918773.617    89753725.1384   21918773.633  
                
  22334561.336   119600580.924                    93022668.427    22334565.973  
  22334560.594  
  23096967.055   123379837.244                    95962114.534    23096970.441  
  23096966.531  
  21650837.258   115533028.473                    89859059.717    21650840.777  
  21650835.051  
  22729249.797   119442993.134    22729257.031    93072486.5134   22729257.367  
                
  20364995.305   107018780.254    20365002.082    83391299.5184   20365002.074  
                
  23392038.438   122925997.350    23392046.785    95786525.1204   23392046.973  
                
  24358436.281   128004434.728    24358443.449    99743751.3874   24358443.668  
                
  20196340.984   108112628.432                    84087610.543    20196345.258  
  20196339.637  
  21917304.430   117037204.518                    91028923.393    21917307.789  
  21917303.781  
  22544980.039   118474689.767    22544989.586    92317999.6504   22544989.129  
                
  20573689.906   108115486.290    20573696.715    84245884.2074   20573696.730  
                
  21892423.320   115045481.526    21892429.301    89645858.6044                 
                
  19872902.984   106082908.033                    82508931.760    19872906.340  
  19872901.387  
  22585541.250   120859751.541                    94002017.174    22585545.508  
  22585539.125  
  24073722.898   126508285.766    24073729.941    98577914.7934                 
                
  20565925.750   110013869.289                    85566372.009    20565928.895  
  20565923.387  
 21  8 14  7 30 40.0000000  0 19R10G15G26R 4R16R 2G29G18G27G 5R 3R 9
                                G10G23G16R18R17G13R19
  23258999.500   123983547.570                                                  
  23258998.562  
  22721325.328   119401396.039    22721332.762    93040089.3094   22721332.562  
                
  21922098.336   115201399.997    21922108.043    89767378.9734   21922108.059  
                
  22326459.367   119557194.955                    92988923.828    22326463.941  
  22326458.602  
  23104053.938   123417693.771                    95991558.493    23104057.250  
  23104053.406  
  21655518.242   115558007.136                    89878487.559    21655521.746  
  21655516.043  
  22734747.398   119471883.224    22734754.617    93094998.2534   22734754.980  
                
  20366506.867   107026723.572    20366513.664    83397489.1194   20366513.652  
                
  23385892.766   122893701.740    23385901.152    95761359.7174   23385901.324  
                
  24365249.039   128040236.079    24365256.219    99771648.5214   24365256.426  
                
  20193630.930   108098121.242                    84076327.179    20193635.180  
  20193629.605  
  21919643.062   117049692.687                    91038636.423    21919646.434  
  21919642.383  
  22539076.422   118443666.058    22539085.996    92293825.3494   22539085.523  
                
  20570926.320   108100963.561    20570933.145    84234567.8024   20570933.164  
                
  21891547.133   115040877.125    21891553.086    89642270.7524                 
                
  19874271.086   106090211.011                    82514611.852    19874274.441  
  19874269.500  
  22590852.148   120888170.668                    94024120.929    22590856.312  
  22590850.023  
  24073417.289   126506679.870    24073424.297    98576663.4274                 
                
  20562340.641   109994691.283                    85551455.794    20562343.785  
  20562338.312  
 21  8 14  7 30 50.0000000  0 19R10G15G26R 4R16R 2G29G18G27G 5R 3R 9
                                G10G23G16R18R17G13R19
  23255548.508   123965152.038                                                  
  23255547.504  
  22719566.555   119392153.721    22719573.949    93032887.5144   22719573.762  
                
  21925442.789   115218975.217    21925452.496    89781073.9444   21925452.523  
                
  22318362.023   119513833.701                    92955198.443    22318366.531  
  22318361.207  
  23111144.922   123455571.988                    96021019.309    23111148.121  
  23111144.309  
  21660212.562   115583056.916                    89897970.698    21660216.027  
  21660210.336  
  22740250.539   119500802.458    22740257.754    93117532.6984   22740258.137  
                
  20368024.703   107034699.855    20368031.516    83403704.4034   20368031.488  
                
  23379749.812   122861420.320    23379758.234    95736205.3844   23379758.398  
                
  24372064.781   128076053.153    24372071.973    99799557.9064   24372072.188  
                
  20190936.977   108083700.310                    84065110.902    20190941.199  
  20190935.664  
  21921996.570   117062260.298                    91048411.214    21921999.941  
  21921995.902  
  22533178.758   118412673.601    22533188.309    92269675.3914   22533187.848  
                
  20568173.836   108086499.188    20568180.703    84223296.8664   20568180.707  
                
  21890683.922   115036340.900    21890689.863    89638736.0304                 
                
  19875645.797   106097549.336                    82520319.428    19875649.152  
  19875644.219  
  22596166.125   120916607.234                    94046238.215    22596170.391  
  22596164.035  
  24073123.672   126505136.980    24073130.656    98575461.2144                 
                
  20558759.820   109975536.334                    85536557.503    20558762.953  
  20558757.500  
 21  8 14  7 31  0.0000000  0 19R10G15G26R 4R16R 2G29G18G27G 5R 3R 9
                                G10G23G16R18R17G13R19
  23252111.797   123946832.428                                                  
  23252110.766  
  22717819.992   119382975.555    22717827.387    93025735.7104   22717827.199  
                
  21928797.336   115236603.485    21928807.043    89794810.2544   21928807.074  
                
  22310269.445   119470497.788                    92921492.774    22310273.891  
  22310268.547  
  23118240.016   123493472.024                    96050497.102    23118243.117  
  23118239.328  
  21664920.250   115608177.952                    89917509.272    21664923.668  
  21664918.023  
  22745759.289   119529751.097    22745766.520    93140090.0604   22745766.887  
                
  20369548.859   107042709.381    20369555.699    83409945.5994   20369555.652  
                
  23373609.641   122829153.496    23373618.094    95711062.4314   23373618.227  
                
  24378883.570   128111886.195    24378890.793    99827479.7204   24378891.008  
                
  20188259.164   108069365.722                    84053961.787    20188263.363  
  20188257.863  
  21924365.031   117074907.733                    91058248.097    21924368.398  
  21924364.391  
  22527287.117   118381712.788    22527296.660    92245550.0974   22527296.188  
                
  20565432.523   108072093.492    20565439.430    84212071.6584   20565439.422  
                
  21889833.742   115031873.176    21889839.672    89635254.6954                 
                
  19877027.188   106104923.266                    82526054.704    19877030.539  
  19877025.613  
  22601483.438   120945061.562                    94068369.332    22601487.812  
  22601481.332  
  24072842.125   126503657.400    24072849.078    98574308.3344                 
                
  20555183.422   109956405.036                    85521677.612    20555186.570  
  20555181.121  
 21  8 14  7 31 10.0000000  0 19R10G15G26R 4R16R 2G29G18G27G 5R 3R 9
                                G10G23G16R18R17G13R19
  23248689.328   123928588.844                                                  
  23248688.266  
  22716085.664   119373861.656    22716093.094    93018633.9854   22716092.898  
                
  21932161.984   115254284.795    21932171.707    89808587.8924   21932171.734  
                
  22302181.570   119427187.302                    92887806.872    22302185.984  
  22302180.641  
  23125339.156   123531393.861                    96079991.845    23125342.117  
  23125338.461  
  21669641.297   115633370.319                    89937103.351    21669644.680  
  21669639.090  
  22751273.664   119558729.226    22751280.883    93162670.3984   22751281.266  
                
  20371079.367   107050752.213    20371086.219    83416212.7354   20371086.152  
                
  23367472.289   122796901.420    23367480.719    95685930.9404   23367480.852  
                
  24385705.414   128147735.287    24385712.648    99855414.0344   24385712.875  
                
  20185597.555   108055117.905                    84042880.157    20185601.727  
  20185596.262  
  21926748.422   117087634.898                    91068147.025    21926751.805  
  21926747.801  
  22521401.531   118350783.777    22521411.066    92221449.5784   22521410.582  
                
  20562702.391   108057746.598    20562709.336    84200892.2644   20562709.309  
                
  21888996.617   115027474.038    21889002.547    89631826.7934                 
                
  19878415.250   106112332.804                    82531817.666    19878418.594  
  19878413.684  
  22606804.117   120973533.661                    94090514.283    22606808.508  
  22606802.016  
  24072572.641   126502241.251    24072579.594    98573204.8454                 
                
  20551611.492   109937297.591                    85506816.272    20551614.641  
  20551609.172  
 21  8 14  7 31 20.0000000  0 19R10G15G26R 4R16R 2G29G18G27G 5R 3R 9
                                G10G23G16R18R17G13R19
  23245281.203   123910421.659                                                  
  23245280.164  
  22714363.594   119364812.210    22714371.090    93011582.4914   22714370.879  
                
  21935536.727   115272019.204    21935546.473    89822406.9044   21935546.484  
                
  22294098.438   119383902.506                    92854140.974    22294102.832  
  22294097.516  
  23132442.227   123569337.426                    96109503.498    23132445.207  
  23132441.602  
  21674375.648   115658633.716                    89956752.671    21674378.988  
  21674373.473  
  22756793.672   119587736.975    22756800.859    93185273.8274   22756801.277  
                
  20372616.211   107058828.449    20372623.062    83422505.9044   20372622.992  
                
  23361337.766   122764664.299    23361346.133    95660811.1034   23361346.293  
                
  24392530.320   128183600.462    24392537.578    99883360.8964   24392537.797  
                
  20182952.133   108040956.746                    84031865.939    20182956.293  
  20182950.832  
  21929146.789   117100442.012                    91078108.068    21929150.145  
  21929146.188  
  22515522.031   118319886.759    22515531.547    92197373.9934   22515531.062  
                
  20559983.484   108043458.677    20559990.469    84189758.8264   20559990.430  
                
  21888172.562   115023143.640    21888178.488    89628452.4574                 
                
  19879810.055   106119778.363                    82537608.667    19879813.406  
  19879808.477  
  22612128.148   121002023.798                    94112673.263    22612132.582  
  22612126.023  
  24072315.266   126500888.719    24072322.184    98572150.9324                 
                
  20548044.000   109918213.880                    85491973.386    20548047.133  
  20548041.688  
 21  8 14  7 31 30.0000000  0 19R10G15G26R 4R16R 2G29G18G27G 5R 3R 9
                                G10G23G16R18R17G13R19
  23241887.469   123892331.031                                                  
  23241886.469  
  22712653.852   119355827.486    22712661.398    93004581.4104   22712661.168  
                
  21938921.609   115289806.829    21938931.367    89836267.3814   21938931.383  
                
  22286020.141   119340643.877                    92820495.413    22286024.535  
  22286019.215  
  23139549.328   123607302.685                    96139031.990    23139552.348  
  23139548.770  
  21679123.414   115683968.656                    89976457.614    21679126.707  
  21679121.223  
  22762319.336   119616774.443    22762326.500    93207900.4174   22762326.961  
                
  20374159.461   107066938.243    20374166.293    83428825.2304   20374166.230  
                
  23355206.109   122732442.336    23355214.469    95635703.1034   23355214.652  
                
  24399358.328   128219481.858    24399365.598    99911320.4314   24399365.812  
                
  20180323.000   108026882.783                    84020919.529    20180327.141  
  20180321.703  
  21931560.133   117113329.023                    91088131.324    21931563.465  
  21931559.535  
  22509648.664   118289021.984    22509658.145    92173323.5304   22509657.672  
                
  20557275.844   108029229.939    20557282.859    84178671.5034   20557282.793  
                
  21887361.641   115018882.214    21887367.555    89625131.8624                 
                
  19881211.609   106127259.964                    82543427.685    19881214.965  
  19881210.020  
  22617455.477   121030531.941                    94134846.219    22617460.027  
  22617453.406  
  24072070.031   126499600.023    24072076.895    98571146.7454                 
                
  20544480.992   109899154.152                    85477149.148    20544484.113  
  20544478.711  
 21  8 14  7 31 40.0000000  0 19R10G15G26R 4R16R 2G29G18G27G 5R 3R 9
                                G10G23G16R18R17G13R19
  23238508.086   123874317.019                                                  
  23238507.094  
  22710956.375   119346907.237    22710963.941    92997630.5754   22710963.715  
                
  21942316.547   115307647.305    21942326.309    89850169.0424   21942326.316  
                
  22277946.727   119297411.159                    92786870.015    22277951.074  
  22277945.812  
  23146660.398   123645289.245                    96168577.070    23146663.477  
  23146659.934  
  21683884.461   115709374.505                    89996217.703    21683887.711  
  21683882.230  
  22767850.586   119645841.263    22767857.801    93230549.8614   22767858.234  
                
  20375709.039   107075081.327    20375715.844    83435170.4914   20375715.797  
                
  23349077.312   122700235.417    23349085.664    95610606.7974   23349085.855  
                
  24406189.352   128255379.126    24406196.621    99939292.3244   24406196.820  
                
  20177710.078   108012895.627                    84010040.626    20177714.172  
  20177708.785  
  21933988.367   117126295.650                    91098216.453    21933991.711  
  21933987.758  
  22503781.398   118258189.285    22503790.855    92149298.0614   22503790.375  
                
  20554579.422   108015060.163    20554586.457    84167630.1224   20554586.371  
                
  21886563.805   115014689.555    21886569.723    89621864.8614                 
                
  19882619.852   106134777.237                    82549274.439    19882623.203  
  19882618.254  
  22622786.281   121059057.915                    94157033.046    22622790.809  
  22622784.176  
  24071836.914   126498374.952    24071843.730    98570192.1384                 
                
  20540922.430   109880118.288                    85462343.504    20540925.547  
  20540920.137  
 21  8 14  7 31 50.0000000  0 19R10G15G26R 4R16R 2G29G18G27G 5R 3R 9
                                G10G23G16R18R17G13R19
  23235142.984   123856379.176                                                  
  23235141.988  
  22709271.133   119338051.339    22709278.750    92990729.9024   22709278.504  
                
  21945721.492   115325540.372    21945731.250    89864111.6924   21945731.246  
                
  22269878.266   119254204.478                    92753264.850    22269882.477  
  22269877.328  
  23153775.461   123683296.809                    96198138.516    23153778.559  
  23153775.043  
  21688658.734   115734850.877                    90016032.650    21688661.945  
  21688656.496  
  22773387.375   119674937.237    22773394.637    93253222.0334   22773395.039  
                
  20377264.898   107083257.446    20377271.672    83441541.4994   20377271.645  
                
  23342951.383   122668043.377    23342959.719    95585522.1064   23342959.926  
                
  24413023.352   128291292.111    24413030.637    99967276.4704   24413030.828  
                
  20175113.367   107998995.226                    83999229.221    20175117.441  
  20175112.070  
  21936431.469   117139341.646                    91108363.346    21936434.801  
  21936430.816  
  22497920.188   118227388.513    22497929.645    92125297.4644   22497929.148  
                
  20551894.180   108000949.156    20551901.234    84156634.5384   20551901.145  
                
  21885779.000   115010565.400    21885784.910    89618651.2344                 
                
  19884034.766   106142330.157                    82555148.942    19884038.141  
  19884033.168  
  22628120.391   121087601.509                    94179233.582    22628124.891  
  22628118.266  
  24071615.859   126497213.273    24071622.645    98569286.9524                 
                
  20537368.281   109861106.081                    85447556.231    20537371.406  
  20537365.965  
 21  8 14  7 32  0.0000000  0 19R10G15G26R 4R16R 2G29G18G27G 5R 3R 9
                                G10G23G16R18R17G13R19
  23231792.258   123838517.988                                                  
  23231791.289  
  22707598.203   119329260.084    22707605.867    92983879.5944   22707605.613  
                
  21949136.469   115343486.123    21949146.215    89878095.3844   21949146.191  
                
  22261814.695   119211024.053                    92719680.097    22261818.762  
  22261813.738  
  23160894.461   123721325.261                    96227716.170    23160897.547  
  23160894.059  
  21693446.195   115760397.721                    90035902.415    21693449.387  
  21693443.957  
  22778929.766   119704062.554    22778937.012    93275917.0754   22778937.406  
                
  20378827.086   107091466.762    20378833.816    83447938.3764   20378833.812  
                
  23336828.328   122635866.452    23336836.664    95560449.1904   23336836.863  
                
  24419860.328   128327220.707    24419867.652    99995272.7724   24419867.820  
                
  20172532.898   107985181.779                    83988485.436    20172536.957  
  20172531.617  
  21938889.406   117152466.910                    91118571.879    21938892.762  
  21938888.750  
  22492065.094   118196619.889    22492074.531    92101321.9344   22492074.043  
                
  20549220.164   107986897.130    20549227.238    84145684.9154   20549227.141  
                
  21885007.289   115006510.081    21885013.184    89615491.2504                 
                
  19885456.406   106149918.959                    82561051.341    19885459.789  
  19885454.797  
  22633457.820   121116162.933                    94201448.037    22633462.289  
  22633455.695  
  24071406.898   126496115.150    24071413.668    98568431.2754                 
                
  20533818.617   109842117.862                    85432787.618    20533821.738  
  20533816.266  
 21  8 14  7 32 10.0000000  0 19R10G15G26R 4R16R 2G29G18G27G 5R 3R 9
                                G10G23G16R18R17G13R19
  23228455.930   123820733.557                                                  
  23228455.000  
  22705937.570   119320533.471    22705945.270    92977079.6584   22705944.984  
                
  21952561.438   115361484.460    21952571.188    89892120.0614   21952571.152  
                
  22253756.031   119167870.031                    92686115.888    22253759.949  
  22253755.039  
  23168017.328   123759374.358                    96257309.864    23168020.434  
  23168016.977  
  21698246.852   115786014.935                    90055826.892    21698250.027  
  21698244.625  
  22784477.742   119733217.177    22784484.926    93298634.9644   22784485.324  
                
  20380395.586   107099709.268    20380402.281    83454361.1044   20380402.293  
                
  23330708.133   122603704.723    23330716.520    95535388.1154   23330716.688  
                
  24426700.242   128363164.764    24426707.602   100023281.1094   24426707.754  
                
  20169968.711   107971455.453                    83977809.420    20169972.754  
  20169967.406  
  21941362.219   117165671.575                    91128842.149    21941365.566  
  21941361.527  
  22486216.125   118165883.510    22486225.539    92077371.5304   22486225.074  
                
  20546557.383   107972904.114    20546564.465    84134781.2714   20546564.359  
                
  21884248.664   115002523.501    21884254.535    89612384.8214                 
                
  19886884.742   106157543.513                    82566981.544    19886888.117  
  19886883.125  
  22638798.648   121144742.118                    94223676.266    22638802.969  
  22638796.461  
  24071210.062   126495080.686    24071216.863    98567625.1924                 
                
  20530273.406   109823153.504                    85418037.563    20530276.527  
  20530271.031  
 21  8 14  7 32 20.0000000  0 19R10G15G26R 4R16R 2G29G18G27G 5R 3R 9
                                G10G23G16R18R17G13R19
  23225134.016   123803025.881                                                  
  23225133.105  
  22704289.266   119311871.578    22704296.984    92970330.1584   22704296.680  
                
  21955996.406   115379535.308    21956006.168    89906185.6494   21956006.117  
                
  22245702.359   119124742.613                    92652572.351    22245706.098  
  22245701.363  
  23175144.172   123797444.039                    96286919.609    23175147.168  
  23175143.715  
  21703060.789   115811702.936                    90075806.446    21703063.980  
  21703058.582  
  22790031.258   119762401.040    22790038.422    93321375.6284   22790038.812  
                
  20381970.383   107107984.879    20381977.047    83460809.6394   20381977.066  
                
  23324590.844   122571558.244    23324599.250    95510338.9324   23324599.414  
                
  24433543.141   128399124.469    24433550.547   100051301.6304   24433550.688  
                
  20167420.789   107957816.259                    83967201.168    20167424.828  
  20167419.484  
  21943849.828   117178955.281                    91139173.929    21943853.180  
  21943849.141  
  22480373.328   118135179.440    22480382.723    92053446.2954   22480382.289  
                
  20543905.828   107958970.127    20543912.922    84123923.6214   20543912.816  
                
  21883503.109   114998605.582    21883508.961    89609331.8984                 
                
  19888319.789   106165203.876                    82572939.603    19888323.168  
  19888318.160  
  22644142.695   121173339.057                    94245918.327    22644146.969  
  22644140.535  
  24071025.312   126494109.815    24071032.168    98566868.6534                 
                
  20526732.688   109804213.081                    85403306.135    20526735.797  
  20526730.312  
 21  8 14  7 32 30.0000000  0 19R10G15G26R 4R16R 2G29G18G27G 5R 3R 9
                                G10G23G16R18R17G13R19
  23221826.523   123785395.138                                                  
  23221825.633  
  22702653.289   119303274.497    22702661.035    92963631.1434   22702660.746  
                
  21959441.359   115397638.679    21959451.105    89920292.1534   21959451.074  
                
  22237653.766   119081641.931                    92619049.607    22237657.273  
  22237652.703  
  23182274.789   123835534.383                    96316545.429    23182277.805  
  23182274.277  
  21707887.867   115837461.150                    90095840.601    21707891.062  
  21707885.660  
  22795590.352   119791614.166    22795597.535    93344139.0884   22795597.906  
                
  20383551.492   107116293.691    20383558.121    83467284.0304   20383558.156  
                
  23318476.453   122539427.164    23318484.855    95485301.7334   23318485.035  
                
  24440388.961   128435099.470    24440396.395   100079334.0794   24440396.508  
                
  20164889.172   107944264.386                    83956660.834    20164893.211  
  20164887.848  
  21946352.273   117192318.195                    91149567.294    21946355.629  
  21946351.590  
  22474536.688   118104507.803    22474546.066    92029546.3354   22474545.652  
                
  20541265.523   107945095.272    20541272.637    84113112.0524   20541272.520  
                
  21882770.648   114994756.480    21882776.480    89606332.5924                 
                
  19889761.555   106172900.137                    82578925.586    19889764.938  
  19889759.902  
  22649490.086   121201953.846                    94268174.268    22649494.316  
  22649487.934  
  24070852.680   126493202.633    24070859.562    98566161.7374                 
                
  20523196.484   109785296.852                    85388593.516    20523199.586  
  20523194.098  
 21  8 14  7 32 40.0000000  0 19R10G15G26R 4R16R 2G29G18G27G 5R 3R 9
                                G10G23G16R18R17G13R19
  23218533.469   123767841.417                                                  
  23218532.523  
  22701029.648   119294742.282    22701037.391    92956982.6824   22701037.098  
                
  21962896.289   115415794.427    21962906.031    89934439.4864   21962905.984  
                
  22229610.102   119038568.183                    92585547.821    22229613.480  
  22229609.043  
  23189409.203   123873645.003                    96346187.020    23189412.176  
  23189408.656  
  21712728.102   115863289.504                    90115929.321    21712731.309  
  21712725.914  
  22801154.984   119820856.433    22801162.246    93366925.2514   22801162.574  
                
  20385138.898   107124635.610    20385145.496    83473784.2184   20385145.555  
                
  23312365.031   122507311.515    23312373.414    95460276.5704   23312373.605  
                
  24447237.711   128471089.819    24447245.121   100107378.4964   24447245.223  
                
  20162373.867   107930799.810                    83946188.399    20162377.902  
  20162372.520  
  21948869.562   117205760.307                    91160022.253    21948872.930  
  21948868.902  
  22468706.242   118073868.631    22468715.594    92005671.6764   22468715.203  
                
  20538636.469   107931279.529    20538643.590    84102346.5454   20538643.473  
                
  21882051.266   114990976.152    21882057.105    89603386.8894                 
                
  19891210.039   106180632.260                    82584939.449    19891213.438  
  19891208.387  
  22654840.797   121230586.405                    94290444.020    22654845.016  
  22654838.680  
  24070692.156   126492359.124    24070699.066    98565504.4544                 
                
  20519664.781   109766404.600                    85373899.548    20519667.867  
  20519662.387  
 21  8 14  7 32 50.0000000  0 19R10G15G26R 4R16R 2G29G18G27G 5R 3R 9
                                G10G23G16R18R17G13R19
  23215254.867   123750364.735                                                  
  23215253.895  
  22699418.375   119286274.995    22699426.086    92950384.8084   22699425.809  
                
  21966361.195   115434002.582    21966370.949    89948627.6564   21966370.895  
                
  22221571.508   118995521.704                    92552067.246    22221574.824  
  22221570.457  
  23196547.336   123911775.780                    96375844.258    23196550.320  
  23196546.840  
  21717581.547   115889188.258                    90136072.797    21717584.742  
  21717579.367  
  22806725.203   119850127.934    22806732.523    93389734.2024   22806732.824  
                
  20386732.625   107133010.713    20386739.195    83480310.2794   20386739.273  
                
  23306256.594   122475211.484    23306264.969    95435263.5704   23306265.164  
                
  24454089.352   128507095.380    24454096.660   100135434.7834   24454096.809  
                
  20159874.922   107917422.822                    83935784.096    20159878.969  
  20159873.566  
  21951401.648   117219281.402                    91170538.706    21951405.008  
  21951401.004  
  22462882.008   118043262.127    22462891.336    91981822.4624   22462890.945  
                
  20536018.703   107917523.068    20536025.809    84091627.2244   20536025.699  
                
  21881345.016   114987264.820    21881350.867    89600494.9374                 
                
  19892665.273   106188400.403                    82590981.342    19892668.684  
  19892663.621  
  22660194.836   121259236.889                    94312727.701    22660199.055  
  22660192.762  
  24070543.789   126491579.491    24070550.742    98564896.9594                 
                
  20516137.594   109747536.571                    85359224.416    20516140.672  
  20516135.211  
 21  8 14  7 33  0.0000000  0 19R10G15G26R 4R16R 2G29G18G27G 5R 3R 9
                                G10G23G16R18R17G13R19
  23211990.734   123732965.182                                                  
  23211989.801  
  22697819.484   119277872.738    22697827.152    92943837.6014   22697826.895  
                
  21969836.039   115452262.975    21969845.809    89962856.5324   21969845.738  
                
  22213537.977   118952502.376                    92518607.794    22213541.266  
  22213536.926  
  23203689.289   123949926.769                    96405517.213    23203692.328  
  23203688.824  
  21722448.062   115915156.856                    90156270.564    21722451.285  
  21722445.895  
  22812300.969   119879428.606    22812308.336    93412565.8854   22812308.613  
                
  20388332.656   107141418.904    20388339.195    83486862.1154   20388339.289  
                
  23300151.109   122443127.042    23300159.543    95410262.7204   23300159.727  
                
  24460943.867   128543116.000    24460951.023   100163502.8274   24460951.254  
                
  20157392.320   107904133.235                    83925447.764    20157396.359  
  20157390.953  
  21953948.477   117232881.270                    91181116.351    21953951.816  
  21953947.871  
  22457064.000   118012688.264    22457073.289    91957998.6814   22457072.891  
                
  20533412.188   107903825.795    20533419.270    84080954.0284   20533419.172  
                
  21880651.859   114983622.248    21880657.727    89597656.5764                 
                
  19894127.250   106196204.529                    82597051.218    19894130.660  
  19894125.590  
  22665552.188   121287905.145                    94335025.204    22665556.430  
  22665550.129  
  24070407.570   126490863.692    24070414.574    98564339.2004                 
                
  20512614.992   109728692.966                    85344568.272    20512618.059  
  20512612.617  
 21  8 14  7 33 10.0000000  0 19R10G15G26R 4R16R 2G29G18G27G 5R 3R 9
                                G10G23G16R18R17G13R19
  23208741.109   123715642.835                                                  
  23208740.215  
  22696232.938   119269535.408    22696240.578    92937341.0004   22696240.344  
                
  21973320.781   115470575.435    21973330.562    89977125.9664   21973330.480  
                
  22205509.391   118909510.353                    92485169.611    22205512.840  
  22205508.398  
  23210834.898   123988097.363                    96435205.435    23210837.992  
  23210834.449  
  21727327.570   115941194.843                    90176522.344    21727330.801  
  21727325.453  
  22817882.219   119908758.246    22817889.578    93435420.1304   22817889.875  
                
  20389938.938   107149860.024    20389945.445    83493439.6124   20389945.555  
                
  23294048.586   122411058.166    23294057.074    95385274.0034   23294057.230  
                
  24467801.203   128579151.479    24467808.215   100191582.4364   24467808.535  
                
  20154926.023   107890931.027                    83915179.390    20154930.047  
  20154924.641  
  21956510.047   117246559.872                    91191755.264    21956513.375  
  21956509.449  
  22451252.188   117982146.985    22451261.430    91934200.2874   22451261.023  
                
  20530816.922   107890187.633    20530823.988    84070326.8944   20530823.898  
                
  21879971.758   114980048.366    21879977.637    89594871.7334                 
                
  19895595.922   106204044.437                    82603148.920    19895599.340  
  19895594.250  
  22670912.758   121316591.058                    94357336.449    22670917.133  
  22670910.793  
  24070283.430   126490211.561    24070290.504    98563831.0594                 
                
  20509096.805   109709873.171                    85329930.666    20509099.883  
  20509094.453  
 21  8 14  7 33 20.0000000  0 19R10G15G26R 4R16R 2G29G18G27G 5R 3R 9
                                G10G23G16R18R17G13R19
  23205505.992   123698397.772                                                  
  23205505.148  
  22694658.797   119261263.257    22694666.391    92930895.1764   22694666.152  
                
  21976815.461   115488940.099    21976825.242    89991436.0804   21976825.156  
                
  22197485.805   118866546.014                    92451752.961    22197489.582  
  22197485.000  
  23217984.211   124026287.855                    96464909.126    23217987.375  
  23217983.809  
  21732220.203   115967302.764                    90196828.475    21732223.426  
  21732218.109  
  22823469.023   119938117.072    22823476.363    93458297.1194   22823476.711  
                
  20391551.531   107158334.282    20391558.012    83500042.9304   20391558.141  
                
  23287949.094   122379005.121    23287957.551    95360297.6074   23287957.707  
                
  24474661.414   128615202.095    24474668.387   100219673.8234   24474668.762  
                
  20152476.133   107877816.570                    83904979.269    20152480.141  
  20152474.734  
  21959086.359   117260317.253                    91202455.429    21959089.691  
  21959085.734  
  22445446.648   117951638.595    22445455.844    91910427.5204   22445455.426  
                
  20528232.953   107876608.843    20528240.008    84059746.0244   20528239.918  
                
  21879304.797   114976543.463    21879310.680    89592140.6494                 
                
  19897071.375   106211920.494                    82609274.732    19897074.793  
  19897069.703  
  22676276.812   121345294.886                    94379661.629    22676281.211  
  22676274.875  
  24070171.430   126489623.367    24070178.625    98563372.7814                 
                
  20505583.195   109691077.716                    85315311.972    20505586.277  
  20505580.840  
 21  8 14  7 33 30.0000000  0 19R10G15G26R 4R16R 2G29G18G27G 5R 3R 9
                                G10G23G16R18R17G13R19
  23202285.312   123681229.716                                                  
  23202284.504  
  22693097.000   119253055.977    22693104.547    92924499.8964   22693104.309  
                
  21980319.977   115507356.412    21980329.766    90005786.4584   21980329.684  
                
  22189467.469   118823609.097                    92418357.619    22189471.398  
  22189466.734  
  23225137.070   124064497.482                    96494627.691    23225140.383  
  23225136.699  
  21737125.820   115993480.049                    90217188.574    21737129.074  
  21737123.730  
  22829061.281   119967504.614    22829068.656    93481196.4924   22829069.008  
                
  20393170.352   107166841.212    20393176.812    83506671.7064   20393176.941  
                
  23281852.547   122346967.562    23281860.957    95335333.2844   23281861.129  
                
  24481524.391   128651267.290    24481531.367   100247776.5464   24481531.789  
                
  20150042.555   107864789.457                    83894847.080    20150046.555  
  20150041.129  
  21961677.336   117274152.935                    91213216.530    21961680.645  
  21961676.684  
  22439647.289   117921162.700    22439656.469    91886680.0794   22439656.047  
                
  20525660.211   107863089.000    20525667.246    84049211.0834   20525667.164  
                
  21878650.883   114973107.156    21878656.754    89589463.0054                 
                
  19898553.516   106219832.250                    82615428.327    19898556.934  
  19898551.848  
  22681644.102   121374016.109                    94402000.329    22681648.500  
  22681642.133  
  24070071.602   126489098.669    24070078.805    98562963.9294                 
                
  20502074.039   109672306.196                    85300711.919    20502077.133  
  20502071.676  
 21  8 14  7 33 40.0000000  0 19R10G15G26R 4R16R 2G29G18G27G 5R 3R 9
                                G10G23G16R18R17G13R19
  23199079.195   123664139.312                                                  
  23199078.398  
  22691547.633   119244914.038    22691555.148    92918155.5384   22691554.938  
                
  21983834.406   115525824.804    21983844.195    90020177.4054   21983844.109  
                
  22181454.539   118780700.182                    92384984.039    22181458.430  
  22181453.828  
  23232293.656   124102726.547                    96524361.389    23232296.953  
  23232293.242  
  21742044.422   116019726.594                    90237602.552    21742047.711  
  21742042.324  
  22834659.070   119996921.269    22834666.551    93504118.5284   22834666.871  
                
  20394795.469   107175381.263    20394801.910    83513326.2964   20394802.051  
                
  23275759.047   122314946.052    23275767.434    95310381.4664   23275767.617  
                
  24488390.211   128687347.454    24488397.219   100275890.9324   24488397.648  
                
  20147625.391   107851850.294                    83884783.308    20147629.395  
  20147623.941  
  21964283.047   117288067.283                    91224038.772    21964286.340  
  21964282.367  
  22433854.211   117890719.868    22433863.418    91862958.4124   22433862.996  
                
  20523098.773   107849628.620    20523105.797    84038722.4814   20523105.719  
                
  21878010.109   114969739.893    21878015.977    89586839.1554                 
                
  19900042.406   106227780.061                    82621609.959    19900045.820  
  19900040.734  
  22687014.633   121402755.261                    94424352.991    22687019.137  
  22687012.688  
  24069983.945   126488637.969    24069991.145    98562604.9274                 
                
  20498569.477   109653559.229                    85286130.942    20498572.582  
  20498567.117  
 21  8 14  7 33 50.0000000  0 19R10G15G26R 4R16R 2G29G18G27G 5R 3R 9
                                G10G23G16R18R17G13R19
  23195887.602   123647126.423                                                  
  23195886.715  
  22690010.680   119236837.344    22690018.176    92911862.0254   22690017.949  
                
  21987358.695   115544345.040    21987368.496    90034608.7474   21987368.395  
                
  22173447.008   118737819.404                    92351632.340    22173450.711  
  22173446.203  
  23239453.953   124140974.678                    96554109.911    23239457.160  
  23239453.402  
  21746976.023   116046042.537                    90258070.498    21746979.336  
  21746973.918  
  22840262.383   120026366.863    22840269.930    93527063.1304   22840270.234  
                
  20396426.852   107183954.245    20396433.289    83520006.5444   20396433.426  
                
  23269668.555   122282940.450    23269676.965    95285442.0554   23269677.164  
                
  24495258.836   128723442.319    24495265.895   100304016.7814   24495266.344  
                
  20145224.641   107838998.924                    83874787.802    20145228.648  
  20145223.176  
  21966903.406   117302059.953                    91234921.968    21966906.676  
  21966902.680  
  22428067.414   117860310.010    22428076.664    91839262.4384   22428076.230  
                
  20520548.625   107836227.566    20520555.637    84028280.1034   20520555.570  
                
  21877382.438   114966441.465    21877388.301    89584268.9564                 
                
  19901538.047   106235763.901                    82627819.592    19901541.473  
  19901536.371  
  22692388.461   121431512.141                    94446719.438    22692393.043  
  22692386.586  
  24069908.391   126488241.108    24069915.625    98562295.6954                 
                
  20495069.484   109634836.650                    85271568.951    20495072.594  
  20495067.129  
 21  8 14  7 34  0.0000000  0 19R10G15G26R 4R16R 2G29G18G27G 5R 3R 9
                                G10G23G16R18R17G13R19
  23192710.562   123630191.120                                                  
  23192709.574  
  22688486.133   119228825.835    22688493.598    92905619.2944   22688493.379  
                
  21990892.805   115562916.847    21990902.602    90049080.2734   21990902.496  
                
  22165444.641   118694966.622                    92318302.411    22165448.238  
  22165443.754  
  23246617.703   124179241.801                    96583873.203    23246620.848  
  23246617.109  
  21751920.578   116072427.578                    90278592.185    21751923.914  
  21751918.496  
  22845871.172   120055841.180    22845878.766    93550030.1284   22845879.055  
                
  20398064.469   107192559.965    20398070.906    83526712.2984   20398071.039  
                
  23263581.094   122250950.703    23263589.535    95260514.9944   23263589.715  
                
  24502130.180   128759551.511    24502137.281   100332153.7884   24502137.730  
                
  20142840.258   107826235.184                    83864860.468    20142844.258  
  20142838.773  
  21969538.430   117316130.820                    91245865.933    21969541.684  
  21969537.660  
  22422286.859   117829933.005    22422296.148    91815592.0614   22422295.691  
                
  20518009.742   107822885.677    20518016.762    84017883.8394   20518016.699  
                
  21876767.852   114963211.791    21876773.719    89581752.3264                 
                
  19903040.398   106243783.522                    82634057.084    19903043.824  
  19903038.730  
  22697765.602   121460286.524                    94469099.511    22697770.207  
  22697763.719  
  24069845.000   126487908.021    24069852.227    98562036.1524                 
                
  20491573.961   109616138.039                    85257025.596    20491577.094  
  20491571.590  
 21  8 14  7 34 10.0000000  0 19R10G15G26R 4R16R 2G29G18G27G 5R 3R 9
                                G10G23G16R18R17G13R19
  23189548.133   123613333.645                                                  
  23189547.125  
  22686974.062   119220879.884    22686981.484    92899427.6514   22686981.305  
                
  21994436.773   115581540.497    21994446.523    90063592.2064   21994446.434  
                
  22157447.461   118652142.252                    92284994.587    22157451.035  
  22157446.570  
  23253784.977   124217527.750                    96613651.160    23253788.078  
  23253784.324  
  21756878.031   116098881.484                    90299167.423    21756881.398  
  21756875.992  
  22851485.461   120085344.493    22851493.078    93573019.7144   22851493.348  
                
  20399708.367   107201198.743    20399714.805    83533443.8184   20399714.930  
                
  23257496.711   122218977.245    23257505.164    95235600.6174   23257505.352  
                
  24509004.305   128795675.297    24509011.457   100360302.1754   24509011.895  
                
  20140472.328   107813559.602                    83855001.700    20140476.344  
  20140470.828  
  21972188.117   117330280.003                    91256870.871    21972191.352  
  21972187.332  
  22416512.625   117799589.292    22416521.949    91791947.6284   22416521.473  
                
  20515482.195   107809603.365    20515489.219    84007533.9924   20515489.141  
                
  21876166.406   114960051.208    21876172.305    89579289.5334                 
                
  19904549.531   106251839.386                    82640322.747    19904552.957  
  19904547.871  
  22703145.969   121489078.787                    94491493.474    22703150.715  
  22703144.145  
  24069793.820   126487639.052    24069801.031    98561826.5684                 
                
  20488083.094   109597464.290                    85242501.578    20488086.242  
  20488080.695  
 21  8 14  7 34 20.0000000  0 19R10G15G26R 4R16R 2G29G18G27G 5R 3R 9
                                G10G23G16R18R17G13R19
  23186400.320   123596553.984                                                  
  23186399.340  
  22685474.422   119212999.287    22685481.844    92893286.9484   22685481.664  
                
  21997990.562   115600215.721    21998000.254    90078144.3214   21998000.195  
                
  22149455.656   118609346.452                    92251708.967    22149459.148  
  22149454.723  
  23260955.633   124255832.539                    96643443.730    23260958.848  
  23260955.066  
  21761848.414   116125404.297                    90319796.261    21761851.828  
  21761846.375  
  22857105.211   120114876.563    22857112.832    93596031.6974   22857113.105  
                
  20401358.523   107209870.333    20401364.965    83540200.9004   20401365.078  
                
  23251415.406   122187019.896    23251423.855    95210698.8104   23251424.066  
                
  24515881.180   128831813.451    24515888.363   100388461.7584   24515888.770  
                
  20138120.836   107800971.925                    83845211.304    20138124.859  
  20138119.336  
  21974852.438   117344507.207                    91267936.471    21974855.668  
  21974851.660  
  22410744.711   117769278.709    22410754.016    91768328.9964   22410753.543  
                
  20512965.945   107796380.424    20512972.973    83997230.4074   20512972.887  
                
  21875578.062   114956959.440    21875583.984    89576880.3634                 
                
  19906065.398   106259931.178                    82646616.361    19906068.816  
  19906063.754  
  22708529.922   121517888.684                    94513901.131    22708534.520  
  22708527.996  
  24069754.836   126487434.030    24069762.043    98561666.8254                 
                
  20484596.766   109578814.769                    85227996.388    20484599.910  
  20484594.395  
 21  8 14  7 34 30.0000000  0 19R10G15G26R 4R16R 2G29G18G27G 5R 3R 9
                                G10G23G16R18R17G13R19
  23183267.109   123579852.131                                                  
  23183266.203  
  22683987.266   119205184.268    22683994.742    92887197.3504   22683994.574  
                
  22001554.156   115618942.528    22001563.793    90092736.6324   22001563.773  
                
  22141469.188   118566579.375                    92218445.707    22141472.660  
  22141468.234  
  23268129.688   124294155.721                    96673250.592    23268133.094  
  23268129.277  
  21766831.727   116151996.180                    90340478.840    21766835.180  
  21766829.707  
  22862730.469   120144437.524    22862738.113    93619066.1964   22862738.367  
                
  20403014.938   107218574.867    20403021.379    83546983.6514   20403021.488  
                
  23245337.211   122155078.886    23245345.660    95185809.7154   23245345.898  
                
  24522760.797   128867965.974    24522767.988   100416632.5534   24522768.395  
                
  20135785.812   107788472.450                    83835489.504    20135789.832  
  20135784.305  
  21977531.406   117358812.643                    91279062.911    21977534.633  
  21977530.637  
  22404983.117   117739001.468    22404992.391    91744736.3554   22404991.957  
                
  20510461.023   107783217.030    20510468.043    83986973.2204   20510467.969  
                
  21875002.859   114953936.713    21875008.801    89574524.9964                 
                
  19907588.070   106268059.315                    82652938.239    19907591.484  
  19907586.434  
  22713917.156   121546716.456                    94536322.725    22713921.672  
  22713915.184  
  24069728.023   126487293.065    24069735.207    98561556.9794                 
                
  20481115.031   109560189.894                    85213510.381    20481118.176  
  20481112.676  
 21  8 14  7 34 40.0000000  0 19R10G15G26R 4R16R 2G29G18G27G 5R 3R 9
                                G10G23G16R18R17G13R19
  23180148.477   123563228.134                                                  
  23180147.605  
  22682512.555   119197434.677    22682520.102    92881158.7134   22682519.895  
                
  22005127.523   115637720.661    22005137.137    90107368.9494   22005137.129  
                
  22133487.961   118523841.051                    92185204.821    22133491.578  
  22133487.094  
  23275307.383   124332497.139                    96703071.673    23275310.723  
  23275306.914  
  21771827.898   116178656.615                    90361214.698    21771831.336  
  21771825.855  
  22868361.164   120174027.049    22868368.832    93642122.9774   22868369.070  
                
  20404677.578   107227312.120    20404684.012    83553791.8984   20404684.113  
                
  23239262.094   122123154.058    23239270.570    95160933.2394   23239270.801  
                
  24529643.102   128904132.716    24529650.320   100444814.4144   24529650.691  
                
  20133467.227   107776060.980                    83825836.139    20133471.242  
  20133465.699  
  21980224.914   117373195.746                    91290249.758    21980228.152  
  21980224.137  
  22399227.836   117708757.433    22399237.086    91721169.5924   22399236.680  
                
  20507967.391   107770112.979    20507974.406    83976762.2804   20507974.336  
                
  21874440.742   114950982.815    21874446.691    89572223.2654                 
                
  19909117.445   106276223.229                    82659287.964    19909120.883  
  19909115.812  
  22719307.758   121575561.843                    94558758.000    22719312.129  
  22719305.668  
  24069713.352   126487215.877    24069720.520    98561496.8284                 
                
  20477637.891   109541589.541                    85199043.446    20477641.043  
  20477635.527  
 21  8 14  7 34 50.0000000  0 19R10G15G26R 4R16R 2G29G18G27G 5R 3R 9
                                G10G23G16R18R17G13R19
  23177044.453   123546682.081                                                  
  23177043.566  
  22681050.312   119189750.620    22681057.980    92875171.1534   22681057.730  
                
  22008710.648   115656550.110    22008720.277    90122041.2404   22008720.266  
                
  22125512.055   118481131.707                    92151986.488    22125515.945  
  22125511.379  
  23282488.516   124370856.793                    96732906.970    23282491.758  
  23282487.980  
  21776836.836   116205385.241                    90382003.613    21776840.312  
  21776834.801  
  22873997.312   120203645.291    22874005.000    93665202.1144   22874005.250  
                
  20406346.445   107236082.096    20406352.867    83560625.6474   20406352.980  
                
  23233190.094   122091245.611    23233198.602    95136069.5384   23233198.820  
                
  24536528.094   128940313.535    24536535.352   100473007.2514   24536535.680  
                
