     2.11           OBSERVATION DATA    M (MIXED)           RINEX VERSION / TYPE
EFT-CORS.RU                             20210817 144801 UTC PGM / RUN BY / DATE 
MDNG                                                        MARKER NAME         
                                                            MARKER NUMBER       
MDNG                EFT-CORS.RU                             OBSERVER / AGENCY   
0                   TRIMBLE BD970       2.0                 REC # / TYPE / VERS 
0                   UNKNOWN EXT NONE                        ANT # / TYPE        
  3463911.2830  3030468.2400  4402179.3760                  APPROX POSITION XYZ 
        0.0000        0.0000        0.0000                  ANTENNA: DELTA H/E/N
     1     1                                                WAVELENGTH FACT L1/2
     6    C1    L1    P2    L2    C2    P1                  # / TYPES OF OBSERV 
    10.000                                                  INTERVAL            
  2021     8    16     2    30    0.0000000     GPS         TIME OF FIRST OBS   
  2021     8    16     3    30    0.0000000     GPS         TIME OF LAST OBS    
     0                                                      RCV CLOCK OFFS APPL 
                                                            END OF HEADER       
 21  8 16  2 30  0.0000000  0 13G 6G20R16R19G29G12R15R18G24R 9R17G 2
                                G25
  22213314.445   116731765.070    22213323.020    90959857.7524   22213323.465  
                
  24297412.070   127683742.510    24297418.629    99493868.0224                 
                
  19405097.008   103658559.356                    80623312.317    19405098.160  
  19405096.703  
  21437330.102   114675299.185                    89191885.424    21437333.078  
  21437327.906  
  23098196.633   121381852.812    23098203.297    94583289.8504   23098203.398  
                
  20123104.906   105747647.406    20123110.203    82400794.7214   20123110.434  
                
  20562301.000   109878727.147                    85461210.534    20562305.027  
  20562301.047  
  19133052.469   102133547.380                    79437202.556    19133055.289  
  19133051.070  
  22755999.250   119583596.594    22756008.336    93182051.2934   22756008.227  
                
  22641205.836   120902770.590                    94035491.556    22641208.051  
  22641205.156  
  20763917.500   111111923.152                    86420385.406    20763920.203  
  20763915.625  
  21249464.977   111666706.079    21249468.223    87013039.1654                 
                
  20908482.070   109874843.659    20908490.969    85616792.4884   20908491.156  
                
 21  8 16  2 30 10.0000000  0 13G 6G20R16R19G29G12R15R18G24R 9R17G 2
                                G25
  22217511.344   116753819.837    22217519.906    90977043.2844   22217520.340  
                
  24291972.703   127655158.659    24291979.332    99471594.9314                 
                
  19402759.250   103646071.446                    80613599.499    19402760.410  
  19402758.938  
  21430901.344   114640909.618                    89165137.990    21430904.332  
  21430899.129  
  23092871.031   121353866.616    23092877.672    94561482.4294   23092877.770  
                
  20123127.594   105747766.593    20123132.863    82400887.5894   20123133.109  
                
  20567699.852   109907576.906                    85483649.218    20567703.895  
  20567699.926  
  19132527.141   102130743.138                    79435021.486    19132529.957  
  19132525.750  
  22762365.523   119617051.384    22762374.613    93208119.9604   22762374.488  
                
  22633844.938   120863464.029                    94004919.780    22633847.188  
  22633844.348  
  20769896.414   111143917.472                    86445269.874    20769899.105  
  20769894.539  
  21250073.766   111669905.327    21250076.992    87015532.0854                 
                
  20904710.133   109855021.978    20904719.047    85601347.0264   20904719.230  
                
 21  8 16  2 30 20.0000000  0 13G 6G20R16R19G29G12R15R18G24R 9R17G 2
                                G25
  22221718.023   116775926.008    22221726.555    90994268.8684   22221726.996  
                
  24286535.539   127626586.103    24286542.125    99449330.5914                 
                
  19400434.422   103633652.659                    80603940.435    19400435.598  
  19400434.102  
  21424481.242   114606566.354                    89138426.567    21424484.227  
  21424479.031  
  23087549.812   121325903.505    23087556.441    94539692.9954   23087556.527  
                
  20123158.852   105747930.843    20123164.098    82401015.5724   20123164.355  
                
  20573109.094   109936482.200                    85506131.124    20573113.133  
  20573109.195  
  19132016.070   102128015.028                    79432899.623    19132018.883  
  19132014.672  
  22768736.336   119650530.126    22768745.426    93234207.2804   22768745.301  
                
  22626486.875   120824172.617                    93974359.801    22626489.160  
  22626486.348  
  20775882.383   111175949.581                    86470183.732    20775885.066  
  20775880.551  
  21250693.539   111673162.266    21250696.754    87018069.9584                 
                
  20900944.703   109835234.516    20900953.617    85585928.2184   20900953.793  
                
 21  8 16  2 30 30.0000000  0 13G 6G20R16R19G29G12R15R18G24R 9R17G 2
                                G25
  22225934.562   116798083.994    22225943.062    91011534.8374   22225943.523  
                
  24281100.508   127598025.360    24281107.156    99427075.4614                 
                
  19398122.680   103621303.695                    80594335.689    19398123.887  
  19398122.348  
  21418069.977   114572270.199                    89111751.781    21418072.918  
  21418067.777  
  23082233.148   121297964.243    23082239.750    94517922.1404   23082239.832  
                
  20123198.773   105748140.626    20123204.000    82401179.0354   20123204.270  
                
  20578528.836   109965443.576                    85528656.607    20578532.879  
  20578528.941  
  19131519.383   102125363.616                    79430837.423    19131522.195  
  19131517.996  
  22775111.766   119684033.219    22775120.828    93260313.5774   22775120.730  
                
  22619131.812   120784897.003                    93943812.104    22619134.102  
  22619131.305  
  20781875.500   111208019.850                    86495127.269    20781878.180  
  20781873.699  
  21251324.391   111676477.399    21251327.602    87020653.1774                 
                
  20897185.891   109815481.788    20897194.809    85570536.4814   20897194.984  
                
 21  8 16  2 30 40.0000000  0 13G 6G20R16R19G29G12R15R18G24R 9R17G 2
                                G25
  22230160.844   116820293.217    22230169.316    91028840.7184   22230169.793  
                
  24275667.773   127569476.075    24275674.402    99404829.2884                 
                
  19395823.906   103609024.081                    80584784.872    19395825.109  
  19395823.586  
  21411667.406   114538020.650                    89085113.224    21411670.297  
  21411665.258  
  23076920.938   121270048.438    23076927.508    94496169.5614   23076927.586  
                
  20123247.266   105748395.477    20123252.465    82401377.6134   20123252.750  
                
  20583958.922   109994460.282                    85551225.142    20583962.984  
  20583959.059  
  19131036.938   102122788.330                    79428834.415    19131039.742  
  19131035.547  
  22781491.711   119717560.038    22781500.730    93286438.3674   22781500.648  
                
  22611779.656   120745636.874                    93913276.454    22611781.953  
  22611779.129  
  20787875.625   111240127.686                    86520100.015    20787878.316  
  20787873.824  
  21251966.219   111679850.234    21251969.438    87023281.3564                 
                
  20893433.602   109795763.403    20893442.523    85555171.4994   20893442.699  
                
 21  8 16  2 30 50.0000000  0 13G 6G20R16R19G29G12R15R18G24R 9R17G 2
                                G25
  22234396.867   116842553.593    22234405.305    91046186.4584   22234405.793  
                
  24270237.266   127540938.413    24270243.914    99382592.1324                 
                
  19393538.125   103596813.865                    80575288.038    19393539.344  
  19393537.809  
  21405273.531   114503817.794                    89058511.010    21405276.406  
  21405271.441  
  23071613.172   121242156.017    23071619.707    94474435.2084   23071619.777  
                
  20123304.344   105748695.404    20123309.516    82401611.3214   20123309.816  
                
  20589399.398   110023532.451                    85573836.823    20589403.480  
  20589399.543  
  19130568.750   102120289.083                    79426890.556    19130571.562  
  19130567.340  
  22787876.156   119751110.534    22787885.164    93312581.6054   22787885.098  
                
  22604430.398   120706392.289                    93882752.889    22604432.703  
  22604429.883  
  20793882.727   111272272.882                    86545101.836    20793885.430  
  20793880.914  
  21252619.031   111683280.772    21252622.262    87025954.5024                 
                
  20889687.859   109776079.414    20889696.789    85539833.3274   20889696.969  
                
 21  8 16  2 31  0.0000000  0 13G 6G20R16R19G29G12R15R18G24R 9R17G 2
                                G25
  22238642.680   116864865.440    22238651.062    91063572.3134   22238651.566  
                
  24264809.102   127512412.872    24264815.781    99360364.4674                 
                
  19391265.461   103584673.704                    80565845.691    19391266.684  
  19391265.129  
  21398888.492   114469662.158                    89031945.512    21398891.340  
  21398886.430  
  23066309.945   121214287.373    23066316.441    94452719.3784   23066316.516  
                
  20123370.086   105749040.850    20123375.223    82401880.4914   20123375.547  
                
  20594850.328   110052660.475                    85596491.944    20594854.406  
  20594850.488  
  19130114.891   102117866.392                    79425006.244    19130117.695  
  19130113.477  
  22794265.156   119784685.022    22794274.199    93338743.5334   22794274.102  
                
  22597084.195   120667163.775                    93852241.813    22597086.477  
  22597083.656  
  20799896.875   111304455.770                    86570132.948    20799899.598  
  20799895.047  
  21253282.883   111686769.338    21253286.125    87028672.8644                 
                
  20885948.758   109756430.281    20885957.695    85524522.3174   20885957.875  
                
 21  8 16  2 31 10.0000000  0 13G 6G20R16R19G29G12R15R18G24R 9R17G 2
                                G25
  22242898.156   116887228.061    22242906.492    91080997.7304   22242907.023  
                
  24259383.281   127483898.904    24259389.801    99338145.8054                 
                
  19389005.758   103572602.791                    80556457.193    19389006.973  
  19389005.406  
  21392512.195   114435553.200                    89005416.329    21392515.027  
  21392510.125  
  23061011.133   121186441.871    23061017.574    94431021.5784   23061017.668  
                
  20123444.375   105749431.259    20123449.477    82402184.7104   20123449.828  
                
  20600311.547   110081843.477                    85619189.835    20600315.625  
  20600311.742  
  19129675.234   102115519.455                    79423180.851    19129678.020  
  19129673.805  
  22800658.586   119818282.768    22800667.648    93364923.5814   22800667.527  
                
  22589740.883   120627950.766                    93821742.814    22589743.129  
  22589740.320  
  20805917.930   111336675.646                    86595192.856    20805920.668  
  20805916.129  
  21253957.672   111690315.387    21253960.938    87031436.0164                 
                
  20882216.180   109736815.493    20882225.117    85509238.0624   20882225.293  
                
 21  8 16  2 31 20.0000000  0 13G 6G20R16R19G29G12R15R18G24R 9R17G 2
                                G25
  22247163.367   116909641.806    22247171.684    91098462.9854   22247172.223  
                
  24253959.773   127455397.092    24253966.102    99315936.5764                 
                
  19386759.164   103560601.882                    80547123.159    19386760.363  
  19386758.816  
  21386144.773   114401491.523                    88978923.898    21386147.559  
  21386142.664  
  23055716.820   121158619.929    23055723.215    94409342.1414   23055723.328  
                
  20123527.320   105749867.104    20123532.387    82402524.3164   20123532.766  
                
  20605783.141   110111081.962                    85641930.859    20605787.227  
  20605783.352  
  19129249.852   102113248.743                    79421414.732    19129252.629  
  19129248.398  
  22807056.492   119851904.120    22807065.543    93391122.0294   22807065.445  
                
  22582400.586   120588753.978                    93791256.416    22582402.809  
  22582400.012  
  20811945.953   111368932.755                    86620281.702    20811948.695  
  20811944.152  
  21254643.469   111693919.256    21254646.766    87034244.2204                 
                
  20878490.234   109717235.520    20878499.160    85493980.9404   20878499.348  
                
 21  8 16  2 31 30.0000000  0 13G 6G20R16R19G29G12R15R18G24R 9R17G 2
                                G25
  22251438.273   116932106.546    22251446.582    91115967.9694   22251447.117  
                
  24248538.453   127426907.524    24248544.719    99293736.8794                 
                
  19384525.695   103548671.093                    80537843.650    19384526.895  
  19384525.363  
  21379786.141   114367477.131                    88952468.261    21379788.902  
  21379784.031  
  23050427.016   121130821.694    23050433.398    94387681.1774   23050433.523  
                
  20123618.883   105750348.268    20123623.918    82402899.2454   20123624.316  
                
  20611265.070   110140375.687                    85664714.852    20611269.133  
  20611265.281  
  19128838.742   102111054.219                    79419707.880    19128841.520  
  19128837.289  
  22813458.875   119885548.959    22813467.891    93417338.7734   22813467.824  
                
  22575063.352   120549573.497                    93760782.696    22575065.566  
  22575062.766  
  20817980.891   111401226.925                    86645399.387    20817983.633  
  20817979.086  
  21255340.242   111697580.824    21255343.574    87037097.3854                 
                
  20874770.914   109697690.368    20874779.824    85478750.9484   20874780.035  
                
 21  8 16  2 31 40.0000000  0 13G 6G20R16R19G29G12R15R18G24R 9R17G 2
                                G25
  22255722.891   116954622.329    22255731.160    91133512.7324   22255731.730  
                
  24243119.430   127398430.366    24243125.645    99271546.8754                 
                
  19382305.406   103536810.689                    80528618.888    19382306.602  
  19382305.082  
  21373436.359   114333510.021                    88926049.384    21373439.102  
  21373434.227  
  23045141.719   121103047.273    23045148.109    94366038.7834   23045148.219  
                
  20123719.109   105750874.911    20123724.121    82403309.6134   20123724.531  
                
  20616757.406   110169724.993                    85687542.087    20616761.449  
  20616757.641  
  19128441.898   102108935.861                    79418060.260    19128444.676  
  19128440.441  
  22819865.750   119919217.261    22819874.711    93443573.8074   22819874.688  
                
  22567729.133   120510409.335                    93730321.701    22567731.395  
  22567728.570  
  20824022.766   111433558.219                    86670545.921    20824025.512  
  20824020.953  
  21256048.016   111701300.204    21256051.375    87039995.6064                 
                
  20871058.266   109678180.266    20871067.160    85463548.2664   20871067.379  
                
 21  8 16  2 31 50.0000000  0 13G 6G20R16R19G29G12R15R18G24R 9R17G 2
                                G25
  22260017.398   116977190.103    22260025.617    91151098.0104   22260026.215  
                
  24237702.945   127369966.863    24237709.207    99249367.5364                 
                
  19380098.453   103525021.571                    80519449.571    19380099.664  
  19380098.125  
  21367095.672   114299591.727                    88899668.514    21367098.453  
  21367093.543  
  23039861.148   121075297.711    23039867.555    94344415.7504   23039867.660  
                
  20123828.195   105751448.176    20123833.184    82403756.3054   20123833.613  
                
  20622260.281   110199130.577                    85710413.091    20622264.312  
  20622260.559  
  19128059.539   102106894.826                    79416472.793    19128062.320  
  19128058.066  
  22826277.289   119952910.026    22826286.219    93469827.9154   22826286.199  
                
  22560398.258   120471262.923                    93699874.479    22560400.578  
  22560397.707  
  20830071.758   111465927.462                    86695721.998    20830074.492  
  20830069.965  
  21256766.992   111705078.465    21256770.375    87042939.7044                 
                
  20867352.500   109658706.328    20867361.375    85448373.7684   20867361.617  
                
 21  8 16  2 32  0.0000000  0 13G 6G20R16R19G29G12R15R18G24R 9R17G 2
                                G25
  22264321.453   116999808.054    22264329.645    91168722.3844   22264330.262  
                
  24232288.781   127341515.331    24232295.043    99227197.5254                 
                
  19377904.539   103513302.092                    80510334.423    19377905.758  
  19377904.203  
  21360763.703   114265720.124                    88873323.928    21360766.504  
  21360761.570  
  23034584.992   121047571.373    23034591.406    94322810.8144   23034591.492  
                
  20123945.836   105752066.350    20123950.812    82404237.9994   20123951.254  
                
  20627773.375   110228590.791                    85733326.580    20627777.402  
  20627773.664  
  19127691.320   102104929.236                    79414944.002    19127694.094  
  19127689.836  
  22832693.125   119986625.402    22832702.051    93496099.6374   22832702.031  
                
  22553070.391   120432132.497                    93669439.717    22553072.738  
  22553069.820  
  20836127.500   111498332.862                    86720926.184    20836130.223  
  20836125.711  
  21257496.844   111708913.853    21257500.230    87045928.3134                 
                
  20863653.289   109639266.819    20863662.148    85433226.0974   20863662.414  
                
 21  8 16  2 32 10.0000000  0 13G 6G20R16R19G29G12R15R18G24R 9R17G 2
                                G25
  22268635.086   117022476.424    22268643.289    91186386.0374   22268643.906  
                
  24226877.016   127313076.226    24226883.238    99205037.1774                 
                
  19375723.805   103501653.001                    80501274.016    19375725.027  
  19375723.473  
  21354440.602   114231895.890                    88847016.173    21354443.426  
  21354438.473  
  23029313.328   121019868.610    23029319.738    94301224.2384   23029319.820  
                
  20124072.078   105752729.785    20124077.043    82404754.9584   20124077.484  
                
  20633296.734   110258105.905                    85756282.749    20633300.742  
  20633297.035  
  19127337.281   102103039.414                    79413474.151    19127340.055  
  19127335.812  
  22839113.289   120020363.647    22839122.238    93522389.1604   22839122.207  
                
  22545745.602   120393018.543                    93639017.756    22545747.949  
  22545745.016  
  20842190.039   111530774.617                    86746158.647    20842192.746  
  20842188.215  
  21258237.609   111712806.630    21258240.988    87048961.6384                 
                
  20859960.703   109619862.193    20859969.555    85418105.6094   20859969.820  
                
 21  8 16  2 32 20.0000000  0 13G 6G20R16R19G29G12R15R18G24R 9R17G 2
                                G25
  22272958.281   117045194.975    22272966.492    91204088.7894   22272967.113  
                
  24221467.625   127284649.512    24221473.797    99182886.5134                 
                
  19373556.156   103490073.811                    80492267.975    19373557.387  
  19373555.824  
  21348126.391   114198119.082                    88820745.327    21348129.227  
  21348124.230  
  23024046.133   120992189.247    23024052.578    94279655.9044   23024052.660  
                
  20124206.922   105753438.359    20124211.887    82405307.0884   20124212.324  
                
  20638830.312   110287675.512                    85779281.324    20638834.289  
  20638830.637  
  19126997.414   102101225.186                    79412063.080    19127000.191  
  19126995.953  
  22845537.773   120054124.482    22845546.734    93548696.2944   22845546.699  
                
  22538423.922   120353921.016                    93608608.569    22538426.246  
  22538423.336  
  20848259.320   111563252.453                    86771419.172    20848262.031  
  20848257.523  
  21258989.258   111716756.545    21258992.633    87052039.4974                 
                
  20856274.750   109600492.334    20856283.594    85403012.2094   20856283.883  
                
 21  8 16  2 32 30.0000000  0 13G 6G20R16R19G29G12R15R18G24R 9R17G 2
                                G25
  22277291.047   117067963.846    22277299.258    91221830.7614   22277299.895  
                
  24216060.547   127256235.541    24216066.809    99160745.7664                 
                
  19371401.680   103478565.020                    80483316.686    19371402.922  
  19371401.363  
  21341821.055   114164389.777                    88794511.428    21341823.898  
  21341818.879  
  23018783.422   120964533.487    23018789.914    94258105.9624   23018789.988  
                
  20124350.398   105754192.340    20124355.375    82405894.6034   20124355.805  
                
  20644374.148   110317299.970                    85802322.559    20644378.117  
  20644374.484  
  19126671.727   102099486.638                    79410710.871    19126674.496  
  19126670.254  
  22851966.594   120087908.070    22851975.551    93575021.1514   22851975.508  
                
  22531105.375   120314840.246                    93578212.408    22531107.656  
  22531104.754  
  20854335.336   111595766.374                    86796707.767    20854338.047  
  20854333.582  
  21259751.812   111720763.850    21259755.176    87055162.0604                 
                
  20852595.461   109581157.560    20852604.297    85387946.1584   20852604.598  
                
 21  8 16  2 32 40.0000000  0 13G 6G20R16R19G29G12R15R18G24R 9R17G 2
                                G25
  22281633.430   117090783.269    22281641.648    91239612.1294   22281642.297  
                
  24210655.867   127227834.745    24210662.270    99138615.2654                 
                
  19369260.477   103467127.064                    80474420.501    19369261.703  
  19369260.172  
  21335524.672   114130708.500                    88768314.883    21335527.559  
  21335522.535  
  23013525.227   120936901.543    23013531.750    94236574.5764   23013531.816  
                
  20124502.594   105754992.049    20124507.586    82406517.7514   20124508.004  
                
  20649928.266   110346979.422                    85825406.559    20649932.238  
  20649928.625  
  19126360.305   102097824.269                    79409417.917    19126363.066  
  19126358.828  
  22858399.789   120121714.613    22858408.723    93601363.8994   22858408.684  
                
  22523790.039   120275776.804                    93547829.722    22523792.305  
  22523789.402  
  20860418.164   111628316.710                    86822024.703    20860420.863  
  20860416.414  
  21260525.375   111724828.919    21260528.738    87058329.6434                 
                
  20848922.930   109561858.267    20848931.754    85372907.7414   20848932.066  
                
 21  8 16  2 32 50.0000000  0 13G 6G20R16R19G29G12R15R18G24R 9R17G 2
                                G25
  22285985.406   117113653.045    22285993.656    91257432.7364   22285994.309  
                
  24205253.758   127199447.119    24205260.246    99116495.0474                 
                
  19367132.562   103455760.100                    80465579.515    19367133.777  
  19367132.266  
  21329237.234   114097075.152                    88742155.613    21329240.172  
  21329235.125  
  23008271.602   120909293.599    23008278.148    94215061.9044   23008278.234  
                
  20124663.469   105755837.420    20124668.480    82407176.4794   20124668.875  
                
  20655492.672   110376713.788                    85848533.283    20655496.641  
  20655493.043  
  19126063.094   102096237.721                    79408183.931    19126065.859  
  19126061.621  
  22864837.312   120155543.895    22864846.211    93627724.3714   22864846.195  
                
  22516477.914   120236730.514                    93517460.372    22516480.203  
  22516477.277  
  20866507.734   111660903.202                    86847369.743    20866510.445  
  20866505.977  
  21261309.891   111728951.571    21261313.250    87061542.1004                 
                
  20845257.141   109542594.356    20845265.965    85357896.9084   20845266.293  
                
 21  8 16  2 33  0.0000000  0 13G 6G20R16R19G29G12R15R18G24R 9R17G 2
                                G25
  22290346.852   117136572.690    22290355.148    91275292.1974   22290355.809  
                
  24199854.242   127171072.363    24199860.633    99094384.8154                 
                
  19365017.781   103444463.377                    80456793.180    19365019.008  
  19365017.492  
  21322958.750   114063489.606                    88716033.528    21322961.727  
  21322956.648  
  23003022.461   120881709.254    23003029.012    94193567.6094   23003029.098  
                
  20124832.953   105756728.104    20124837.984    82407870.5104   20124838.367  
                
  20661067.242   110406502.594                    85871702.337    20661071.219  
  20661067.609  
  19125780.000   102094726.592                    79407008.612    19125782.758  
  19125778.531  
  22871279.031   120189395.447    22871287.898    93654102.1884   22871287.910  
                
  22509168.961   120197701.234                    93487104.254    22509171.266  
  22509168.316  
  20872603.953   111693525.277                    86872742.470    20872606.668  
  20872602.184  
  21262105.273   111733131.398    21262108.633    87064799.1084                 
                
  20841598.016   109523365.540    20841606.828    85342913.4124   20841607.180  
                
 21  8 16  2 33 10.0000000  0 13G 6G20R16R19G29G12R15R18G24R 9R17G 2
                                G25
  22294717.805   117159542.273    22294726.137    91293190.5534   22294726.789  
                
  24194457.180   127142710.722    24194463.570    99072284.8254                 
                
  19362916.297   103433237.584                    80448062.002    19362917.520  
  19362916.008  
  21316689.227   114029951.853                    88689948.600    21316692.203  
  21316687.129  
  22997777.836   120854148.551    22997784.348    94172091.7264   22997784.430  
                
  20125011.094   105757664.223    20125016.145    82408599.9454   20125016.512  
                
  20666652.008   110436345.805                    85894913.719    20666655.973  
  20666652.383  
  19125511.094   102093291.143                    79405892.149    19125513.844  
  19125509.629  
  22877724.992   120223269.308    22877733.812    93680497.3954   22877733.859  
                
  22501863.258   120158689.281                    93456761.644    22501865.594  
  22501862.586  
  20878706.812   111726182.921                    86898142.839    20878709.547  
  20878705.035  
  21262911.547   111737368.433    21262914.910    87068100.6934                 
                
  20837945.617   109504171.999    20837954.410    85327957.3964   20837954.770  
                
 21  8 16  2 33 20.0000000  0 13G 6G20R16R19G29G12R15R18G24R 9R17G 2
                                G25
  22299098.289   117182561.905    22299106.625    91311127.9164   22299107.293  
                
  24189062.672   127114362.537    24189069.102    99050195.3534                 
                
  19360828.117   103422082.870                    80439386.111    19360829.348  
  19360827.820  
  21310428.648   113996461.944                    88663900.900    21310431.613  
  21310426.543  
  22992537.789   120826611.820    22992544.246    94150634.5424   22992544.344  
                
  20125197.930   105758646.012    20125203.004    82409364.9694   20125203.355  
                
  20672246.992   110466243.653                    85918167.581    20672250.953  
  20672247.340  
  19125256.375   102091931.398                    79404834.565    19125259.129  
  19125254.898  
  22884175.242   120257165.591    22884183.984    93706910.0794   22884184.066  
                
  22494560.820   120119694.740                    93426432.557    22494563.168  
  22494560.160  
  20884816.344   111758876.282                    86923570.994    20884819.086  
  20884814.535  
  21263728.766   111741662.891    21263732.125    87071447.0164                 
                
  20834299.977   109485014.016    20834308.754    85313029.0964   20834309.137  
                
 21  8 16  2 33 30.0000000  0 13G 6G20R16R19G29G12R15R18G24R 9R17G 2
                                G25
  22303488.273   117205631.474    22303496.613    91329104.1964   22303497.316  
                
  24183670.750   127086027.920    24183677.258    99028116.4264                 
                
  19358753.234   103410999.227                    80430765.488    19358754.453  
  19358752.953  
  21304177.133   113963020.527                    88637890.898    21304180.055  
  21304175.008  
  22987302.297   120799099.071    22987308.719    94129196.0204   22987308.809  
                
  20125393.461   105759673.542    20125398.559    82410165.6384   20125398.891  
                
  20677852.164   110496195.963                    85941463.815    20677856.125  
  20677852.496  
  19125015.789   102090647.156                    79403835.706    19125018.535  
  19125014.328  
  22890629.750   120291084.171    22890638.426    93733340.1414   22890638.523  
                
  22487261.734   120080717.984                    93396117.294    22487264.062  
  22487261.113  
  20890932.500   111791605.082                    86949026.717    20890935.254  
  20890930.676  
  21264556.883   111746014.748    21264560.234    87074838.0714                 
                
  20830661.109   109465891.622    20830669.863    85298128.5264   20830670.258  
                
 21  8 16  2 33 40.0000000  0 13G 6G20R16R19G29G12R15R18G24R 9R17G 2
                                G25
  22307887.727   117228750.789    22307896.094    91347119.2434   22307896.812  
                
  24178281.445   127057706.820    24178288.043    99006048.0134                 
                
  19356691.664   103399986.646                    80422200.165    19356692.891  
  19356691.391  
  21297934.664   113929627.370                    88611918.423    21297937.551  
  21297932.527  
  22982071.367   120771610.226    22982077.789    94107776.1274   22982077.836  
                
  20125597.680   105760746.699    20125602.801    82411001.8604   20125603.121  
                
  20683467.523   110526202.705                    85964802.398    20683471.500  
  20683467.824  
  19124789.359   102089438.453                    79402895.608    19124792.094  
  19124787.914  
  22897088.461   120325024.859    22897097.129    93759787.4264   22897097.227  
                
  22479966.008   120041759.027                    93365815.871    22479968.332  
  22479965.426  
  20897055.273   111824369.246                    86974509.957    20897058.008  
  20897053.469  
  21265395.906   111750423.845    21265399.234    87078273.7354                 
                
  20827029.008   109446804.806    20827037.746    85283255.6844   20827038.148  
                
 21  8 16  2 33 50.0000000  0 13G 6G20R16R19G29G12R15R18G24R 9R17G 2
                                G25
  22312296.633   117251919.757    22312305.047    91365172.9814   22312305.758  
                
  24172894.789   127029399.386    24172901.465    98983990.2954                 
                
  19354643.406   103389045.217                    80413690.155    19354644.633  
  19354643.137  
  21291701.203   113896282.463                    88585983.505    21291704.047  
  21291699.051  
  22976844.914   120744145.110    22976851.398    94086374.7454   22976851.422  
                
  20125810.578   105761865.453    20125815.723    82411873.6154   20125816.027  
                
  20689093.023   110556263.678                    85988183.133    20689097.016  
  20689093.312  
  19124577.094   102088305.329                    79402014.286    19124579.828  
  19124575.664  
  22903551.344   120358987.556    22903560.039    93786251.8544   22903560.129  
                
  22472673.555   120002817.815                    93335528.289    22472675.902  
  22472672.988  
  20903184.641   111857168.644                    87000020.578    20903187.375  
  20903182.816  
  21266245.812   111754890.154    21266249.117    87081753.9664                 
                
  20823403.688   109427753.632    20823412.410    85268410.6064   20823412.836  
                
 21  8 16  2 34  0.0000000  0 13G 6G20R16R19G29G12R15R18G24R 9R17G 2
                                G25
  22316715.008   117275138.487    22316723.453    91383265.4874   22316724.145  
                
  24167510.758   127001105.891    24167517.484    98961943.4184                 
                
  19352608.555   103378175.346                    80405235.819    19352609.789  
  19352608.293  
  21285476.812   113862986.087                    88560086.316    21285479.625  
  21285474.684  
  22971623.047   120716704.113    22971629.582    94064992.1714   22971629.609  
                
  20126032.188   105763030.005    20126037.348    82412781.0514   20126037.645  
                
  20694728.719   110586379.067                    86011606.202    20694732.719  
  20694729.008  
  19124378.977   102087247.759                    79401191.729    19124381.711  
  19124377.547  
  22910018.438   120392972.339    22910027.148    93812733.4874   22910027.230  
                
  22465384.500   119963894.663                    93305254.732    22465386.867  
  22465383.906  
  20909320.594   111890003.227                    87025558.596    20909323.340  
  20909318.789  
  21267106.633   111759413.768    21267109.910    87085278.8574                 
                
  20819785.188   109408738.279    20819793.902    85253593.4554   20819794.328  
                
 21  8 16  2 34 10.0000000  0 13G 6G20R16R19G29G12R15R18G24R 9R17G 2
                                G25
  22321142.750   117298406.457    22321151.195    91401396.3744   22321151.902  
                
  24162129.383   126972826.050    24162136.062    98939907.1924                 
                
  19350586.977   103367376.462                    80396836.679    19350588.211  
  19350586.727  
  21279261.422   113829737.856                    88534226.584    21279264.211  
  21279259.285  
  22966405.719   120689286.885    22966412.227    94043628.1034   22966412.270  
                
  20126262.461   105764240.097    20126267.633    82413723.9734   20126267.926  
                
  20700374.484   110616548.332                    86035071.179    20700378.492  
  20700374.773  
  19124194.945   102086265.395                    79400427.664    19124197.684  
  19124193.496  
  22916489.633   120426978.695    22916498.309    93839231.9364   22916498.410  
                
  22458098.789   119924989.361                    93274995.074    22458101.145  
  22458098.172  
  20915463.031   111922872.608                    87051123.636    20915465.773  
  20915461.230  
  21267978.281   111763994.322    21267981.535    87088848.1244                 
                
  20816173.453   109389758.494    20816182.168    85238804.0084   20816182.586  
                
 21  8 16  2 34 20.0000000  0 13G 6G20R16R19G29G12R15R18G24R 9R17G 2
                                G25
  22325579.922   117321723.995    22325588.375    91419565.8754   22325589.102  
                
  24156750.680   126944560.384    24156757.324    98917881.9844                 
                
  19348578.820   103356649.224                    80388493.266    19348580.051  
  19348578.570  
  21273055.125   113796538.430                    88508404.819    21273057.914  
  21273052.969  
  22961193.016   120661893.867    22961199.469    94022282.8804   22961199.547  
                
  20126501.469   105765496.071    20126506.648    82414702.6514   20126506.941  
                
  20706030.414   110646771.905                    86058578.383    20706034.426  
  20706030.699  
  19124025.055   102085358.516                    79399722.308    19124027.789  
  19124023.598  
  22922965.016   120461006.948    22922973.625    93865747.4554   22922973.730  
                
  22450816.508   119886102.387                    93244749.640    22450818.832  
  22450815.898  
  20921611.984   111955776.893                    87076715.866    20921614.734  
  20921610.203  
  21268860.828   111768632.177    21268864.066    87092462.0264                 
                
  20812568.562   109370814.677    20812577.281    85224042.5914   20812577.691  
                
 21  8 16  2 34 30.0000000  0 13G 6G20R16R19G29G12R15R18G24R 9R17G 2
                                G25
  22330026.492   117345090.871    22330034.973    91437773.8164   22330035.711  
                
  24151374.500   126916308.846    24151381.289    98895867.8234                 
                
  19346584.062   103345993.566                    80380205.538    19346585.270  
  19346583.816  
  21266857.898   113763387.438                    88482620.720    21266860.672  
  21266855.699  
  22955984.875   120634524.926    22955991.340    94000956.4294   22955991.430  
                
  20126749.195   105766797.887    20126754.379    82415717.0444   20126754.684  
                
  20711696.461   110677049.525                    86082127.648    20711700.480  
  20711696.742  
  19123869.250   102084526.834                    79399075.444    19123871.984  
  19123867.797  
  22929444.508   120495056.834    22929453.035    93892279.8384   22929453.168  
                
  22443537.664   119847233.774                    93214518.487    22443539.957  
  22443537.055  
  20927767.438   111988715.884                    87102335.069    20927770.191  
  20927765.676  
  21269754.250   111773327.157    21269757.492    87096120.4504                 
                
  20808970.500   109351906.750    20808979.227    85209309.1434   20808979.629  
                
 21  8 16  2 34 40.0000000  0 13G 6G20R16R19G29G12R15R18G24R 9R17G 2
                                G25
  22334482.484   117368507.307    22334491.000    91456020.3784   22334491.730  
                
  24146001.109   126888071.955    24146008.031    98873865.0484                 
                
  19344602.750   103335409.753                    80371973.668    19344603.953  
  19344602.496  
  21260669.844   113730285.522                    88456874.782    21260672.621  
  21260667.613  
  22950781.367   120607180.321    22950787.879    93979648.9554   22950787.984  
                
  20127005.695   105768145.794    20127010.883    82416767.3614   20127011.188  
                
  20717372.648   110707381.383                    86105719.087    20717376.703  
  20717372.898  
  19123727.641   102083770.890                    79398487.491    19123730.379  
  19123726.191  
  22935928.148   120529128.599    22935936.641    93918829.2674   22935936.773  
                
  22436262.320   119808383.839                    93184301.878    22436264.637  
  22436261.699  
  20933929.391   112021689.722                    87127981.376    20933932.176  
  20933927.641  
  21270658.586   111778079.491    21270661.824    87099823.5664                 
                
  20805379.336   109333035.040    20805388.055    85194603.9094   20805388.461  
                
 21  8 16  2 34 50.0000000  0 13G 6G20R16R19G29G12R15R18G24R 9R17G 2
                                G25
  22338947.836   117391972.844    22338956.375    91474305.2054   22338957.102  
                
  24140630.414   126859849.394    24140637.516    98851873.4584                 
                
  19342634.875   103324897.707                    80363797.633    19342636.062  
  19342634.621  
  21254490.891   113697232.436                    88431166.829    21254493.750  
  21254488.680  
  22945582.438   120579859.709    22945588.984    93958360.1714   22945589.090  
                
  20127270.906   105769539.462    20127276.105    82417853.3344   20127276.422  
                
  20723058.922   110737767.098                    86129352.407    20723063.008  
  20723059.125  
  19123600.125   102083090.172                    79397958.040    19123602.859  
  19123598.691  
  22942415.867   120563221.752    22942424.379    93945395.3444   22942424.508  
                
  22428990.461   119769552.441                    93154099.678    22428992.766  
  22428989.863  
  20940097.773   112054697.987                    87153654.448    20940100.582  
  20940095.992  
  21271573.766   111782888.805    21271577.000    87103571.0824                 
                
  20801795.023   109314199.396    20801803.730    85179926.7874   20801804.148  
                
 21  8 16  2 35  0.0000000  0 13G 6G20R16R19G29G12R15R18G24R 9R17G 2
                                G25
  22343422.508   117415487.384    22343431.070    91492628.2144   22343431.785  
                
  24135262.398   126831641.200    24135269.750    98829893.0334                 
                
  19340680.461   103314457.532                    80355677.493    19340681.629  
  19340680.199  
  21248321.070   113664228.060                    88405496.778    21248323.965  
  21248318.863  
  22940388.055   120552563.081    22940394.602    93937090.0644   22940394.707  
                
  20127544.828   105770978.921    20127550.039    82418974.9834   20127550.352  
                
  20728755.234   110768206.559                    86153027.532    20728759.348  
  20728755.414  
  19123486.672   102082484.534                    79397486.986    19123489.398  
  19123485.242  
  22948907.641   120597336.217    22948916.184    93971978.0214   22948916.293  
                
  22421722.070   119730739.551                    93123911.858    22421724.336  
  22421721.488  
  20946272.562   112087740.464                    87179354.134    20946275.383  
  20946270.746  
  21272499.789   111787755.078    21272503.016    87107362.9764                 
                
  20798217.586   109295399.809    20798226.277    85165277.7514   20798226.695  
                
 21  8 16  2 35 10.0000000  0 13G 6G20R16R19G29G12R15R18G24R 9R17G 2
                                G25
  22347906.555   117439051.191    22347915.141    91510989.6094   22347915.840  
                
  24129897.422   126803447.932    24129904.785    98807924.2534                 
                
  19338739.547   103304089.515                    80347613.468    19338740.727  
  19338739.273  
  21242160.469   113631273.019                    88379865.076    21242163.383  
  21242158.258  
  22935198.328   120525290.882    22935204.852    93915839.0034   22935204.984  
                
  20127827.539   105772464.553    20127832.762    82420132.6124   20127833.070  
                
  20734461.656   110798700.010                    86176744.668    20734465.797  
  20734461.812  
  19123387.336   102081954.260                    79397074.551    19123390.055  
  19123385.922  
  22955403.531   120631472.211    22955412.051    93998577.4904   22955412.176  
                
  22414457.297   119691945.937                    93093739.037    22414459.512  
  22414456.730  
  20952453.797   112120817.451                    87205080.661    20952456.625  
  20952451.961  
  21273436.695   111792678.615    21273439.906    87111199.4914                 
                
  20794647.070   109276636.665    20794655.734    85150657.1114   20794656.160  
                
 21  8 16  2 35 20.0000000  0 13G 6G20R16R19G29G12R15R18G24R 9R17G 2
                                G25
  22352399.844   117462663.553    22352408.457    91529388.8484   22352409.133  
                
  24124535.211   126775269.000    24124542.559    98785966.6424                 
                
  19336812.047   103293793.122                    80339605.167    19336813.242  
  19336811.762  
  21236008.984   113598366.703                    88354271.261    21236011.902  
  21236006.770  
  22930013.164   120498042.587    22930019.652    93894606.5744   22930019.812  
                
  20128118.898   105773995.676    20128124.145    82421325.6994   20128124.449  
                
  20740178.086   110829246.942                    86200503.384    20740182.246  
  20740178.203  
  19123302.016   102081498.830                    79396720.338    19123304.723  
  19123300.609  
  22961903.375   120665629.070    22961911.883    94025193.2274   22961912.031  
                
  22407195.984   119653170.878                    93063580.645    22407198.172  
  22407195.430  
  20958641.336   112153928.144                    87230833.435    20958644.176  
  20958639.496  
  21274384.391   111797658.798    21274387.594    87115080.1574                 
                
  20791083.398   109257909.430    20791092.031    85136064.4604   20791092.473  
                
 21  8 16  2 35 30.0000000  0 13G 6G20R16R19G29G12R15R18G24R 9R17G 2
                                G25
  22356902.398   117486324.565    22356911.039    91547825.9914   22356911.695  
                
  24119175.781   126747104.691    24119183.090    98764020.4494                 
                
  19334897.992   103283568.600                    80331652.757    19334899.191  
  19334897.723  
  21229866.617   113565509.224                    88328715.465    21229869.543  
  21229864.414  
  22924832.547   120470818.278    22924839.016    93873392.8294   22924839.207  
                
  20128418.969   105775572.554    20128424.238    82422554.4294   20128424.535  
                
  20745904.523   110859847.340                    86224303.668    20745908.699  
  20745904.590  
  19123230.703   102081118.168                    79396424.257    19123233.414  
  19123229.297  
  22968407.180   120699806.819    22968415.730    94051825.2304   22968415.867  
                
  22399938.219   119614414.797                    93033437.021    22399940.406  
  22399937.652  
  20964835.188   112187072.619                    87256612.456    20964838.020  
  20964833.355  
  21275342.898   111802695.785    21275346.078    87119005.0814                 
                
  20787526.602   109239218.314    20787535.211    85121499.9554   20787535.664  
                
 21  8 16  2 35 40.0000000  0 13G 6G20R16R19G29G12R15R18G24R 9R17G 2
                                G25
  22361414.234   117510034.376    22361422.891    91566301.1584   22361423.527  
                
  24113819.211   126718955.420    24113826.434    98742085.9414                 
                
  19332997.500   103273416.522                    80323756.698    19332998.707  
  19332997.238  
  21223733.516   113532701.071                    88303197.994    21223736.398  
  21223731.348  
  22919656.531   120443618.160    22919662.969    93852197.9274   22919663.172  
                
  20128727.797   105777195.459    20128733.102    82423819.0244   20128733.379  
                
  20751640.984   110890501.280                    86248145.616    20751645.188  
  20751641.031  
  19123173.508   102080812.868                    79396186.798    19123176.223  
  19123172.090  
  22974915.008   120734005.655    22974923.625    94078473.6594   22974923.738  
                
  22392684.016   119575677.858                    93003308.299    22392686.227  
  22392683.430  
  20971035.391   112220251.031                    87282417.880    20971038.227  
  20971033.535  
  21276312.250   111807789.782    21276315.406    87122974.4254                 
                
  20783976.742   109220563.695    20783985.344    85106963.8894   20783985.777  
                
 21  8 16  2 35 50.0000000  0 13G 6G20R16R19G29G12R15R18G24R 9R17G 2
                                G25
  22365935.312   117533792.716    22365943.980    91584814.1554   22365944.594  
                
  24108465.430   126690821.069    24108472.629    98720163.0894                 
                
  19331110.516   103263336.591                    80315916.737    19331111.727  
  19331110.262  
  21217609.609   113499942.090                    88277718.790    21217612.469  
  21217607.469  
  22914485.125   120416442.156    22914491.535    93831021.8114   22914491.730  
                
  20129045.359   105778864.247    20129050.703    82425119.3774   20129050.957  
                
  20757387.422   110921208.558                    86272029.056    20757391.664  
  20757387.445  
  19123130.336   102080582.363                    79396007.515    19123133.062  
  19123128.910  
  22981426.797   120768225.264    22981435.449    94105138.2784   22981435.543  
                
  22385433.430   119536960.222                    92973194.601    22385435.664  
  22385432.840  
  20977241.859   112253463.058                    87308249.435    20977244.676  
  20977239.992  
  21277292.398   111812940.479    21277295.543    87126987.9504                 
                
  20780433.789   109201945.389    20780442.391    85092456.1194   20780442.820  
                
 21  8 16  2 36  0.0000000  0 13G 6G20R16R19G29G12R15R18G24R 9R17G 2
                                G25
  22370465.617   117557599.566    22370474.281    91603364.9424   22370474.887  
                
  24103114.531   126662701.870    24103121.715    98698252.0174                 
                
  19329237.070   103253328.915                    80308133.004    19329238.266  
  19329236.809  
  21211494.852   113467232.465                    88252277.979    21211497.742  
  21211492.723  
  22909318.344   120389290.515    22909324.766    93809864.6844   22909324.941  
                
  20129371.672   105780579.009    20129377.062    82426455.5574   20129377.285  
                
  20763143.844   110951969.220                    86295953.999    20763148.137  
  20763143.824  
  19123101.156   102080426.581                    79395886.352    19123103.887  
  19123099.750  
  22987942.555   120802465.640    22987951.215    94131819.0854   22987951.312  
                
  22378186.500   119498262.043                    92943096.013    22378188.727  
  22378185.926  
  20983454.594   112286708.632                    87334107.112    20983457.391  
  20983452.719  
  21278283.328   111818147.869    21278286.477    87131045.6564                 
                
  20776897.789   109183363.530    20776906.379    85077976.7494   20776906.801  
                
 21  8 16  2 36 10.0000000  0 13G 6G20R16R19G29G12R15R18G24R 9R17G 2
                                G25
  22375005.328   117581455.869    22375013.988    91621954.2614   22375014.590  
                
  24097766.844   126634598.845    24097773.891    98676353.5504                 
                
  19327377.391   103243394.863                    80300406.515    19327378.574  
  19327377.137  
  21205389.562   113434573.211                    88226876.342    21205392.473  
  21205387.453  
  22904156.359   120362164.132    22904162.840    93788727.2584   22904162.992  
                
  20129706.922   105782340.809    20129712.355    82427828.3824   20129712.551  
                
  20768910.430   110982784.250                    86319921.214    20768914.750  
  20768910.348  
  19123086.219   102080346.825                    79395824.315    19123088.945  
  19123084.832  
  22994462.430   120836727.693    22994471.117    94158516.7904   22994471.184  
                
  22370943.375   119459584.357                    92913013.352    22370945.625  
  22370942.816  
  20989673.750   112319988.705                    87359991.586    20989676.539  
  20989671.840  
  21279285.266   111823413.069    21279288.426    87135148.4074                 
                
  20773368.930   109164819.234    20773377.508    85063526.6444   20773377.922  
                
 21  8 16  2 36 20.0000000  0 13G 6G20R16R19G29G12R15R18G24R 9R17G 2
                                G25
  22379553.891   117605358.686    22379562.547    91640579.8304   22379563.160  
                
  24092421.727   126606509.396    24092428.645    98654465.6564                 
                
  19325530.898   103233531.292                    80292734.849    19325532.098  
  19325530.652  
  21199293.164   113401961.534                    88201511.728    21199296.066  
  21199291.023  
  22898998.672   120335060.250    22899005.180    93767607.3574   22899005.332  
                
  20130050.609   105784146.872    20130056.078    82429235.6984   20130056.254  
                
  20774686.672   111013650.695                    86343928.425    20774691.020  
  20774686.578  
  19123084.914   102080339.861                    79395818.907    19123087.641  
  19123083.531  
  23000985.875   120871008.497    23000994.617    94185229.1034   23000994.652  
                
  22363703.648   119420924.627                    92882944.666    22363705.910  
  22363703.113  
  20995898.781   112353300.130                    87385900.492    20995901.578  
  20995896.910  
  21280297.648   111828733.183    21280300.832    87139293.9454                 
                
  20769846.688   109146309.737    20769855.273    85049103.6554   20769855.668  
                
 21  8 16  2 36 30.0000000  0 13G 6G20R16R19G29G12R15R18G24R 9R17G 2
                                G25
  22384111.727   117629310.206    22384120.379    91659243.3514   22384120.992  
                
  24087079.625   126578435.933    24087086.398    98632590.2084                 
                
  19323698.102   103223740.786                    80285119.997    19323699.301  
  19323697.871  
  21193206.133   113369399.869                    88176185.979    21193209.035  
  21193203.953  
  22893845.695   120307981.194    22893852.195    93746506.7874   22893852.336  
                
  20130403.141   105785999.468    20130408.633    82430679.2724   20130408.793  
                
  20780472.945   111044570.730                    86367977.342    20780477.309  
  20780472.891  
  19123097.711   102080408.127                    79395872.002    19123100.438  
  19123096.348  
  23007513.289   120905310.238    23007522.109    94211957.7104   23007522.109  
                
  22356467.719   119382285.076                    92852891.675    22356469.980  
  22356467.211  
  21002130.102   112386645.193                    87411835.516    21002132.926  
  21002128.250  
  21281320.898   111834110.393    21281324.098    87143483.9724                 
                
  20766331.500   109127837.332    20766340.094    85034709.5684   20766340.465  
                
 21  8 16  2 36 40.0000000  0 13G 6G20R16R19G29G12R15R18G24R 9R17G 2
                                G25
  22388678.758   117653310.036    22388687.398    91677944.5104   22388688.016  
                
  24081740.562   126550378.218    24081747.113    98610727.0374                 
                
  19321878.945   103214023.133                    80277561.819    19321880.121  
  19321878.707  
  21187128.398   113336888.179                    88150899.120    21187131.305  
  21187126.246  
  22888697.391   120280926.640    22888703.863    93725425.3164   22888704.016  
                
  20130764.477   105787898.295    20130769.988    82432158.8724   20130770.141  
                
  20786269.211   111075544.098                    86392067.729    20786273.605  
  20786269.191  
  19123124.562   102080551.461                    79395983.477    19123127.305  
  19123123.207  
  23014044.633   120939632.525    23014053.504    94238702.3374   23014053.477  
                
  22349235.531   119343665.620                    92822854.347    22349237.844  
  22349235.047  
  21008367.641   112420023.547                    87437796.454    21008370.504  
  21008365.785  
  21282354.961   111839544.412    21282358.164    87147718.2704                 
                
  20762823.344   109109401.819    20762831.945    85020344.2354   20762832.309  
                
 21  8 16  2 36 50.0000000  0 13G 6G20R16R19G29G12R15R18G24R 9R17G 2
                                G25
  22393254.938   117677357.956    22393263.578    91696683.1474   22393264.191  
                
  24076404.320   126522336.212    24076410.863    98588876.1384                 
                
  19320073.422   103204378.306                    80270060.281    19320074.566  
  19320073.188  
  21181059.977   113304426.051                    88125650.794    21181062.840  
  21181057.812  
  22883553.711   120253896.425    22883560.137    93704362.8104   22883560.320  
                
  20131134.594   105789843.248    20131140.125    82433674.4164   20131140.273  
                
  20792075.383   111106570.479                    86416199.350    20792079.789  
  20792075.402  
  19123165.367   102080769.282                    79396152.892    19123168.121  
  19123164.008  
  23020579.836   120973975.081    23020588.719    94265462.7674   23020588.680  
                
  22342007.086   119305066.188                    92792832.575    22342009.414  
  22342006.594  
  21014611.336   112453434.806                    87463782.972    21014614.215  
  21014609.477  
  21283399.812   111845035.110    21283403.012    87151996.7314                 
                
  20759322.195   109091003.117    20759330.797    85006007.5834   20759331.145  
                
 21  8 16  2 37  0.0000000  0 13G 6G20R16R19G29G12R15R18G24R 9R17G 2
                                G25
  22397840.305   117701454.179    22397848.938    91715459.4214   22397849.547  
                
  24071071.008   126494310.348    24071077.746    98567037.8134                 
                
  19318281.602   103194806.703                    80262615.711    19318282.742  
  19318281.367  
  21175000.930   113272014.249                    88100441.609    21175003.766  
  21174998.742  
  22878414.695   120226890.753    22878421.070    93683319.4324   22878421.258  
                
  20131513.547   105791834.672    20131519.098    82435226.1704   20131519.230  
                
  20797891.516   111137650.144                    86440372.416    20797895.941  
