     2.11           OBSERVATION DATA    M (MIXED)           RINEX VERSION / TYPE
EFT-CORS.RU                             20210817 144837 UTC PGM / RUN BY / DATE 
MDNG                                                        MARKER NAME         
                                                            MARKER NUMBER       
MDNG                EFT-CORS.RU                             OBSERVER / AGENCY   
0                   TRIMBLE BD970       2.0                 REC # / TYPE / VERS 
0                   UNKNOWN EXT NONE                        ANT # / TYPE        
  3463911.2830  3030468.2400  4402179.3760                  APPROX POSITION XYZ 
        0.0000        0.0000        0.0000                  ANTENNA: DELTA H/E/N
     1     1                                                WAVELENGTH FACT L1/2
     6    C1    L1    P2    L2    C2    P1                  # / TYPES OF OBSERV 
    10.000                                                  INTERVAL            
  2021     8    16     9    30    0.0000000     GPS         TIME OF FIRST OBS   
  2021     8    16    10    30    0.0000000     GPS         TIME OF LAST OBS    
     0                                                      RCV CLOCK OFFS APPL 
                                                            END OF HEADER       
 21  8 16  9 30  0.0000000  0 14R 6R21R22G32R 5G16G18G27R20G 8G21G10
                                G23R 7
  19197977.586   102444119.269                                                  
  19197975.266  
  19426403.648   103954623.630                    80853588.883    19426407.133  
  19426401.438  
  20581077.070   109863203.741                    85449182.839    20581079.473  
  20581075.336  
  22483342.594   118150781.381    22483352.469    92065596.1494   22483352.855  
                
  22847315.859   122132017.931                    94991562.204    22847320.957  
  22847315.648  
  24478477.758   128635250.655    24478486.062   100235281.0574                 
                
  23065901.656   121212142.649    23065909.691    94451032.3684   23065909.816  
                
  20623732.531   108378441.712    20623741.062    84450789.9044   20623741.191  
                
  22988984.375   122932410.738                    95614111.018    22988993.141  
  22988983.922  
  21860823.008   114879396.302    21860832.371    89516469.3184   21860832.953  
                
  24526469.133   128887469.499    24526476.496   100431825.0694                 
                
  20441748.250   107422151.285    20441757.492    83705631.0544   20441756.891  
                
  21569803.797   113350116.158    21569811.340    88324800.6964   21569811.148  
                
  20747132.531   111061058.597                    86380819.375    20747137.758  
  20747131.047  
 21  8 16  9 30 10.0000000  0 14R 6R21R22G32R 5G16G18G27R20G 8G21G10
                                G23R 7
  19198954.109   102449330.177                                                  
  19198951.785  
  19427325.289   103959555.589                    80857424.841    19427328.766  
  19427323.059  
  20575899.750   109835566.883                    85427687.504    20575902.145  
  20575898.000  
  22477568.758   118120439.716    22477578.688    92041953.3124   22477579.043  
                
  22854895.227   122172533.932                    95023074.614    22854900.312  
  22854894.984  
  24484578.273   128667308.541    24484586.496   100260261.2034                 
                
  23071093.375   121239425.336    23071101.402    94472291.5894   23071101.547  
                
  20624014.031   108379920.977    20624022.535    84451942.5804   20624022.676  
                
  22995498.008   122967241.086                    95641201.282    22995506.562  
  22995497.430  
  21857111.016   114859889.659    21857120.359    89501269.3364   21857120.949  
                
  24521528.422   128861507.105    24521536.043   100411594.6084                 
                
  20442469.523   107425941.600    20442478.758    83708584.5434   20442478.156  
                
  21574332.688   113373915.643    21574340.234    88343345.7424   21574340.039  
                
  20740988.594   111028169.711                    86355239.130    20740993.809  
  20740987.109  
 21  8 16  9 30 20.0000000  0 14R 6R21R22G32R 5G16G18G27R20G 8G21G10
                                G23R 7
  19199946.109   102454623.690                                                  
  19199943.770  
  19428258.867   103964551.458                    80861310.512    19428262.340  
  19428256.594  
  20570728.758   109807963.789                    85406218.435    20570731.156  
  20570726.992  
  22471801.133   118090130.670    22471811.129    92018335.8954   22471811.453  
                
  22862478.719   122213071.985                    95054604.197    22862483.824  
  22862478.500  
  24490680.688   128699376.654    24490688.852   100285249.3074                 
                
  23076288.672   121266726.780    23076296.711    94493565.4204   23076296.848  
                
  20624308.141   108381466.525    20624316.625    84453146.8974   20624316.773  
                
  23002016.883   123002099.657                    95668313.474    23002025.277  
  23002016.129  
  21853408.828   114840434.559    21853418.164    89486109.5174   21853418.770  
                
  24516588.258   128835547.807    24516596.195   100391366.6804                 
                
  20443199.219   107429776.167    20443208.438    83711572.5204   20443207.852  
                
  21578866.883   113397743.045    21578874.445    88361912.5424   21578874.250  
                
  20734855.086   110995336.690                    86329702.359    20734860.352  
  20734853.578  
 21  8 16  9 30 30.0000000  0 14R 6R21R22G32R 5G16G18G27R20G 8G21G10
                                G23R 7
  19200953.430   102459998.939                                                  
  19200951.086  
  19429204.219   103969610.298                    80865245.163    19429207.695  
  19429201.934  
  20565563.945   109780393.644                    85384774.992    20565566.359  
  20565562.176  
  22466039.578   118059853.586    22466049.621    91994743.3774   22466049.930  
                
  22870066.172   122253631.103                    95086150.163    22870071.238  
  22870065.984  
  24496784.820   128731453.908    24496792.934   100310244.5634                 
                
  23081487.398   121294046.166    23081495.469    94514853.2354   23081495.590  
                
  20624614.719   108383077.539    20624623.191    84454402.2394   20624623.348  
                
  23008541.055   123036985.948                    95695447.240    23008549.168  
  23008540.105  
  21849716.305   114821030.252    21849725.621    89470989.2764   21849726.250  
                
  24511648.805   128809590.993    24511656.848   100371140.6004                 
                
  20443937.180   107433654.175    20443946.379    83714594.3454   20443945.805  
                
  21583406.234   113421597.523    21583413.805    88380500.4334   21583413.605  
                
  20728731.922   110962559.030                    86304208.631    20728737.238  
  20728730.406  
 21  8 16  9 30 40.0000000  0 14R 6R21R22G32R 5G16G18G27R20G 8G21G10
                                G23R 7
  19201976.109   102465456.180                                                  
  19201973.773  
  19430161.461   103974732.799                    80869229.325    19430164.938  
  19430159.160  
  20560405.375   109752856.819                    85363357.471    20560407.789  
  20560403.605  
  22460284.219   118029609.046    22460294.289    91971176.2144   22460294.582  
                
  22877657.648   122294211.873                    95117712.986    22877662.719  
  22877657.492  
  24502890.727   128763540.752    24502898.844   100335247.2694                 
                
  23086689.609   121321383.978    23086697.699    94536155.4094   23086697.801  
                
  20624933.852   108384754.564    20624942.324    84455709.0034   20624942.480  
                
  23015070.289   123071900.030                    95722602.624    23015078.281  
  23015069.309  
  21846033.586   114801677.414    21846042.895    89455909.1504   21846043.543  
                
  24506709.883   128783636.994    24506718.039   100350916.7094                 
                
  20444683.500   107437576.069    20444692.680    83717650.3604   20444692.121  
                
  21587950.820   113445479.486    21587958.375    88399109.7504   21587958.199  
                
  20722619.164   110929837.020                    86278758.187    20722624.539  
  20722617.633  
 21  8 16  9 30 50.0000000  0 14R 6R21R22G32R 5G16G18G27R20G 8G21G10
                                G23R 7
  19203014.297   102470996.153                                                  
  19203011.949  
  19431130.711   103979919.536                    80873263.444    19431134.188  
  19431128.398  
  20555253.227   109725354.330                    85341966.657    20555255.703  
  20555251.449  
  22454535.180   117999397.623    22454545.254    91947634.8624   22454545.547  
                
  22885253.203   122334814.468                    95149292.753    22885258.320  
  22885253.066  
  24508998.508   128795637.545    24509006.668   100360257.7264                 
                
  23091895.438   121348740.660    23091903.516    94557472.2884   23091903.621  
                
  20625265.633   108386498.052    20625274.109    84457067.5684   20625274.270  
                
  23021604.789   123106842.433                    95749780.000    23021612.711  
  23021603.793  
  21842360.727   114782376.443    21842370.047    89440869.4344   21842370.680  
                
  24501771.688   128757686.428    24501779.816   100330695.5254                 
                
  20445438.250   107441542.273    20445447.414    83720740.9094   20445446.867  
                
  21592500.719   113469389.363    21592508.254    88417740.8264   21592508.090  
                
  20716516.930   110897171.419                    86253351.633    20716522.359  
  20716515.398  
 21  8 16  9 31  0.0000000  0 14R 6R21R22G32R 5G16G18G27R20G 8G21G10
                                G23R 7
  19204067.820   102476617.947                                                  
  19204065.473  
  19432111.859   103985169.989                    80877347.127    19432115.328  
  19432109.539  
  20550107.438   109697885.798                    85320602.230    20550109.922  
  20550105.664  
  22448792.375   117969218.984    22448802.410    91924119.0434   22448802.707  
                
  22892852.742   122375438.406                    95180889.125    22892857.898  
  22892852.582  
  24515108.133   128827743.764    24515116.277   100385275.5474                 
                
  23097104.758   121376115.801    23097112.863    94578803.5494   23097112.973  
                
  20625609.977   108388307.618    20625618.457    84458477.6164   20625618.625  
                
  23028144.344   123141812.986                    95776979.288    23028152.395  
  23028143.496  
  21838697.695   114763127.131    21838707.027    89425869.9704   21838707.660  
                
  24496834.062   128731738.884    24496842.141   100310476.6864                 
                
  20446201.336   107445552.356    20446210.484    83723865.6464   20446209.941  
                
  21597055.836   113493326.666    21597063.344    88436393.2654   21597063.191  
                
  20710425.172   110864561.856                    86227988.644    20710430.645  
  20710423.652  
 21  8 16  9 31 10.0000000  0 14R 6R21R22G32R 5G16G18G27R20G 8G21G10
                                G23R 7
  19205136.711   102482321.792                                                  
  19205134.359  
  19433104.922   103990484.122                    80881480.332    19433108.387  
  19433102.598  
  20544967.977   109670451.050                    85299264.108    20544970.480  
  20544966.176  
  22443055.820   117939073.169    22443065.781    91900628.7974   22443066.086  
                
  22900456.234   122416083.372                    95212501.858    22900461.379  
  22900456.074  
  24521219.641   128859859.180    24521227.672   100410300.5184                 
                
  23102317.578   121403509.240    23102325.734    94600149.0834   23102325.824  
                
  20625966.891   108390183.142    20625975.391    84459939.0594   20625975.551  
                
  23034689.203   123176811.145                    95804200.083    23034697.289  
  23034688.305  
  21835044.500   114743929.449    21835053.816    89410910.7354   21835054.480  
                
  24491896.945   128705794.228    24491904.934   100290260.0644                 
                
  20446972.758   107449606.163    20446981.891    83727024.4534   20446981.352  
                
  21601616.148   113517291.229    21601623.633    88455066.9444   21601623.500  
                
  20704343.898   110832008.282                    86202669.197    20704349.387  
  20704342.387  
 21  8 16  9 31 20.0000000  0 14R 6R21R22G32R 5G16G18G27R20G 8G21G10
                                G23R 7
  19206220.922   102488107.324                                                  
  19206218.551  
  19434109.867   103995861.848                    80885663.013    19434113.340  
  19434107.539  
  20539834.875   109643050.341                    85277952.438    20539837.414  
  20539833.070  
  22437325.484   117908960.145    22437335.410    91877164.1194   22437335.723  
                
  22908063.648   122456749.246                    95244130.856    22908068.785  
  22908063.480  
  24527332.875   128891983.567    24527340.766   100435332.4884                 
                
  23107533.852   121430920.942    23107542.070    94621508.8204   23107542.148  
                
  20626336.336   108392124.577    20626344.855    84461451.8594   20626345.016  
                
  23041239.172   123211836.888                    95831442.282    23041247.336  
  23041238.328  
  21831401.078   114724783.200    21831410.359    89395991.5774   21831411.031  
                
  24486960.461   128679852.431    24486968.383   100270045.6964                 
                
  20447752.477   107453703.587    20447761.598    83730217.2484   20447761.062  
                
  21606181.609   113541282.883    21606189.094    88473761.7324   21606188.949  
                
  20698273.086   110799510.774                    86177393.375    20698278.562  
  20698271.566  
 21  8 16  9 31 30.0000000  0 14R 6R21R22G32R 5G16G18G27R20G 8G21G10
                                G23R 7
  19207320.477   102493974.826                                                  
  19207318.090  
  19435126.781   104001303.658                    80889895.521    19435130.250  
  19435124.449  
  20534708.227   109615683.947                    85256667.493    20534710.762  
  20534706.398  
  22431601.492   117878880.408    22431611.434    91853725.3774   22431611.746  
                
  22915675.000   122497436.149                    95275776.205    22915680.129  
  22915674.852  
  24533447.680   128924117.226    24533455.562   100460371.6644                 
                
  23112753.664   121458351.221    23112761.914    94642883.0324   23112762.012  
                
  20626718.391   108394132.266    20626726.934    84463016.2894   20626727.082  
                
  23047794.250   123246890.590                    95858706.221    23047802.617  
  23047793.582  
  21827767.578   114705689.061    21827776.828    89381113.0314   21827777.527  
                
  24482024.477   128653913.833    24482032.465   100249833.8584                 
                
  20448540.547   107457844.931    20448549.648    83733444.2704   20448549.129  
                
  21610752.289   113565301.931    21610759.770    88492477.8684   21610759.625  
                
  20692212.852   110767069.835                    86152161.549    20692218.324  
  20692211.344  
 21  8 16  9 31 40.0000000  0 14R 6R21R22G32R 5G16G18G27R20G 8G21G10
                                G23R 7
  19208435.398   102499924.255                                                  
  19208432.992  
  19436155.656   104006809.476                    80894177.826    19436159.117  
  19436153.320  
  20529588.016   109588352.011                    85235409.314    20529590.578  
  20529586.211  
  22425883.844   117848834.022    22425893.812    91830312.6224   22425894.117  
                
  22923290.250   122538143.955                    95307437.819    22923295.434  
  22923290.125  
  24539564.227   128956260.007    24539572.113   100485417.9644                 
                
  23117977.016   121485800.023    23117985.270    94664271.6884   23117985.383  
                
  20627113.055   108396206.216    20627121.621    84464632.3464   20627121.762  
                
  23054354.719   123281972.182                    95885991.835    23054363.137  
  23054354.059  
  21824143.977   114686646.967    21824153.219    89366275.0424   21824153.938  
                
  24477089.273   128627978.574    24477097.031   100229624.5134                 
                
  20449336.969   107462030.138    20449346.055    83736705.4754   20449345.543  
                
  21615328.156   113589348.284    21615335.637    88511215.2744   21615335.500  
                
  20686163.141   110734685.297                    86126973.588    20686168.605  
  20686161.664  
 21  8 16  9 31 50.0000000  0 14R 6R21R22G32R 5G16G18G27R20G 8G21G10
                                G23R 7
  19209565.609   102505955.313                                                  
  19209563.180  
  19437196.508   104012379.303                    80898509.903    19437199.965  
  19437194.164  
  20524474.242   109561054.371                    85214177.821    20524476.820  
  20524472.438  
  22420172.516   117818820.857    22420182.496    91806925.7544   22420182.805  
                
  22930909.375   122578872.373                    95339115.461    22930914.527  
  22930909.250  
  24545682.555   128988411.573    24545690.367   100510471.1014                 
                
  23123203.844   121513267.112    23123212.094    94685674.5994   23123212.219  
                
  20627520.289   108398346.187    20627528.879    84466299.8534   20627528.996  
                
  23060920.406   123317081.260                    95913298.853    23060928.793  
  23060919.656  
  21820530.273   114667656.854    21820539.523    89351477.5474   21820540.250  
                
  24472154.578   128602046.314    24472162.223   100209417.5804                 
                
  20450141.703   107466258.960    20450150.758    83740000.6604   20450150.270  
                
  21619909.172   113613421.653    21619916.660    88529973.7384   21619916.531  
                
  20680123.992   110702357.219                    86101829.535    20680129.418  
  20680122.531  
 21  8 16  9 32  0.0000000  0 14R 6R21R22G32R 5G16G18G27R20G 8G21G10
                                G23R 7
  19210711.125   102512067.994                                                  
  19210708.664  
  19438249.242   104018012.791                    80902891.496    19438252.695  
  19438246.906  
  20519366.891   109533791.046                    85192973.013    20519369.410  
  20519365.086  
  22414467.492   117788840.854    22414477.484    91783564.7294   22414477.785  
                
  22938532.266   122619621.074                    95370808.876    22938537.438  
  22938532.133  
  24551802.539   129020571.649    24551810.219   100535530.8714                 
                
  23128434.102   121540752.336    23128442.367    94707091.6444   23128442.496  
                
  20627940.047   108400552.033    20627948.648    84468018.6924   20627948.773  
                
  23067491.148   123352217.785                    95940627.233    23067499.574  
  23067490.410  
  21816926.453   114648718.646    21816935.715    89336720.5074   21816936.430  
                
  24467220.461   128576116.979    24467227.832   100189212.8174                 
                
  20450954.680   107470531.184    20450963.699    83743329.6654   20450963.242  
                
  21624495.281   113637521.817    21624502.770    88548753.0734   21624502.645  
                
  20674095.391   110670085.642                    86076729.429    20674100.781  
  20674093.945  
 21  8 16  9 32 10.0000000  0 14R 6R21R22G32R 5G16G18G27R20G 8G21G10
                                G23R 7
  19211871.961   102518262.460                                                  
  19211869.500  
  19439314.000   104023710.551                    80907323.078    19439317.445  
  19439311.691  
  20514266.078   109506562.546                    85171795.296    20514268.621  
  20514264.258  
  22408768.906   117758894.649    22408778.883    91760230.0434   22408779.188  
                
  22946159.039   122660390.456                    95402518.372    22946164.262  
  22946158.871  
  24557924.086   129052740.642    24557931.793   100560597.6024                 
                
  23133667.891   121568256.195    23133676.195    94728523.1834   23133676.340  
                
  20628372.453   108402824.282    20628381.066    84469789.2784   20628381.180  
                
  23074066.945   123387382.207                    95967977.292    23074075.516  
  23074066.348  
  21813332.594   114629832.798    21813341.863    89322004.2674   21813342.566  
                
  24462286.953   128550191.069    24462294.270   100169010.8584                 
                
  20451776.023   107474847.306    20451785.000    83746692.8814   20451784.555  
                
  21629086.578   113661649.211    21629094.066    88567553.6354   21629093.945  
                
  20668077.438   110637871.028                    86051673.612    20668082.770  
  20668075.996  
 21  8 16  9 32 20.0000000  0 14R 6R21R22G32R 5G16G18G27R20G 8G21G10
                                G23R 7
  19213048.023   102524538.257                                                  
  19213045.582  
  19440390.711   104029472.296                    80911804.433    19440394.152  
  19440388.453  
  20509171.758   109479368.735                    85150644.551    20509174.297  
  20509169.926  
  22403076.695   117728981.927    22403086.566    91736921.4314   22403086.910  
                
  22953789.602   122701180.087                    95434243.627    22953794.836  
  22953789.445  
  24564047.227   129084918.101    24564054.938   100585670.9224                 
                
  23138905.164   121595778.257    23138913.488    94749968.9134   23138913.625  
                
  20628817.414   108405162.531    20628826.023    84471611.2824   20628826.137  
                
  23080648.133   123422574.010                    95995348.679    23080656.559  
  23080647.426  
  21809748.625   114610998.954    21809757.914    89307328.5484   21809758.605  
                
  24457354.102   128524268.193    24457361.309   100148811.1884                 
                
  20452605.625   107479206.871    20452614.551    83750089.9454   20452614.129  
                
  21633682.961   113685803.368    21633690.441    88586375.0574   21633690.324  
                
  20662070.062   110605713.106                    86026661.895    20662075.355  
  20662068.613  
 21  8 16  9 32 30.0000000  0 14R 6R21R22G32R 5G16G18G27R20G 8G21G10
                                G23R 7
  19214239.406   102530895.767                                                  
  19214236.938  
  19441479.414   104035298.205                    80916335.689    19441482.844  
  19441477.203  
  20504083.984   109452209.940                    85129521.052    20504086.527  
  20504082.145  
  22397390.930   117699103.036    22397400.676    91713639.1814   22397401.066  
                
  22961423.898   122741989.776                    95465984.493    22961429.141  
  22961423.742  
  24570171.992   129117104.082    24570179.676   100610750.8754                 
                
  23144145.938   121623318.721    23144154.305    94771429.0234   23144154.406  
                
  20629274.984   108407567.050    20629283.582    84473484.9324   20629283.707  
                
  23087234.398   123457793.391                    96022741.519    23087242.754  
  23087233.668  
  21806174.656   114592217.634    21806183.961    89292693.7604   21806184.633  
                
  24452421.703   128498348.570    24452428.984   100128614.1384                 
                
  20453443.531   107483610.095    20453452.410    83753521.0304   20453452.004  
                
  21638284.469   113709984.498    21638291.969    88605217.4874   21638291.852  
                
  20656073.383   110573612.464                    86001694.744    20656078.664  
  20656071.934  
 21  8 16  9 32 40.0000000  0 14R 6R21R22G32R 5G16G18G27R20G 8G21G10
                                G23R 7
  19215446.055   102537334.785                                                  
  19215443.547  
  19442580.133   104041188.404                    80920916.948    19442583.539  
  19442577.945  
  20499002.797   109425086.238                    85108424.848    20499005.363  
  20499000.938  
  22391711.633   117669258.121    22391721.320    91690383.4094   22391721.730  
                
  22969061.977   122782819.645                    95497741.034    22969067.242  
  22969061.840  
  24576298.477   129149298.521    24576306.043   100635837.4254                 
                
  23149390.203   121650877.649    23149398.590    94792903.4904   23149398.695  
                
  20629745.172   108410037.859    20629753.758    84475410.2384   20629753.902  
                
  23093825.688   123493040.357                    96050155.814    23093834.141  
  23093825.055  
  21802610.695   114573488.891    21802620.004    89278099.9344   21802620.672  
                
  24447490.000   128472432.336    24447497.359   100108419.7074                 
                
  20454289.750   107488056.970    20454298.594    83756986.1284   20454298.203  
                
  21642891.102   113734192.544    21642898.633    88624080.8824   21642898.504  
                
  20650087.359   110541568.886                    85976771.975    20650092.625  
  20650085.910  
 21  8 16  9 32 50.0000000  0 14R 6R21R22G32R 5G16G18G27R20G 8G21G10
                                G23R 7
  19216667.930   102543854.983                                                  
  19216665.410  
  19443692.867   104047142.887                    80925548.213    19443696.262  
  19443690.703  
  20493928.211   109397997.810                    85087356.068    20493930.715  
  20493926.352  
  22386038.812   117639447.243    22386048.520    91667154.1774   22386048.910  
                
  22976703.828   122823669.621                    95529513.218    22976709.086  
  22976703.723  
  24582426.539   129181501.236    24582433.996   100660930.4244                 
                
  23154638.023   121678455.027    23154646.414    94814392.3234   23154646.512  
                
  20630227.984   108412574.976    20630236.562    84477387.2114   20630236.707  
                
  23100422.172   123528314.707                    96077591.400    23100430.676  
  23100421.609  
  21799056.742   114554812.752    21799066.039    89263547.0974   21799066.715  
                
  24442558.906   128446519.453    24442566.320   100088227.8684                 
                
  20455144.266   107492547.467    20455153.082    83760485.2104   20455152.715  
                
  21647502.859   113758427.431    21647510.426    88642965.2104   21647510.285  
                
  20644112.047   110509582.602                    85951893.769    20644117.312  
  20644110.578  
 21  8 16  9 33  0.0000000  0 14R 6R21R22G32R 5G16G18G27R20G 8G21G10
                                G23R 7
  19217905.062   102550456.665                                                  
  19217902.520  
  19444817.594   104053161.539                    80930229.379    19444820.980  
  19444815.461  
  20488860.234   109370944.593                    85066314.682    20488862.723  
  20488858.363  
  22380372.430   117609670.246    22380382.176    91643951.3384   22380382.547  
                
  22984349.305   122864539.146                    95561300.599    22984354.605  
  22984349.234  
  24588556.078   129213711.866    24588563.480   100686029.6274                 
                
  23159889.289   121706050.491    23159897.688    94835895.2674   23159897.781  
                
  20630723.344   108415178.090    20630731.918    84479415.6074   20630732.074  
                
  23107023.859   123563616.169                    96105048.062    23107032.297  
  23107023.238  
  21795512.734   114536188.894    21795522.027    89249035.0114   21795522.711  
                
  24437628.430   128420609.645    24437635.922   100068038.4774                 
                
  20456007.016   107497081.220    20456015.820    83764018.0074   20456015.445  
                
  21652119.641   113782688.814    21652127.223    88661870.1644   21652127.078  
                
  20638147.391   110477653.372                    85927059.930    20638152.641  
  20638145.910  
 21  8 16  9 33 10.0000000  0 14R 6R21R22G32R 5G16G18G27R20G 8G21G10
                                G23R 7
  19219157.383   102557139.351                                                  
  19219154.820  
  19445954.312   104059244.351                    80934960.448    19445957.680  
  19445952.230  
  20483798.844   109343926.570                    85045300.670    20483801.312  
  20483796.953  
  22374712.547   117579927.350    22374722.305    91620775.0724   22374722.668  
                
  22991998.453   122905428.259                    95593103.226    22992003.785  
  22991998.430  
  24594687.047   129245930.506    24594694.535   100711134.9994                 
                
  23165144.039   121733664.194    23165152.406    94857412.4324   23165152.500  
                
  20631231.297   108417847.371    20631239.875    84481495.5644   20631240.035  
                
  23113630.859   123598944.877                    96132525.909    23113638.961  
  23113629.902  
  21791978.750   114517617.698    21791988.059    89234563.9494   21791988.730  
                
  24432698.570   128394703.123    24432706.066   100047851.5374                 
                
  20456878.023   107501658.363    20456886.824    83767584.6154   20456886.453  
                
  21656741.477   113806976.751    21656749.062    88680795.8304   21656748.914  
                
  20632193.453   110445781.520                    85902270.729    20632198.695  
  20632191.977  
 21  8 16  9 33 20.0000000  0 14R 6R21R22G32R 5G16G18G27R20G 8G21G10
                                G23R 7
  19220424.945   102563903.397                                                  
  19220422.348  
  19447103.039   104065391.394                    80939741.475    19447106.391  
  19447101.008  
  20478744.086   109316943.983                    85024314.217    20478746.535  
  20478742.203  
  22369059.180   117550218.663    22369068.941    91597625.4544   22369069.301  
                
  22999651.219   122946336.789                    95624920.969    22999656.559  
  22999651.262  
  24600819.555   129278157.039    24600827.090   100736246.5644                 
                
  23170402.195   121761296.147    23170410.559    94878943.7944   23170410.652  
                
  20631751.844   108420582.819    20631760.438    84483627.0774   20631760.586  
                
  23120242.875   123634300.841                    96160024.960    23120250.750  
  23120241.641  
  21788454.773   114499099.050    21788464.090    89220133.8434   21788464.742  
                
  24427769.352   128368799.851    24427776.734   100027667.1774                 
                
  20457757.273   107506278.855    20457766.074    83771184.9964   20457765.691  
                
  21661368.367   113831291.182    21661375.949    88699742.1264   21661375.785  
                
  20626250.250   110413967.087                    85877526.179    20626255.484  
  20626248.789  
 21  8 16  9 33 30.0000000  0 14R 6R21R22G32R 5G16G18G27R20G 8G21G10
                                G23R 7
  19221707.648   102570748.227                                                  
  19221705.031  
  19448263.758   104071602.595                    80944572.401    19448267.094  
  19448261.789  
  20473695.930   109289996.710                    85003355.218    20473698.340  
  20473694.051  
  22363412.305   117520544.095    22363422.070    91574502.4244   22363422.402  
                
  23007307.555   122987264.551                    95656753.654    23007312.902  
  23007307.578  
  24606953.539   129310391.259    24606961.086   100761364.1204                 
                
  23175663.805   121788946.100    23175672.102    94900489.1844   23175672.250  
                
  20632284.930   108423384.232    20632293.551    84485809.9924   20632293.688  
                
  23126859.594   123669683.844                    96187545.035    23126867.625  
  23126858.461  
  21784940.812   114480633.099    21784950.137    89205744.7924   21784950.781  
                
  24422840.820   128342899.728    24422848.012   100007485.2754                 
                
  20458644.727   107510942.451    20458653.531    83774818.9704   20458653.145  
                
  21666000.234   113855631.845    21666007.801    88718708.8734   21666007.625  
                
  20620317.742   110382209.938                    85852826.170    20620322.988  
  20620316.285  
 21  8 16  9 33 40.0000000  0 14R 6R21R22G32R 5G16G18G27R20G 8G21G10
                                G23R 7
  19223005.555   102577674.102                                                  
  19223002.938  
  19449436.469   104077877.929                    80949453.219    19449439.781  
  19449434.562  
  20468654.477   109263085.087                    84982423.969    20468656.855  
  20468652.617  
  22357771.969   117490903.872    22357781.711    91551406.1504   22357782.039  
                
  23014967.500   123028211.417                    95688601.192    23014972.879  
  23014967.496  
  24613089.000   129342632.962    24613096.516   100786487.5124                 
                
  23180928.883   121816614.154    23180937.141    94922048.7134   23180937.324  
                
  20632830.609   108426251.743    20632839.262    84488044.4104   20632839.379  
                
  23133481.484   123705093.688                    96215085.975    23133489.551  
  23133480.277  
  21781436.906   114462219.940    21781446.246    89191396.8744   21781446.887  
                
  24417912.844   128317002.884    24417919.949    99987305.9174                 
                
  20459540.414   107515649.251    20459549.219    83778486.6074   20459548.820  
                
  21670637.117   113879998.802    21670644.645    88737696.1134   21670644.473  
                
  20614395.984   110350510.298                    85828170.913    20614401.254  
  20614394.535  
 21  8 16  9 33 50.0000000  0 14R 6R21R22G32R 5G16G18G27R20G 8G21G10
                                G23R 7
  19224318.672   102584681.189                                                  
  19224316.023  
  19450621.266   104084217.922                    80954384.324    19450624.574  
  19450619.418  
  20463619.758   109236209.365                    84961520.628    20463622.188  
  20463617.910  
  22352138.242   117461298.394    22352147.941    91528336.9534   22352148.270  
                
  23022631.102   123069177.689                    95720463.812    23022636.480  
  23022631.109  
  24619225.930   129374882.423    24619233.418   100811616.9464                 
                
  23186197.477   121844300.634    23186205.746    94943622.5624   23186205.922  
                
  20633388.930   108429185.686    20633397.613    84490330.5944   20633397.715  
                
  23140108.320   123740530.992                    96242648.294    23140116.625  
  23140107.203  
  21777943.141   114443860.033    21777952.500    89177090.4554   21777953.125  
                
  24412985.602   128291109.667    24412992.570    99967129.3684                 
                
  20460444.367   107520399.517    20460453.168    83782188.1144   20460452.766  
                
  21675279.055   113904392.308    21675286.516    88756704.0454   21675286.371  
                
  20608485.102   110318868.849                    85803560.917    20608490.391  
  20608483.652  
 21  8 16  9 34  0.0000000  0 14R 6R21R22G32R 5G16G18G27R20G 8G21G10
                                G23R 7
  19225646.938   102591769.187                                                  
  19225644.281  
  19451818.086   104090622.310                    80959365.515    19451821.379  
  19451816.289  
  20458591.719   109209369.468                    84940645.151    20458594.180  
  20458589.883  
  22346511.086   117431727.488    22346520.758    91505294.7054   22346521.098  
                
  23030298.234   123110162.830                    95752341.127    23030303.617  
  23030298.234  
  24625364.148   129407139.282    24625371.730   100836752.1304                 
                
  23191469.531   121872005.269    23191477.820    94965210.5754   23191477.977  
                
  20633959.844   108432185.844    20633968.562    84492668.3734   20633968.637  
                
  23146740.320   123775995.205                    96270231.516    23146748.715  
  23146739.176  
  21774459.477   114425553.271    21774468.848    89162825.4534   21774469.457  
                
  24408058.898   128265219.759    24408065.848    99946955.4414                 
                
  20461356.539   107525192.973    20461365.320    83785923.2724   20461364.926  
                
  21679925.977   113928812.036    21679933.379    88775732.4034   21679933.258  
                
  20602585.016   110287285.177                    85778995.843    20602590.305  
  20602583.586  
 21  8 16  9 34 10.0000000  0 14R 6R21R22G32R 5G16G18G27R20G 8G21G10
                                G23R 7
  19226990.328   102598937.877                                                  
  19226987.664  
  19453027.000   104097091.336                    80964396.970    19453030.281  
  19453025.270  
  20453570.484   109182565.826                    84919797.866    20453572.902  
  20453568.633  
  22340890.555   117402191.396    22340900.230    91482279.5844   22340900.578  
                
  23037968.898   123151166.837                    95784233.123    23037974.270  
  23037968.875  
  24631503.836   129439403.481    24631511.504   100861893.0324                 
                
  23196745.070   121899728.149    23196753.320    94986812.8054   23196753.480  
                
  20634543.359   108435252.224    20634552.109    84495057.7614   20634552.164  
                
  23153377.133   123811486.499                    96297835.793    23153385.812  
  23153376.180  
  21770985.906   114407299.520    21770995.293    89148601.7444   21770995.879  
                
  24403132.891   128239333.359    24403139.809    99926784.2234                 
                
  20462276.938   107530029.672    20462285.691    83789692.1264   20462285.309  
                
  21684577.891   113953258.044    21684585.270    88794781.2284   21684585.176  
                
  20596695.750   110255759.414                    85754475.815    20596701.043  
  20596694.336  
 21  8 16  9 34 20.0000000  0 14R 6R21R22G32R 5G16G18G27R20G 8G21G10
                                G23R 7
  19228348.844   102606187.230                                                  
  19228346.172  
  19454247.914   104103624.608                    80969478.399    19454251.160  
  19454246.227  
  20448555.977   109155798.018                    84898978.483    20448558.348  
  20448554.117  
  22335276.625   117372689.940    22335286.305    91459291.4484   22335286.652  
                
  23045643.031   123192189.419                    95816139.544    23045648.422  
  23045643.004  
  24637644.828   129471674.730    24637652.609   100887039.4134                 
                
  23202023.977   121927468.946    23202032.219    95008429.0144   23202032.387  
                
  20635139.438   108438384.604    20635148.211    84497498.5704   20635148.246  
                
  23160019.141   123847004.596                    96325460.907    23160027.895  
  23160018.137  
  21767522.391   114389098.636    21767531.789    89134419.2444   21767532.359  
                
  24398207.445   128213450.110    24398214.426    99906615.4774                 
                
  20463205.508   107534909.305    20463214.230    83793494.4354   20463213.863  
                
  21689234.742   113977729.972    21689242.121    88813850.2504   21689242.031  
                
  20590817.289   110224291.553                    85730000.821    20590822.566  
  20590815.883  
 21  8 16  9 34 30.0000000  0 14R 6R21R22G32R 5G16G18G27R20G 8G21G10
                                G23R 7
  19229722.508   102613517.393                                                  
  19229719.855  
  19455480.914   104110222.563                    80974610.143    19455484.152  
  19455479.285  
  20443548.273   109129066.518                    84878187.322    20443550.645  
  20443546.387  
  22329669.359   117343223.548    22329679.027    91436330.6334   22329679.383  
                
  23053320.695   123233230.758                    95848060.568    23053326.074  
  23053320.711  
  24643787.203   129503953.285    24643795.059   100912191.5024                 
                
  23207306.367   121955228.076    23207314.637    95030059.4694   23207314.816  
                
  20635748.141   108441583.341    20635756.934    84499991.0934   20635756.949  
                
  23166666.570   123882549.521                    96353106.918    23166675.008  
  23166665.730  
  21764069.031   114370951.115    21764078.453    89120278.3264   21764079.000  
                
  24393282.680   128187570.498    24393289.633    99886449.5364                 
                
  20464142.320   107539832.268    20464151.020    83797330.5094   20464150.664  
                
  21693896.594   114002228.100    21693903.969    88832939.7014   21693903.875  
                
  20584949.711   110192881.934                    85705571.130    20584954.961  
  20584948.301  
 21  8 16  9 34 40.0000000  0 14R 6R21R22G32R 5G16G18G27R20G 8G21G10
                                G23R 7
  19231111.242   102620927.944                                                  
  19231108.566  
  19456725.922   104116884.748                    80979791.826    19456729.141  
  19456724.340  
  20438547.344   109102371.235                    84857424.320    20438549.727  
  20438545.438  
  22324068.727   117313791.995    22324078.371    91413396.9664   22324078.734  
                
  23061001.766   123274290.372                    95879995.815    23061007.152  
  23061001.820  
  24649930.914   129536238.568    24649938.719   100937348.8534                 
                
  23212592.109   121983005.126    23212600.523    95051703.8794   23212600.668  
                
  20636369.422   108444848.111    20636378.227    84502535.0694   20636378.223  
                
  23173318.898   123918121.039                    96380773.615    23173327.141  
  23173317.703  
  21760625.797   114352856.783    21760635.250    89106178.8454   21760635.758  
                
  24388358.578   128161694.210    24388365.484    99866286.2144                 
                
  20465087.273   107544797.998    20465095.941    83801199.9124   20465095.594  
                
  21698563.336   114026752.029    21698570.707    88852049.2444   21698570.625  
                
  20579092.969   110161530.335                    85681186.569    20579098.191  
  20579091.562  
 21  8 16  9 34 50.0000000  0 14R 6R21R22G32R 5G16G18G27R20G 8G21G10
                                G23R 7
  19232515.078   102628419.118                                                  
  19232512.410  
  19457983.000   104123611.534                    80985023.771    19457986.188  
  19457981.473  
  20433553.234   109075712.380                    84836689.650    20433555.613  
  20433551.344  
  22318474.766   117284395.567    22318484.406    91390490.6724   22318484.762  
                
  23068686.234   123315368.224                    95911945.222    23068691.637  
  23068686.293  
  24656075.984   129568530.774    24656083.688   100962511.5744                 
                
  23217881.344   122010800.290    23217889.824    95073362.4104   23217889.945  
                
  20637003.281   108448179.098    20637012.090    84505130.6364   20637012.082  
                
  23179975.922   123953719.367                    96408461.140    23179984.246  
  23179974.562  
  21757192.734   114334815.947    21757202.227    89092121.0564   21757202.699  
                
  24383435.039   128135821.346    24383441.996    99846125.5354                 
                
  20466040.414   107549806.770    20466049.059    83805102.8504   20466048.727  
                
  21703235.016   114051301.885    21703242.387    88871179.0034   21703242.309  
                
  20573247.133   110130237.163                    85656847.427    20573252.332  
  20573245.738  
 21  8 16  9 35  0.0000000  0 14R 6R21R22G32R 5G16G18G27R20G 8G21G10
                                G23R 7
  19233934.023   102635990.882                                                  
  19233931.363  
  19459252.195   104130403.116                    80990306.110    19459255.367  
  19459250.723  
  20428566.039   109049090.282                    84815983.580    20428568.395  
  20428564.156  
  22312887.531   117255034.466    22312897.172    91367611.9034   22312897.520  
                
  23076374.156   123356464.409                    95943908.896    23076379.594  
  23076374.191  
  24662222.297   129600829.814    24662230.031   100987679.6414                 
                
  23223174.055   122038613.612    23223182.570    95095035.1084   23223182.676  
                
  20637649.781   108451576.388    20637658.594    84507777.8744   20637658.586  
                
  23186638.070   123989344.654                    96436169.684    23186646.398  
  23186636.750  
  21753769.875   114316828.646    21753779.395    89078104.9814   21753779.855  
                
  24378512.242   128109952.109    24378519.203    99825967.7294                 
                
  20467001.758   107554858.617    20467010.387    83809039.3524   20467010.070  
                
  21707911.648   114075877.711    21707919.035    88890328.9794   21707918.965  
                
  20567412.234   110099002.444                    85632553.765    20567417.395  
  20567410.844  
 21  8 16  9 35 10.0000000  0 14R 6R21R22G32R 5G16G18G27R20G 8G21G10
                                G23R 7
  19235368.031   102643643.040                                                  
  19235365.414  
  19460533.438   104137259.183                    80995638.594    19460536.582  
  19460532.012  
  20423585.656   109022504.774                    84795305.986    20423588.090  
  20423583.773  
  22307307.008   117225708.606    22307316.637    91344760.6034   22307316.992  
                
  23084065.445   123397578.544                    95975886.549    23084070.879  
  23084065.480  
  24668369.914   129633135.460    24668377.672   101012852.8564                 
                
  23228470.180   122066444.925    23228478.727    95116721.8234   23228478.828  
                
  20638308.859   108455039.829    20638317.676    84510476.6624   20638317.656  
                
  23193305.148   124024996.348                    96463898.771    23193313.461  
  23193303.840  
  21750357.188   114298894.861    21750366.730    89064130.6094   21750367.164  
                
  24373590.125   128084086.372    24373597.086    99805812.6464                 
                
  20467971.258   107559953.320    20467979.871    83813009.2554   20467979.570  
                
  21712593.172   114100479.257    21712600.566    88909499.0074   21712600.488  
                
  20561588.250   110067826.207                    85608305.611    20561593.387  
  20561586.859  
 21  8 16  9 35 20.0000000  0 14R 6R21R22G32R 5G16G18G27R20G 8G21G10
                                G23R 7
  19236817.039   102651375.266                                                  
  19236814.465  
  19461826.719   104144179.671                    81001021.199    19461829.828  
  19461825.324  
  20418612.117   108995955.767                    84774656.757    20418614.547  
  20418610.230  
  22301733.164   117196417.859    22301742.738    91321936.6474   22301743.105  
                
  23091760.062   123438710.411                    96007877.987    23091765.520  
  23091760.109  
  24674518.734   129665447.363    24674526.512   101038030.9254                 
                
  23233769.672   122094294.003    23233778.273    95138422.3854   23233778.324  
                
  20638980.477   108458569.196    20638989.297    84513226.8054   20638989.277  
                
  23199977.094   124060674.464                    96491648.362    23199985.473  
  23199975.820  
  21746954.664   114281014.478    21746964.219    89050197.8404   21746964.625  
                
  24368668.641   128058223.870    24368675.543    99785660.0194                 
                
  20468948.859   107565090.632    20468957.469    83817012.3574   20468957.168  
                
  21717279.523   114125106.244    21717286.906    88928688.8524   21717286.844  
                
  20555775.164   110036708.346                    85584102.825    20555780.277  
  20555773.789  
 21  8 16  9 35 30.0000000  0 14R 6R21R22G32R 5G16G18G27R20G 8G21G10
                                G23R 7
  19238281.172   102659188.140                                                  
  19238278.605  
  19463132.141   104151165.176                    81006454.376    19463135.246  
  19463130.762  
  20413645.555   108969443.940                    84754036.438    20413648.004  
  20413643.656  
  22296166.141   117167162.974    22296175.645    91299140.6404   22296176.035  
                
  23099458.031   123479860.312                    96039883.443    23099463.539  
  23099458.098  
  24680668.789   129697766.073    24680676.641   101063214.3064                 
                
  23239072.719   122122161.425    23239081.312    95160137.2574   23239081.328  
                
  20639664.758   108462165.112    20639673.598    84516028.8164   20639673.578  
                
  23206653.891   124096379.459                    96519418.869    23206662.500  
  23206652.328  
  21743562.414   114263188.062    21743571.961    89036307.1294   21743572.367  
                
  24363747.844   128032365.216    24363754.816    99765510.4544                 
                
  20469934.688   107570271.151    20469943.297    83821049.1224   20469942.996  
                
  21721970.836   114149759.232    21721978.199    88947898.9634   21721978.133  
                
  20549973.109   110005649.512                    85559945.971    20549978.230  
  20549971.746  
 21  8 16  9 35 40.0000000  0 13R 6R21R22G32R 5G16G18G27G 8G21G10G23
                                R 7
  19239760.297   102667081.059                                                  
  19239757.762  
  19464449.648   104158215.307                    81011937.801    19464452.742  
  19464448.281  
  20408685.906   108942969.020                    84733444.841    20408688.375  
  20408684.008  
  22290605.867   117137943.520    22290615.340    91276372.2514   22290615.754  
                
  23107159.258   123521027.760                    96071902.544    23107164.816  
  23107159.320  
  24686820.062   129730090.937    24686827.898   101088402.4794                 
                
  23244379.180   122150046.688    23244387.770    95181866.0004   23244387.754  
                
  20640361.609   108465827.064    20640370.477    84518882.2774   20640370.438  
                
  21740180.367   114245415.257    21740189.891    89022458.1934   21740190.305  
                
  24358827.781   128006510.035    24358834.738    99745363.5674                 
                
  20470928.633   107575494.301    20470937.250    83825119.1074   20470936.945  
                
  21726666.984   114174437.622    21726674.316    88967128.8804   21726674.277  
                
  20544182.023   109974649.362                    85535834.760    20544187.152  
  20544180.641  
 21  8 16  9 35 50.0000000  0 14R 6R21R22G32R 5G16G18G27R20G 8G21G10
                                G23R 7
  19241254.398   102675053.864                                                  
  19241251.875  
  19465779.188   104165329.833                    81017471.320    19465782.262  
  19465777.840  
  20403733.148   108916530.928                    84712881.881    20403735.684  
  20403731.266  
  22285052.344   117108759.570    22285061.844    91253631.5334   22285062.250  
                
  23114863.719   123562212.481                    96103935.090    23114869.297  
  23114863.766  
  24692972.422   129762421.881    24692980.328   101113595.4104                 
                
  23249689.008   122177949.747    23249697.566    95203608.6224   23249697.523  
                
  20641071.023   108469555.015    20641079.922    84521787.1754   20641079.859  
                
  23220022.328   124167868.179                    96575021.147    23220031.242  
  23220019.758  
  21736808.508   114227696.054    21736818.020    89008651.0194   21736818.434  
                
  24353908.367   127980658.262    24353915.363    99725219.3754                 
                
  20471930.664   107580760.031    20471939.293    83829222.2714   20471938.980  
                
  21731367.953   114199141.336    21731375.254    88986378.5284   21731375.211  
                
  20538401.852   109943707.726                    85511769.058    20538406.988  
  20538400.453  
 21  8 16  9 36  0.0000000  0 14R 6R21R22G32R 5G16G18G27R20G 8G21G10
                                G23R 7
  19242763.492   102683106.683                                                  
  19242760.980  
  19467120.836   104172509.209                    81023055.270    19467123.895  
  19467119.512  
  20398787.352   108890130.009                    84692347.850    20398789.973  
  20398785.438  
  22279505.625   117079611.360    22279515.168    91230918.6644   22279515.555  
                
  23122571.406   123603414.529                    96135981.100    23122577.031  
  23122571.438  
  24699125.914   129794758.822    24699133.922   101138793.0104                 
                
  23255002.234   122205870.713    23255010.762    95225365.2094   23255010.707  
                
  20641793.016   108473349.126    20641801.945    84524743.6194   20641801.859  
                
  23226714.219   124203651.865                    96602852.880    23226723.066  
  23226712.148  
  21733446.930   114210030.810    21733456.430    88994885.8894   21733456.848  
                
  24348989.664   127954810.058    24348996.609    99705077.8804                 
                
  20472940.828   107586068.427    20472949.465    83833358.6824   20472949.160  
                
  21736073.750   114223870.456    21736081.000    89005647.9644   21736080.996  
                
  20532632.719   109912825.147                    85487749.272    20532637.855  
  20532631.324  
 21  8 16  9 36 10.0000000  0 14R 6R21R22G32R 5G16G18G27R20G 8G21G10
                                G23R 7
  19244287.602   102691239.587                                                  
  19244285.105  
  19468474.609   104179753.425                    81028689.663    19468477.664  
  19468473.285  
  20393848.602   108863766.635                    84671843.009    20393851.262  
  20393846.680  
  22273965.750   117050499.112    22273975.285    91208233.8024   22273975.676  
                
  23130282.367   123644634.004                    96168040.665    23130288.035  
  23130282.348  
  24705280.578   129827101.815    24705288.664   101163995.3134                 
                
  23260318.898   122233809.687    23260327.355    95247135.8294   23260327.316  
                
  20642527.633   108477209.500    20642536.590    84527751.6954   20642536.473  
                
  23233410.922   124239462.142                    96630705.275    23233420.031  
  23233408.668  
  21730095.641   114192419.670    21730105.121    88981162.9234   21730105.547  
                
  24344071.633   127928965.522    24344078.609    99684939.3364                 
                
  20473959.117   107591419.564    20473967.762    83837528.3984   20473967.453  
                
  21740784.391   114248625.030    21740791.598    89024937.2314   21740791.641  
                
  20526874.641   109882001.668                    85463775.458    20526879.777  
  20526873.242  
 21  8 16  9 36 20.0000000  0 14R 6R21R22G32R 5G16G18G27R20G 8G21G10
                                G23R 7
  19245826.656   102699452.253                                                  
  19245824.180  
  19469840.484   104187062.403                    81034374.418    19469843.535  
  19469839.164  
  20388916.836   108837440.557                    84651367.170    20388919.500  
  20388914.941  
  22268432.695   117021422.755    22268442.141    91185576.9024   22268442.578  
                
  23137996.531   123685870.495                    96200113.471    23138002.191  
  23137996.477  
  24711436.445   129859450.791    24711444.527   101189202.2924                 
                
  23265638.906   122261766.491    23265647.328    95268920.3264   23265647.332  
                
  20643274.812   108481135.958    20643283.801    84530811.2774   20643283.672  
                
  23240112.711   124275298.580                    96658578.004    23240121.648  
  23240111.215  
  21726754.625   114174862.502    21726764.082    88967482.0164   21726764.527  
                
  24339154.273   127903124.604    24339161.176    99664803.5394                 
                
  20474985.500   107596813.253    20474994.148    83841731.2704   20474993.848  
                
  21745499.836   114273404.812    21745507.027    89044246.1464   21745507.078  
                
  20521127.594   109851237.323                    85439847.640    20521132.723  
  20521126.188  
 21  8 16  9 36 30.0000000  0 14R 6R21R22G32R 5G16G18G27R20G 8G21G10
                                G23R 7
  19247380.625   102707744.473                                                  
  19247378.191  
  19471218.445   104194436.092                    81040109.509    19471221.508  
  19471217.109  
  20383992.047   108811151.784                    84630920.342    20383994.727  
  20383990.164  
  22262906.477   116992382.340    22262915.848    91162948.0174   22262916.316  
                
  23145713.852   123727123.762                    96232199.331    23145719.488  
  23145713.758  
  24717593.328   129891805.259    24717601.410   101214413.5354                 
                
  23270962.281   122289741.058    23270970.703    95290718.6834   23270970.711  
                
  20644034.570   108485128.480    20644043.590    84533922.3294   20644043.453  
                
  23246819.383   124311161.089                    96686471.029    23246828.180  
  23246818.227  
  21723423.867   114157359.282    21723433.305    88953843.1454   21723433.762  
