     2.11           OBSERVATION DATA    M (MIXED)           RINEX VERSION / TYPE
EFT-CORS.RU                             20210817 145414 UTC PGM / RUN BY / DATE 
MDNG                                                        MARKER NAME         
                                                            MARKER NUMBER       
MDNG                EFT-CORS.RU                             OBSERVER / AGENCY   
0                   TRIMBLE BD970       2.0                 REC # / TYPE / VERS 
0                   UNKNOWN EXT NONE                        ANT # / TYPE        
  3463911.2830  3030468.2400  4402179.3760                  APPROX POSITION XYZ 
        0.0000        0.0000        0.0000                  ANTENNA: DELTA H/E/N
     1     1                                                WAVELENGTH FACT L1/2
     6    C1    L1    P2    L2    C2    P1                  # / TYPES OF OBSERV 
    10.000                                                  INTERVAL            
  2021     8    15    20    30    0.0000000     GPS         TIME OF FIRST OBS   
  2021     8    15    21    30    0.0000000     GPS         TIME OF LAST OBS    
     0                                                      RCV CLOCK OFFS APPL 
                                                            END OF HEADER       
 21  8 15 20 30  0.0000000  0 18G17G15R14R 4R21G13G14R12G20G 7G 5G 8
                                R22R 3G30G 9R13R 2
  24114234.383   126721161.549    24114241.113    98743788.9044   24114240.898  
                
  24019932.594   126225596.483    24019939.176    98357639.2764   24019939.348  
                
  22317579.820   118965274.945                    92528538.708    22317584.305  
  22317579.430  
  21877056.336   117150666.184                    91117185.078    21877058.730  
  21877055.762  
  23380959.055   125116241.581                    97312631.405    23380961.582  
  23380957.105  
  21730119.266   114192593.198    21730124.832    88981253.7804                 
                
  20602951.312   108269269.995    20602957.801    84365704.3554   20602957.777  
                
  21075769.320   112583022.799                    87564581.375    21075772.793  
  21075768.801  
  23257754.672   122220332.854    23257760.930    95236657.2394                 
                
  21831382.531   114724731.009    21831388.754    89395952.3044   21831388.621  
                
  22825107.266   119946761.588    22825113.848    93465042.8784   22825114.031  
                
  23525571.609   123627730.807    23525580.449    96333351.1634   23525580.980  
                
  22978283.281   122659671.643                    95401957.736    22978285.305  
  22978281.484  
  19532393.922   104558451.907                    81323257.512    19532397.469  
  19532392.730  
  20535194.883   107913228.906    20535203.242    84088291.8494   20535203.359  
                
  24443410.047   128451017.610    24443419.758   100091752.9364   24443419.598  
                
  19506181.867   104161903.228                    81014889.745    19506184.031  
  19506180.102  
  21216720.219   113216503.613                    88057276.935    21216723.672  
  21216718.152  
 21  8 15 20 30 10.0000000  0 18G17G15R14R 4R21G13G14R12G20G 7G 5G 8
                                R22R 3G30G 9R13R 2
  24107767.523   126687178.281    24107774.336    98717308.4584   24107774.113  
                
  24013406.500   126191301.457    24013413.043    98330915.8424   24013413.195  
                
  22312022.414   118935650.388                    92505497.383    22312026.816  
  22312022.000  
  21870702.180   117116639.999                    91090720.265    21870704.570  
  21870701.617  
  23382054.430   125122103.270                    97317190.488    23382056.965  
  23382052.480  
  21725209.648   114166792.998    21725215.215    88961149.7264                 
                
  20600069.805   108254127.590    20600076.285    84353905.0884   20600076.266  
                
  21081042.016   112611188.608                    87586488.103    21081045.492  
  21081041.508  
  23262780.688   122246744.962    23262786.977    95257238.1044                 
                
  21834875.938   114743088.941    21834882.184    89410257.1784   21834882.031  
                
  22827093.938   119957201.621    22827100.551    93473177.9674   22827100.746  
                
  23528819.938   123644800.818    23528828.723    96346652.4734   23528829.246  
                
  22973819.164   122635841.156                    95383422.933    22973820.988  
  22973817.285  
  19532930.562   104561324.619                    81325491.844    19532934.094  
  19532929.398  
  20535736.688   107916076.117    20535745.016    84090510.4494   20535745.148  
                
  24450395.148   128487724.654    24450404.855   100120355.8314   24450404.715  
                
  19505915.688   104160481.827                    81013784.208    19505917.820  
  19505913.922  
  21224092.664   113255844.350                    88087875.307    21224096.070  
  21224090.594  
 21  8 15 20 30 20.0000000  0 18G17G15R14R 4R21G13G14R12G20G 7G 5G 8
                                R22R 3G30G 9R13R 2
  24101301.508   126653199.444    24101308.395    98690831.4734   24101308.180  
                
  24006884.586   126157028.450    24006891.109    98304209.6104   24006891.246  
                
  22306470.102   118906053.386                    92482477.531    22306474.523  
  22306469.684  
  21864357.688   117082665.524                    91064295.673    21864360.059  
  21864357.137  
  23383165.695   125128049.956                    97321815.697    23383168.262  
  23383163.723  
  21720306.578   114141027.261    21720312.156    88941072.5144                 
                
  20597198.383   108239038.193    20597204.863    84342147.1204   20597204.844  
                
  21086318.102   112639372.486                    87608408.913    21086321.586  
  21086317.582  
  23267812.469   122273187.340    23267818.809    95277842.5494                 
                
  21838373.633   114761469.453    21838379.883    89424579.6514   21838379.730  
                
  22829092.094   119967701.953    22829098.742    93481360.0304   22829098.934  
                
  23532079.594   123661930.355    23532088.320    96360000.1684   23532088.871  
                
  22969366.820   122612074.219                    95364937.547    22969368.656  
  22969364.945  
  19533484.312   104564288.880                    81327797.385    19533487.824  
  19533483.152  
  20536284.820   107918956.560    20536293.117    84092754.9574   20536293.270  
                
  24457382.898   128524445.058    24457392.516   100148969.1304   24457392.387  
                
  19505658.539   104159108.688                    81012716.223    19505660.684  
  19505656.770  
  21231473.430   113295229.394                    88118508.115    21231476.793  
  21231471.344  
 21  8 15 20 30 30.0000000  0 18G17G15R14R 4R21G13G14R12G20G 7G 5G 8
                                R22R 3G30G 9R13R 2
  24094836.352   126619225.495    24094843.371    98664358.2884   24094843.160  
                
  24000366.867   126122777.598    24000373.426    98277520.6574   24000373.535  
                
  22300923.000   118876484.187                    92459479.288    22300927.395  
  22300922.578  
  21858022.883   117048742.896                    91037911.408    21858025.250  
  21858022.344  
  23384292.867   125134081.740                    97326507.093    23384295.438  
  23384290.891  
  21715410.141   114115296.295    21715415.750    88921022.4124                 
                
  20594337.094   108224002.072    20594343.578    84330430.6674   20594343.555  
                
  21091597.641   112667574.813                    87630344.045    21091601.125  
  21091597.121  
  23272850.070   122299660.117    23272856.449    95298470.6694                 
                
  21841875.625   114779872.494    21841881.852    89438919.6674   21841881.695  
                
  22831101.711   119978262.464    22831108.410    93489589.0054   22831108.566  
                
  23535350.578   123679119.470    23535359.250    96373394.2864   23535359.816  
                
  22964926.547   122588371.349                    95346502.010    22964928.359  
  22964924.586  
  19534055.195   104567344.819                    81330174.239    19534058.711  
  19534054.039  
  20536839.328   107921870.516    20536847.602    84095025.5714   20536847.770  
                
  24464373.273   128561178.997    24464382.785   100177592.9634   24464382.656  
                
  19505410.406   104157783.673                    81011685.648    19505412.578  
  19505408.641  
  21238862.375   113334658.240                    88149174.993    21238865.730  
  21238860.293  
 21  8 15 20 30 40.0000000  0 18G17G15R14R 4R21G13G14R12G20G 7G 5G 8
                                R22R 3G30G 9R13R 2
  24088372.172   126585256.365    24088379.258    98637888.8514   24088379.062  
                
  23993853.422   126088549.007    23993859.957    98250848.9974   23993860.039  
                
  22295381.070   118846942.539                    92436502.483    22295385.445  
  22295380.609  
  21851697.812   117014872.423                    91011567.728    21851700.176  
  21851697.254  
  23385435.938   125140198.616                    97331264.675    23385438.500  
  23385433.973  
  21710520.289   114089600.019    21710525.941    88900999.3394                 
                
  20591485.914   108209019.076    20591492.402    84318755.6164   20591492.383  
                
  21096880.570   112695795.306                    87652293.322    21096884.055  
  21096880.074  
  23277893.406   122326163.093    23277899.875    95319122.3484                 
                
  21845381.922   114798298.179    21845388.121    89453277.3444   21845387.977  
                
  22833122.750   119988882.999    22833129.488    93497864.7374   22833129.621  
                
  23538632.898   123696368.098    23538641.504    96386834.7794   23538642.066  
                
  22960498.156   122564732.622                    95328116.328    22960500.027  
  22960496.238  
  19534643.172   104570492.364                    81332622.334    19534646.707  
  19534642.004  
  20537400.188   107924817.857    20537408.445    84097322.2014   20537408.613  
                
  24471366.141   128597926.233    24471375.598   100206227.1704   24471375.477  
                
  19505171.266   104156506.690                    81010692.452    19505173.441  
  19505169.484  
  21246259.531   113374131.005                    88179876.035    21246262.918  
  21246257.438  
 21  8 15 20 30 50.0000000  0 18G17G15R14R 4R21G13G14R12G20G 7G 5G 8
                                R22R 3G30G 9R13R 2
  24081908.961   126551292.134    24081916.105    98611423.2284   24081915.883  
                
  23987344.227   126054342.748    23987350.734    98224194.7474   23987350.805  
                
  22289844.320   118817428.613                    92413547.187    22289848.703  
  22289843.855  
  21845382.469   116981054.075                    90985264.568    21845384.855  
  21845381.898  
  23386594.898   125146400.412                    97336088.278    23386597.449  
  23386592.953  
  21705637.086   114063938.591    21705642.777    88881003.4034                 
                
  20588644.852   108194089.218    20588651.336    84307121.9654   20588651.324  
                
  21102166.852   112724033.634                    87674256.448    21102170.336  
  21102166.348  
  23282942.461   122352696.103    23282948.961    95339797.3994                 
                
  21848892.523   114816746.487    21848898.695    89467652.6434   21848898.566  
                
  22835155.211   119999563.508    22835161.988    93506187.2094   22835162.078  
                
  23541926.516   123713676.145    23541935.098    96400321.5734   23541935.641  
                
  22956081.797   122541157.900                    95309780.424    22956083.652  
  22956079.879  
  19535248.266   104573731.535                    81335141.679    19535251.809  
  19535247.062  
  20537967.383   107927798.499    20537975.625    84099644.7814   20537975.816  
                
  24478361.586   128634686.689    24478370.922   100234871.6804   24478370.797  
                
  19504941.172   104155277.999                    81009736.805    19504943.332  
  19504939.406  
  21253664.898   113413647.593                    88210611.134    21253668.332  
  21253662.793  
 21  8 15 20 31  0.0000000  0 18G17G15R14R 4R21G13G14R12G20G 7G 5G 8
                                R22R 3G30G 9R13R 2
  24075446.711   126517333.149    24075453.891    98584961.6784   24075453.664  
                
  23980839.297   126020158.945    23980845.793    98197558.0094   23980845.855  
                
  22284312.719   118787942.593                    92390613.631    22284317.176  
  22284312.312  
  21839076.914   116947288.144                    90959002.187    21839079.324  
  21839076.340  
  23387769.766   125152687.388                    97340978.151    23387772.277  
  23387767.797  
  21700760.547   114038312.245    21700766.250    88861034.8214                 
                
  20585813.938   108179212.696    20585820.422    84295529.8754   20585820.422  
                
  21107456.523   112752290.150                    87696233.747    21107460.004  
  21107456.012  
  23287997.227   122379259.134    23288003.738    95360495.8554                 
                
  21852407.445   114835217.477    21852413.605    89482045.6144   21852413.488  
                
  22837199.109   120010304.194    22837205.922    93514556.5784   22837206.016  
                
  23545231.383   123731043.280    23545239.973    96413854.4034   23545240.504  
                
  22951677.523   122517647.758                    95291494.798    22951679.445  
  22951675.617  
  19535870.516   104577062.517                    81337732.439    19535874.066  
  19535869.309  
  20538540.953   107930812.644    20538549.184    84101993.4694   20538549.363  
                
  24485359.477   128671460.466    24485368.781   100263526.5704   24485368.668  
                
  19504720.016   104154097.064                    81008818.313    19504722.184  
  19504718.258  
  21261078.539   113453208.118                    88241380.418    21261081.957  
  21261076.406  
 21  8 15 20 31 10.0000000  0 18G17G15R14R 4R21G13G14R12G20G 7G 5G 8
                                R22R 3G30G 9R13R 2
  24068985.484   126483379.295    24068992.660    98558504.1334   24068992.426  
                
  23974338.641   125985997.576    23974345.094    98170938.7384   23974345.164  
                
  22278786.281   118758484.120                    92367701.545    22278790.816  
  22278785.887  
  21832781.164   116913574.649                    90932780.577    21832783.582  
  21832780.586  
  23388960.484   125159059.227                    97345934.043    23388962.980  
  23388958.500  
  21695890.688   114012720.924    21695896.375    88841093.5204                 
                
  20582993.133   108164389.344    20582999.617    84283979.2184   20582999.617  
                
  21112749.562   112780564.567                    87718224.952    21112753.027  
  21112749.055  
  23293057.680   122405851.951    23293064.195    95381217.5184                 
                
  21855926.641   114853710.975    21855932.793    89496456.1214   21855932.680  
                
  22839254.391   120021104.708    22839261.227    93522972.5554   22839261.285  
                
  23548547.500   123748469.574    23548556.121    96427433.3294   23548556.609  
                
  22947285.219   122494201.971                    95273259.200    22947287.258  
  22947283.395  
  19536509.836   104580484.896                    81340394.274    19536513.395  
  19536508.629  
  20539120.867   107933860.131    20539129.098    84104368.1364   20539129.285  
                
  24492359.828   128708247.289    24492369.129   100292191.6224   24492369.008  
                
  19504507.805   104152963.872                    81007936.944    19504509.973  
  19504506.047  
  21268500.383   113492812.387                    88272183.749    21268503.793  
  21268498.273  
 21  8 15 20 31 20.0000000  0 18G17G15R14R 4R21G13G14R12G20G 7G 5G 8
                                R22R 3G30G 9R13R 2
  24062525.250   126449430.827    24062532.438    98532050.7974   24062532.230  
                
  23967842.266   125951858.826    23967848.691    98144337.1114   23967848.746  
                
  22273265.102   118729053.484                    92344811.053    22273269.680  
  22273264.711  
  21826495.234   116879913.805                    90906599.937    21826497.668  
  21826494.641  
  23390167.102   125165516.138                    97350956.078    23390169.574  
  23390165.102  
  21691027.539   113987164.853    21691033.211    88821179.6844                 
                
  20580182.484   108149619.322    20580188.992    84272470.1224   20580188.980  
                
  21118045.953   112808856.899                    87740230.096    21118049.410  
  21118045.461  
  23298123.867   122432474.748    23298130.391    95401962.5414                 
                
  21859450.156   114872227.113    21859456.293    89510884.2854   21859456.184  
                
  22841321.102   120031965.299    22841327.965    93531435.3514   22841328.008  
                
  23551874.945   123765955.409    23551883.574    96441058.6484   23551884.020  
                
  22942905.148   122470821.076                    95255074.060    22942907.176  
  22942903.289  
  19537166.320   104583999.112                    81343127.554    19537169.863  
  19537165.141  
  20539707.156   107936941.075    20539715.391    84106768.8734   20539715.582  
                
  24499362.664   128745047.264    24499371.988   100320866.9244   24499371.883  
                
  19504304.602   104151878.781                    81007092.990    19504306.766  
  19504302.855  
  21275930.328   113532459.973                    88303020.757    21275933.730  
  21275928.238  
 21  8 15 20 31 30.0000000  0 18G17G15R14R 4R21G13G14R12G20G 7G 5G 8
                                R22R 3G30G 9R13R 2
  24056066.008   126415487.816    24056073.266    98505601.7294   24056073.078  
                
  23961350.242   125917742.883    23961356.645    98117753.2644   23961356.699  
                
  22267749.164   118699650.722                    92321942.225    22267753.746  
  22267748.758  
  21820219.211   116846305.970                    90880460.507    21820221.660  
  21820218.637  
  23391389.594   125172058.003                    97356044.198    23391392.039  
  23391387.586  
  21686171.102   113961644.129    21686176.781    88801293.3954                 
                
  20577381.992   108134902.660    20577388.543    84261002.6104   20577388.512  
                
  21123345.672   112837167.060                    87762249.107    21123349.105  
  21123345.191  
  23303195.727   122459127.161    23303202.199    95422730.6494                 
                
  21862977.977   114890765.934    21862984.102    89525330.1174   21862984.008  
                
  22843399.250   120042886.029    22843406.148    93539945.0134   22843406.191  
                
  23555213.617   123783500.304    23555222.227    96454730.0074   23555222.652  
                
  22938537.281   122447505.160                    95236939.469    22938539.336  
  22938535.395  
  19537839.953   104587605.089                    81345932.198    19537843.480  
  19537838.781  
  20540299.812   107940055.511    20540308.055    84109195.7074   20540308.238  
                
  24506367.992   128781860.308    24506377.359   100349552.3964   24506377.250  
                
  19504110.398   104150841.748                    81006286.405    19504112.543  
  19504108.648  
  21283368.406   113572150.865                    88333891.448    21283371.812  
  21283366.336  
 21  8 15 20 31 40.0000000  0 18G17G15R14R 4R21G13G14R12G20G 7G 5G 8
                                R22R 3G30G 9R13R 2
  24049607.773   126381550.174    24049615.133    98479156.8234   24049614.938  
                
  23954862.492   125883649.592    23954868.895    98091187.0594   23954868.926  
                
  22262238.453   118670275.716                    92299095.019    22262243.059  
  22262238.070  
  21813953.016   116812750.850                    90854362.094    21813955.488  
  21813952.465  
  23392627.984   125178684.803                    97361198.358    23392630.387  
  23392625.973  
  21681321.430   113936158.960    21681327.137    88781434.8084                 
                
  20574591.617   108120239.213    20574598.223    84249576.5484   20574598.164  
                
  21128648.703   112865494.851                    87784281.830    21128652.121  
  21128648.250  
  23308273.117   122485808.936    23308279.590    95443521.6454                 
                
  21866510.070   114909327.194    21866516.176    89539793.4244   21866516.098  
                
  22845488.781   120053866.560    22845495.684    93548501.2704   22845495.742  
                
  23558563.492   123801104.061    23558572.031    96468447.2214   23558572.469  
                
  22934181.477   122424253.957                    95218855.219    22934183.625  
  22934179.594  
  19538530.664   104591302.511                    81348807.964    19538534.188  
  19538529.500  
  20540898.805   107943203.227    20540907.059    84111648.4794   20540907.234  
                
  24513375.828   128818686.202    24513385.145   100378247.8854   24513385.043  
                
  19503925.195   104149852.774                    81005517.211    19503927.367  
  19503923.434  
  21290814.484   113611884.467                    88364795.359    21290817.859  
  21290812.406  
 21  8 15 20 31 50.0000000  0 18G17G15R14R 4R21G13G14R12G20G 7G 5G 8
                                R22R 3G30G 9R13R 2
  24043150.727   126347618.296    24043158.145    98452716.4344   24043157.926  
                
  23948379.094   125849579.333    23948385.582    98064638.8324   23948385.574  
                
  22256732.977   118640928.672                    92276269.584    22256737.574  
  22256732.602  
  21807696.773   116779248.975                    90828305.076    21807699.273  
  21807696.227  
  23393882.250   125185396.635                    97366418.664    23393884.621  
  23393880.277  
  21676478.586   113910709.616    21676484.305    88761604.1464                 
                
  20571811.430   108105629.252    20571818.086    84238192.1744   20571818.000  
                
  21133955.078   112893840.455                    87806328.406    21133958.488  
  21133954.648  
  23313356.133   122512520.245    23313362.609    95464335.6414                 
                
  21870046.508   114927911.244    21870052.598    89554274.4924   21870052.523  
                
  22847589.680   120064906.748    22847596.562    93557104.0134   22847596.625  
                
  23561924.633   123818766.990    23561933.109    96482210.5554   23561933.582  
                
  22929837.758   122401068.047                    95200821.747    22929840.113  
  22929835.992  
  19539238.531   104595091.771                    81351755.179    19539242.059  
  19539237.363  
  20541504.188   107946384.540    20541512.449    84114127.4244   20541512.629  
                
  24520386.070   128855525.115    24520395.414   100406953.5224   24520395.309  
                
  19503748.938   104148911.573                    81004785.168    19503751.113  
  19503747.184  
  21298268.711   113651661.652                    88395733.189    21298272.059  
  21298266.629  
 21  8 15 20 32  0.0000000  0 18G17G15R14R 4R21G13G14R12G20G 7G 5G 8
                                R22R 3G30G 9R13R 2
  24036694.773   126313692.210    24036702.227    98426280.5334   24036701.980  
                
  23941900.094   125815532.228    23941906.684    98038108.6444   23941906.637  
                
  22251232.820   118611609.759                    92253465.966    22251237.363  
  22251232.426  
  21801450.516   116745800.562                    90802289.640    21801453.031  
  21801449.953  
  23395152.391   125192193.460                    97371705.100    23395154.754  
  23395150.430  
  21671642.438   113885295.489    21671648.141    88741800.9134                 
                
  20569041.414   108091072.763    20569048.109    84226849.4614   20569047.992  
                
  21139264.750   112922203.735                    87828388.728    21139268.141  
  21139264.312  
  23318444.750   122539260.939    23318451.254    95485172.5464                 
                
  21873587.250   114946517.973    21873593.328    89568773.2324   21873593.250  
                
  22849701.906   120076006.605    22849708.785    93565753.2484   22849708.863  
                
  23565297.000   123836489.039    23565305.469    96496019.9454   23565305.938  
                
  22925506.445   122377947.481                    95182839.089    22925508.809  
  22925504.719  
  19539963.539   104598972.875                    81354773.817    19539967.082  
  19539962.355  
  20542115.945   107949599.390    20542124.211    84116632.5064   20542124.395  
                
  24527398.742   128892376.967    24527408.129   100435669.2234   24527408.000  
                
  19503581.586   104148017.992                    81004090.165    19503583.770  
  19503579.820  
  21305730.969   113691481.714                    88426704.328    21305734.297  
  21305728.879  
 21  8 15 20 32 10.0000000  0 18G17G15R14R 4R21G13G14R12G20G 7G 5G 8
                                R22R 3G30G 9R13R 2
  24030240.031   126279772.134    24030247.461    98399849.3184   24030247.191  
                
  23935425.523   125781508.352    23935432.156    98011596.5354   23935432.121  
                
  22245737.914   118582318.766                    92230684.086    22245742.398  
  22245737.500  
  21795214.281   116712405.796                    90776315.943    21795216.805  
  21795213.695  
  23396438.414   125199075.246                    97377057.588    23396440.801  
  23396436.406  
  21666813.078   113859917.018    21666818.758    88722025.4684                 
                
  20566281.602   108076569.851    20566288.324    84215548.4974   20566288.188  
                
  21144577.758   112950584.788                    87850462.874    21144581.133  
  21144577.324  
  23323538.969   122566030.994    23323545.469    95506032.3214                 
                
  21877132.336   114965147.493    21877138.410    89583289.7304   21877138.340  
                
  22851825.523   120087166.242    22851832.398    93574449.0654   22851832.449  
                
  23568680.625   123854270.129    23568689.098    96509875.3504   23568689.543  
                
  22921187.586   122354892.594                    95164907.552    22921189.855  
  22921185.832  
  19540705.727   104602945.890                    81357863.932    19540709.281  
  19540704.535  
  20542734.109   107952847.854    20542742.367    84119163.7814   20542742.566  
                
  24534413.836   128929241.791    24534423.305   100464395.0384   24534423.141  
                
  19503423.289   104147172.696                    81003432.728    19503425.461  
  19503421.516  
  21313201.234   113731344.376                    88457708.627    21313204.559  
  21313199.117  
 21  8 15 20 32 20.0000000  0 18G17G15R14R 4R21G13G14R12G20G 7G 5G 8
                                R22R 3G30G 9R13R 2
  24023786.344   126245857.627    24023793.746    98373422.4184   24023793.453  
                
  23928955.352   125747507.581    23928962.027    97985102.4454   23928962.004  
                
  22240248.203   118553055.642                    92207923.894    22240252.703  
  22240247.848  
  21788988.031   116679064.492                    90750383.833    21788990.559  
  21788987.441  
  23397740.258   125206041.719                    97382475.951    23397742.645  
  23397738.238  
  21661990.469   113834574.032    21661996.141    88702277.6714                 
                
  20563531.914   108062120.183    20563538.648    84204289.0224   20563538.520  
                
  21149893.992   112978983.082                    87872550.446    21149897.355  
  21149893.574  
  23328638.672   122592829.906    23328645.148    95526914.5984                 
                
  21880681.680   114983799.395    21880687.738    89597823.6754   21880687.680  
                
  22853960.461   120098385.428    22853967.340    93583191.2884   22853967.398  
                
  23572075.414   123872109.930    23572083.910    96523776.4924   23572084.340  
                
  22916880.914   122331903.104                    95147026.838    22916883.152  
  22916879.152  
  19541464.992   104607010.268                    81361025.091    19541468.555  
  19541463.820  
  20543358.609   107956129.615    20543366.855    84121721.0014   20543367.062  
                
  24541431.367   128966119.136    24541440.844   100493130.6124   24541440.637  
                
  19503273.844   104146374.718                    81002812.076    19503276.016  
  19503272.074  
  21320679.453   113771249.503                    88488745.941    21320682.797  
  21320677.312  
 21  8 15 20 32 30.0000000  0 18G17G15R14R 4R21G13G14R12G20G 7G 5G 8
                                R22R 3G30G 9R13R 2
  24017333.852   126211949.533    24017341.254    98347000.5704   24017340.961  
                
  23922489.680   125713530.233    23922496.355    97958626.5784   23922496.352  
                
  22234763.797   118523820.562                    92185185.512    22234768.262  
  22234763.453  
  21782771.828   116645776.904                    90724493.483    21782774.340  
  21782771.254  
  23399058.000   125213093.191                    97387960.439    23399060.383  
  23399056.008  
  21657174.664   113809266.805    21657180.336    88682557.7494                 
                
  20560792.414   108047724.007    20560799.148    84193071.2294   20560799.020  
                
  21155213.508   113007398.910                    87894651.650    21155216.863  
  21155213.125  
  23333743.867   122619657.817    23333750.336    95547819.4704                 
                
  21884235.328   115002473.924    21884241.379    89612375.2454   21884241.312  
                
  22856106.727   120109664.111    22856113.602    93591979.8734   22856113.668  
                
  23575481.391   123890008.486    23575489.941    96537723.4294   23575490.348  
                
  22912586.508   122308979.305                    95129197.222    22912588.773  
  22912584.785  
  19542241.398   104611166.404                    81364257.648    19542244.961  
  19542240.273  
  20543989.477   107959444.872    20543997.715    84124304.3184   20543997.934  
                
  24548451.305   129003009.194    24548460.793   100521876.1014   24548460.551  
                
  19503133.367   104145624.596                    81002228.641    19503135.555  
  19503131.594  
  21328165.617   113811197.170                    88519816.341    21328168.992  
  21328163.480  
 21  8 15 20 32 40.0000000  0 18G17G15R14R 4R21G13G14R12G20G 7G 5G 8
                                R22R 3G30G 9R13R 2
  24010882.477   126178047.498    24010889.906    98320583.4054   24010889.613  
                
  23916028.438   125679576.124    23916035.121    97932168.8394   23916035.129  
                
  22229284.617   118494613.340                    92162468.799    22229289.074  
  22229284.234  
  21776565.633   116612542.959                    90698644.856    21776568.109  
  21776565.039  
  23400391.539   125220229.253                    97393510.713    23400393.902  
  23400389.555  
  21652365.633   113783995.267    21652371.316    88662865.6404                 
                
  20558063.047   108033381.157    20558069.773    84181894.9854   20558069.652  
                
  21160536.227   113035831.907                    87916766.199    21160539.590  
  21160535.863  
  23338854.484   122646514.483    23338860.961    95568746.7254                 
                
  21887793.242   115021170.870    21887799.305    89626944.2944   21887799.230  
                
  22858264.242   120121001.995    22858271.105    93600814.5714   22858271.191  
                
  23578898.516   123907965.717    23578907.086    96551716.0884   23578907.488  
                
  22908304.445   122286121.184                    95111418.681    22908306.738  
  22908302.699  
  19543034.914   104615414.115                    81367561.415    19543038.488  
  19543033.824  
  20544626.680   107962793.445    20544634.910    84126913.5974   20544635.129  
                
  24555473.594   129039911.684    24555483.086   100550631.2854   24555482.816  
                
  19503001.789   104144921.987                    81001682.164    19503003.973  
  19503000.000  
  21335659.672   113851187.123                    88550919.648    21335663.062  
  21335657.562  
 21  8 15 20 32 50.0000000  0 18G17G15R14R 4R21G13G14R12G20G 7G 5G 8
                                R22R 3G30G 9R13R 2
  24004432.281   126144151.910    24004439.789    98294171.2734   24004439.488  
                
  23909571.703   125645645.615    23909578.340    97905729.4704   23909578.348  
                
  22223810.711   118465434.294                    92139773.995    22223815.180  
  22223810.332  
  21770369.562   116579363.303                    90672838.473    21770372.020  
  21770368.973  
  23401740.969   125227450.281                    97399127.077    23401743.316  
  23401739.023  
  21647563.484   113758759.840    21647569.172    88643201.6614                 
                
  20555343.898   108019091.927    20555350.613    84170760.5244   20555350.500  
                
  21165862.234   113064282.438                    87938894.378    21165865.602  
  21165861.871  
  23343970.586   122673400.026    23343977.102    95589696.5034                 
                
  21891355.484   115039890.528    21891361.570    89641531.0354   21891361.488  
                
  22860433.070   120132399.262    22860439.906    93609695.5694   22860440.023  
                
  23582326.836   123925981.716    23582335.406    96565754.5174   23582335.809  
                
  22904034.828   122263329.421                    95093691.756    22904037.070  
  22904033.023  
  19543845.586   104619753.630                    81370936.585    19543849.152  
  19543844.555  
  20545270.281   107966175.608    20545278.520    84129549.0514   20545278.746  
                
  24562498.312   129076826.786    24562507.777   100579396.3034   24562507.488  
                
  19502879.141   104144267.105                    81001172.816    19502881.348  
  19502877.355  
  21343161.625   113891219.071                    88582055.593    21343165.004  
  21343159.523  
 21  8 15 20 33  0.0000000  0 18G17G15R14R 4R21G13G14R12G20G 7G 5G 8
                                R22R 3G30G 9R13R 2
  23997983.242   126110262.397    23997990.812    98267763.8674   23997990.520  
                
  23903119.422   125611738.498    23903125.969    97879308.3164   23903125.980  
                
  22218342.000   118436283.000                    92117100.766    22218346.453  
  22218341.605  
  21764183.555   116546237.516                    90647073.982    21764186.000  
  21764182.914  
  23403106.188   125234755.811                    97404809.155    23403108.535  
  23403104.270  
  21642768.164   113733560.285    21642773.863    88623565.6304                 
                
  20552634.891   108004855.988    20552641.598    84159667.5904   20552641.488  
                
  21171191.375   113092749.737                    87961035.608    21171194.746  
  21171191.031  
  23349092.125   122700313.946    23349098.637    95610668.3704                 
                
  21894921.984   115058632.551    21894928.094    89656135.2034   21894928.016  
                
  22862613.141   120143855.616    22862619.949    93618622.5754   22862620.094  
                
  23585766.266   123944055.992    23585774.836    96579838.3964   23585775.215  
                
  22899777.438   122240603.382                    95076015.988    22899779.707  
  22899775.641  
  19544673.352   104624184.613                    81374382.905    19544676.910  
  19544672.352  
  20545920.211   107969591.017    20545928.457    84132210.4094   20545928.668  
                
  24569525.414   129113754.114    24569534.797   100608170.8384   24569534.484  
                
  19502765.359   104143659.531                    81000700.267    19502767.578  
  19502763.562  
  21350671.500   113931293.128                    88613224.288    21350674.859  
  21350669.387  
 21  8 15 20 33 10.0000000  0 18G17G15R14R 4R21G13G14R12G20G 7G 5G 8
                                R22R 3G30G 9R13R 2
  23991535.539   126076379.470    23991543.098    98241361.5894   23991542.797  
                
  23896671.633   125577855.108    23896678.148    97852905.6864   23896678.133  
                
  22212878.570   118407159.794                    92094449.402    22212883.027  
  22212878.141  
  21758007.703   116513166.136                    90621351.808    21758010.160  
  21758007.027  
  23404487.242   125242146.142                    97410557.191    23404489.605  
  23404485.297  
  21637979.742   113708396.966    21637985.457    88603957.8434                 
                
  20549936.078   107990673.620    20549942.781    84148616.4014   20549942.668  
                
  21176523.742   113121234.230                    87983190.203    21176527.117  
  21176523.402  
  23354219.117   122727256.446    23354225.629    95631662.5054                 
                
  21898492.781   115077397.177    21898498.938    89670756.9864   21898498.852  
                
  22864804.477   120155371.169    22864811.297    93627595.7374   22864811.465  
                
  23589216.812   123962188.706    23589225.371    96593967.7954   23589225.758  
                
  22895532.586   122217943.818                    95058391.881    22895534.754  
  22895530.766  
  19545518.242   104628707.338                    81377900.573    19545521.805  
  19545517.270  
  20546576.523   107973039.946    20546584.793    84134897.8874   20546584.984  
                
  24576554.852   129150693.873    24576564.168   100636955.0674   24576563.852  
                
  19502660.508   104143099.679                    81000264.827    19502662.734  
  19502658.711  
  21358189.148   113971408.925                    88644425.451    21358192.562  
  21358187.070  
 21  8 15 20 33 20.0000000  0 18G17G15R14R 4R21G13G14R12G20G 7G 5G 8
                                R22R 3G30G 9R13R 2
  23985089.102   126042503.131    23985096.645    98214964.4454   23985096.344  
                
  23890228.375   125543995.475    23890234.773    97826521.5274   23890234.738  
                
  22207420.391   118378064.826                    92071820.014    22207424.891  
  22207419.965  
  21751842.031   116480149.237                    90595671.997    21751844.477  
  21751841.336  
  23405884.117   125249621.122                    97416371.075    23405886.516  
  23405882.152  
  21633198.203   113683269.843    21633203.949    88584378.2624                 
                
  20547247.438   107976544.745    20547254.137    84137606.8974   20547254.016  
                
  21181859.297   113149735.798                    88005358.101    21181862.680  
  21181858.953  
  23359351.492   122754227.248    23359358.000    95652678.7284                 
                
  21902067.875   115096184.336    21902074.070    89685396.3174   21902073.957  
                
  22867007.070   120166945.828    22867013.891    93636614.9464   22867014.043  
                
  23592678.469   123980379.830    23592687.027    96608142.7034   23592687.414  
                
  22891300.078   122195350.523                    95040819.318    22891302.297  
  22891298.254  
  19546380.234   104633321.633                    81381489.472    19546383.816  
  19546379.270  
  20547239.188   107976522.268    20547247.480    84137611.3884   20547247.660  
                
  24583586.609   129187645.883    24583595.879   100665748.8354   24583595.578  
                
  19502564.500   104142586.995                    80999866.080    19502566.738  
  19502562.703  
  21365714.641   114011566.502                    88675659.117    21365718.090  
  21365712.562  
 21  8 15 20 33 30.0000000  0 18G17G15R14R 4R21G13G14R12G20G 7G 5G 8
                                R22R 3G30G 9R13R 2
  23978643.906   126008633.412    23978651.438    98188572.4564   23978651.156  
                
  23883789.648   125510159.642    23883795.910    97800155.9484   23883795.926  
                
  22201967.469   118348997.768                    92049212.325    22201972.000  
  22201967.031  
  21745686.547   116447186.906                    90570034.651    21745689.020  
  21745685.824  
  23407296.828   125257180.822                    97422250.850    23407299.242  
  23407294.879  
  21628423.594   113658179.113    21628429.387    88564827.0444                 
                
  20544569.000   107962469.409    20544575.676    84126639.1044   20544575.559  
                
  21187198.031   113178254.330                    88027539.164    21187201.398  
  21187197.676  
  23364489.297   122781226.291    23364495.746    95673716.9414                 
                
  21905647.242   115114994.007    21905653.461    89700053.1994   21905653.340  
                
  22869220.922   120178579.625    22869227.738    93645680.2414   22869227.895  
                
  23596151.219   123998629.194    23596159.746    96622362.9984   23596160.145  
                
  22887080.031   122172823.761                    95023298.524    22887082.297  
  22887078.227  
  19547259.344   104638027.527                    81385149.594    19547262.930  
  19547258.391  
  20547908.211   107980038.058    20547916.523    84140350.9694   20547916.676  
                
  24590620.641   129224610.088    24590629.930   100694552.0974   24590629.648  
                
  19502477.336   104142121.538                    80999504.046    19502479.555  
  19502475.543  
  21373248.023   114051765.994                    88706925.392    21373251.480  
  21373245.922  
 21  8 15 20 33 40.0000000  0 18G17G15R14R 4R21G13G14R12G20G 7G 5G 8
                                R22R 3G30G 9R13R 2
  23972199.984   125974770.493    23972207.512    98162185.7514   23972207.227  
                
  23877355.484   125476347.689    23877361.672    97773808.9564   23877361.688  
                
  22196519.836   118319958.837                    92026626.491    22196524.352  
  22196519.391  
  21739541.289   116414279.407                    90544439.936    21739543.766  
  21739540.570  
  23408725.336   125264825.049                    97428196.371    23408727.750  
  23408723.414  
  21623655.898   113633124.748    21623661.730    88545304.1494                 
                
  20541900.727   107948447.586    20541907.359    84115713.0074   20541907.258  
                
  21192539.938   113206789.809                    88049733.428    21192543.309  
  21192539.547  
  23369632.383   122808253.442    23369638.820    95694777.0504                 
                
  21909230.898   115133826.175    21909237.137    89714727.6144   21909236.992  
                
  22871446.016   120190272.497    22871452.836    93654791.5594   22871452.977  
                
  23599635.078   124016937.031    23599643.559    96636628.8434   23599643.988  
                
  22882872.523   122150363.805                    95005829.673    22882874.711  
  22882870.715  
  19548155.578   104642825.050                    81388881.005    19548159.164  
  19548154.660  
  20548583.594   107983587.250    20548591.926    84143116.5684   20548592.055  
                
  24597657.000   129261586.390    24597666.312   100723364.7904   24597666.027  
                
  19502399.023   104141703.359                    80999178.800    19502401.246  
  19502397.215  
  21380789.117   114092006.688                    88738223.702    21380792.570  
  21380787.020  
 21  8 15 20 33 50.0000000  0 18G17G15R14R 4R21G13G14R12G20G 7G 5G 8
                                R22R 3G30G 9R13R 2
  23965757.398   125940914.596    23965764.898    98135804.5234   23965764.629  
                
  23870925.898   125442559.840    23870932.070    97747480.7534   23870932.066  
                
  22191077.523   118290948.235                    92004062.692    22191082.031  
  22191077.074  
  21733406.289   116381426.821                    90518887.938    21733408.793  
  21733405.566  
  23410169.672   125272553.924                    97434207.714    23410172.062  
  23410167.754  
  21618895.172   113608106.968    21618901.035    88525809.7584                 
                
  20539242.664   107934479.395    20539249.250    84104828.7074   20539249.172  
                
  21197884.984   113235342.053                    88071940.707    21197888.355  
  21197884.594  
  23374780.805   122835308.709    23374787.250    95715859.0574                 
                
  21912818.852   115152680.942    21912825.094    89729419.6374   21912824.934  
                
  22873682.320   120202024.256    22873689.141    93663948.7644   22873689.305  
                
  23603130.016   124035303.054    23603138.492    96650940.0384   23603138.934  
                
  22878677.586   122127970.589                    94988412.741    22878679.660  
  22878675.730  
  19549068.938   104647714.216                    81392683.683    19549072.539  
  19549068.062  
  20549265.352   107987169.927    20549273.695    84145908.2724   20549273.809  
                
  24604695.688   129298574.859    24604704.977   100752186.9544   24604704.707  
                
  19502329.633   104141332.833                    80998890.616    19502331.848  
  19502327.836  
  21388337.914   114132288.568                    88769554.038    21388341.402  
  21388335.863  
 21  8 15 20 34  0.0000000  0 18G17G15R14R 4R21G13G14R12G20G 7G 5G 8
                                R22R 3G30G 9R13R 2
  23959316.188   125907065.763    23959323.637    98109428.7994   23959323.402  
                
  23864500.938   125408796.206    23864507.066    97721171.4154   23864507.086  
                
  22185640.414   118261965.609                    91981520.688    22185644.938  
  22185639.973  
  21727281.570   116348629.292                    90493378.767    21727284.090  
  21727280.848  
  23411629.812   125280367.324                    97440284.811    23411632.191  
  23411627.883  
  21614141.391   113583125.651    21614147.289    88506343.7884                 
                
  20536594.812   107920564.840    20536601.352    84093986.2094   20536601.289  
                
  21203233.180   113263911.126                    88094161.107    21203236.535  
  21203232.773  
  23379934.555   122862391.893    23379941.000    95736962.8334                 
                
  21916411.094   115171558.256    21916417.332    89744129.2194   21916417.188  
                
  22875929.812   120213834.861    22875936.633    93673151.8334   22875936.797  
                
  23606636.078   124053727.466    23606644.578    96665296.7304   23606645.020  
                
  22874495.242   122105644.361                    94971047.899    22874497.117  
  22874493.316  
  19549999.430   104652695.087                    81396557.687    19550003.035  
  19549998.609  
  20549953.492   107990786.118    20549961.844    84148726.0824   20549961.941  
                
  24611736.617   129335575.388    24611745.934   100781018.5074   24611745.684  
                
  19502269.117   104141009.730                    80998639.315    19502271.332  
  19502267.324  
  21395894.539   114172611.876                    88800916.612    21395898.004  
  21395892.492  
 21  8 15 20 34 10.0000000  0 18G17G15R14R 4R21G13G14R12G20G 7G 5G 8
                                R22R 3G30G 9R13R 2
  23952876.312   125873224.103    23952883.750    98083058.6684   23952883.516  
                
  23858080.562   125375056.833    23858086.668    97694880.9744   23858086.723  
                
  22180208.609   118233011.149                    91959000.549    22180213.137  
  22180208.203  
  21721167.180   116315887.015                    90467912.558    21721169.703  
  21721166.465  
  23413105.711   125288265.236                    97446427.655    23413108.105  
  23413103.746  
  21609394.562   113558180.891    21609400.484    88486906.3024                 
                
  20533957.164   107906703.913    20533963.660    84083185.4874   20533963.617  
                
  21208584.523   113292497.021                    88116394.596    21208587.898  
  21208584.105  
  23385093.609   122889502.885    23385100.031    95758088.2724                 
                
  21920007.617   115190458.015    21920013.852    89758856.2924   21920013.695  
                
  22878188.492   120225704.240    22878195.305    93682400.6914   22878195.461  
                
  23610153.141   124072209.688    23610161.664    96679698.4704   23610162.078  
                
  22870325.422   122083385.344                    94953735.324    22870327.191  
  22870323.488  
  19550947.031   104657767.560                    81400502.934    19550950.648  
  19550946.250  
  20550647.992   107994435.764    20550656.344    84151569.9624   20550656.441  
                
  24618779.820   129372587.855    24618789.156   100809859.3714   24618788.938  
                
  19502217.453   104140733.807                    80998424.712    19502219.660  
  19502215.656  
  21403458.789   114212976.009                    88832310.939    21403462.219  
  21403456.738  
 21  8 15 20 34 20.0000000  0 18G17G15R14R 4R21G13G14R12G20G 7G 5G 8
                                R22R 3G30G 9R13R 2
  23946437.859   125839389.703    23946445.230    98056694.1834   23946445.000  
                
  23851664.758   125341341.754    23851670.938    97668609.5024   23851671.000  
                
  22174782.109   118204084.917                    91936502.352    22174786.609  
  22174781.730  
  21715063.125   116283200.165                    90442489.461    21715065.656  
  21715062.398  
  23414597.422   125296247.761                    97452636.282    23414599.848  
  23414595.414  
  21604654.711   113533272.840    21604660.668    88467497.4394                 
                
  20531329.711   107892896.602    20531336.168    84072426.5464   20531336.145  
                
  21213938.969   113321099.551                    88138640.990    21213942.348  
  21213938.539  
  23390257.875   122916641.518    23390264.316    95779235.2554                 
                
  21923608.406   115209380.261    21923614.633    89773600.8924   21923614.473  
                
  22880458.336   120237632.317    22880465.145    93691695.2984   22880465.305  
                
  23613681.234   124090749.966    23613689.781    96694145.4484   23613690.172  
                
  22866168.203   122061193.544                    94936475.052    22866169.953  
  22866166.258  
  19551911.719   104662931.586                    81404519.395    19551915.340  
  19551910.941  
  20551348.859   107998118.868    20551357.207    84154439.9104   20551357.301  
                
  24625825.312   129409612.187    24625834.617   100838709.4824   24625834.406  
                
  19502174.602   104140504.976                    80998246.735    19502176.801  
  19502172.797  
  21411030.727   114253381.199                    88863737.209    21411034.102  
  21411028.668  
 21  8 15 20 34 30.0000000  0 18G17G15R14R 4R21G13G14R12G20G 7G 5G 8
                                R22R 3G30G 9R13R 2
  23940000.820   125805562.675    23940008.117    98030335.4434   23940007.898  
                
  23845253.594   125307651.149    23845259.852    97642357.0774   23845259.926  
                
  22169360.922   118175186.922                    91914026.136    22169365.375  
  22169360.543  
  21708969.438   116250568.802                    90417109.508    21708971.945  
  21708968.723  
  23416104.930   125304314.838                    97458910.672    23416107.398  
  23416102.938  
  21599921.867   113508401.581    21599927.883    88448117.2404                 
                
  20528712.469   107879142.949    20528718.883    84061709.4174   20528718.887  
                
  21219296.523   113349718.625                    88160900.272    21219299.898  
  21219296.105  
  23395427.484   122943807.706    23395433.875    95800403.7074                 
                
  21927213.492   115228325.054    21927219.688    89788363.0594   21927219.535  
                
  22882739.336   120249619.057    22882746.129    93701035.6134   22882746.305  
                
  23617220.344   124109348.127    23617228.855    96708637.5094   23617229.246  
                
  22862023.516   122039069.224                    94919267.245    22862025.297  
  22862021.629  
  19552893.523   104668187.212                    81408607.101    19552897.148  
  19552892.754  
  20552056.094   108001835.439    20552064.426    84157335.9424   20552064.523  
                
  24632873.117   129446648.358    24632882.348   100867568.8074   24632882.141  
                
  19502140.625   104140323.575                    80998105.644    19502142.824  
  19502138.820  
  21418610.219   114293827.045                    88895195.098    21418613.609  
  21418608.191  
 21  8 15 20 34 40.0000000  0 18G17G15R14R 4R21G13G14R12G20G 7G 5G 8
                                R22R 3G30G 9R13R 2
  23933565.211   125771743.179    23933572.477    98003982.5834   23933572.254  
                
  23838847.094   125273985.072    23838853.480    97616123.8014   23838853.547  
                
  22163945.062   118146317.316                    91891571.982    22163949.484  
  22163944.695  
  21702886.195   116217993.229                    90391772.935    21702888.699  
  21702885.473  
  23417628.234   125312466.338                    97465250.740    23417630.742  
  23417626.215  
  21595196.062   113483567.284    21595202.129    88428765.8374                 
                
  20526105.469   107865443.061    20526111.832    84051034.1874   20526111.855  
                
  21224657.203   113378354.382                    88183172.526    21224660.578  
  21224656.773  
  23400602.336   122971001.426    23400608.723    95821593.6314                 
                
  21930822.867   115247292.395    21930829.027    89803142.8084   21930828.902  
                
  22885031.531   120261664.634    22885038.293    93710421.7694   22885038.457  
                
  23620770.500   124128004.274    23620778.965    96723174.7754   23620779.383  
                
  22857891.469   122017012.541                    94902112.072    22857893.371  
  22857889.652  
  19553892.445   104673534.417                    81412766.037    19553896.074  
  19553891.695  
  20552769.727   108005585.554    20552778.027    84160258.1134   20552778.148  
                
  24639923.211   129483696.346    24639932.340   100896437.3594   24639932.141  
                
  19502115.469   104140189.233                    80998001.153    19502117.668  
  19502113.648  
  21426197.320   114334313.611                    88926684.651    21426200.754  
  21426195.309  
 21  8 15 20 34 50.0000000  0 18G17G15R14R 4R21G13G14R12G20G 7G 5G 8
                                R22R 3G30G 9R13R 2
  23927131.320   125737932.872    23927138.602    97977636.9034   23927138.375  
                
  23832445.594   125240345.148    23832452.086    97589910.9054   23832452.133  
                
  22158534.789   118117477.495                    91869141.011    22158539.176  
  22158534.434  
  21696813.664   116185475.094                    90366481.082    21696816.176  
  21696812.973  
  23419167.617   125320703.849                    97471657.692    23419170.129  
  23419165.617  
  21590477.594   113458771.563    21590483.684    88409444.4954                 
                
  20523508.969   107851798.442    20523515.273    84040402.0204   20523515.328  
                
  21230021.234   113407008.128                    88205458.777    21230024.613  
  21230020.820  
  23405782.602   122998224.102    23405789.043    95842806.1044                 
                
  21934436.820   115266283.800    21934442.969    89817941.3014   21934442.855  
                
  22887335.180   120273770.341    22887341.895    93719854.7784   22887342.051  
                
  23624331.969   124146719.857    23624340.391    96737758.3484   23624340.855  
                
  22853772.453   121995024.951                    94885010.636    22853774.371  
  22853770.629  
  19554908.812   104678975.037                    81416997.627    19554912.453  
  19554908.094  
  20553490.023   108009370.737    20553498.285    84163207.6114   20553498.441  
                
  24646975.742   129520757.605    24646984.852   100925316.2574   24646984.656  
                
  19502099.383   104140103.366                    80997934.373    19502101.570  
  19502097.562  
  21433792.352   114374842.372                    88958207.025    21433795.789  
  21433790.332  
 21  8 15 20 35  0.0000000  0 18G17G15R14R 4R21G13G14R12G20G 7G 5G 8
                                R22R 3G30G 9R13R 2
  23920698.484   125704127.595    23920705.672    97951295.1254   23920705.438  
                
  23826048.312   125206727.291    23826054.836    97563715.1734   23826054.863  
                
  22153129.328   118088663.252                    91846729.959    22153133.719  
  22153128.969  
  21690751.070   116153010.206                    90341230.613    21690753.574  
  21690750.406  
  23420722.258   125329023.058                    97478128.171    23420724.773  
  23420720.258  
  21585765.656   113434010.239    21585771.762    88390149.9434                 
                
  20520922.180   107838204.853    20520928.434    84029809.6174   20520928.512  
                
  21235387.828   113435675.510                    88227755.618    21235391.191  
  21235387.422  
  23410967.531   123025471.305    23410974.016    95864037.6704                 
                
  21938054.539   115285295.004    21938060.688    89832755.2144   21938060.586  
                
  22889649.430   120285931.743    22889656.113    93729331.2064   22889656.273  
                
  23627903.891   124165490.472    23627912.285    96752384.8034   23627912.773  
                
  22849665.594   121973102.475                    94867959.808    22849667.586  
  22849663.812  
  19555941.773   104684504.427                    81421298.265    19555945.414  
  19555941.098  
  20554216.172   108013186.723    20554224.395    84166181.1074   20554224.570  
                
  24654029.992   129557827.790    24654039.082   100954202.1014   24654038.891  
                
  19502091.648   104140062.124                    80997902.293    19502093.840  
  19502089.832  
  21441394.398   114415408.626                    88989758.543    21441397.863  
  21441392.391  
 21  8 15 20 35 10.0000000  0 18G17G15R14R 4R21G13G14R12G20G 7G 5G 8
                                R22R 3G30G 9R13R 2
  23914267.273   125670330.877    23914274.383    97924960.0164   23914274.164  
                
  23819655.930   125173135.078    23819662.469    97537539.4404   23819662.512  
