     2.11           OBSERVATION DATA    M (MIXED)           RINEX VERSION / TYPE
EFT-CORS.RU                             20210817 150653 UTC PGM / RUN BY / DATE 
MDNG                                                        MARKER NAME         
                                                            MARKER NUMBER       
MDNG                EFT-CORS.RU                             OBSERVER / AGENCY   
0                   TRIMBLE BD970       2.0                 REC # / TYPE / VERS 
0                   UNKNOWN EXT NONE                        ANT # / TYPE        
  3463911.2830  3030468.2400  4402179.3760                  APPROX POSITION XYZ 
        0.0000        0.0000        0.0000                  ANTENNA: DELTA H/E/N
     1     1                                                WAVELENGTH FACT L1/2
     6    C1    L1    P2    L2    C2    P1                  # / TYPES OF OBSERV 
    10.000                                                  INTERVAL            
  2021     8    14    17    30    0.0000000     GPS         TIME OF FIRST OBS   
  2021     8    14    18    30    0.0000000     GPS         TIME OF LAST OBS    
     0                                                      RCV CLOCK OFFS APPL 
                                                            END OF HEADER       
 21  8 14 17 30  0.0000000  0 15G 4R 7G26G 9G 7G 2G16R 8G20G 3G30G 6
                                R10R 9R 1
  21403027.859   112473699.175    21403035.484    87641897.1974   21403035.348  
                
  22071993.500   118153127.952                    91896884.005    22071999.113  
  22071992.164  
  24584298.328   129191377.237    24584308.242   100668662.9514   24584308.129  
                
  20358748.805   106985986.627    20358756.906    83365754.9744   20358756.762  
                
  21152837.297   111158951.956    21152843.875    86617412.1824   21152843.727  
                
  24686166.203   129726688.370    24686171.383   101085744.6674                 
                
  22333908.141   117365513.853    22333913.980    91453684.2214                 
                
  19398491.594   103878065.341                    80794078.720    19398494.031  
  19398491.574  
  24008627.953   126166186.203    24008634.309    98311348.0724                 
                
  24384619.016   128142045.080    24384629.543    99850987.6554   24384630.012  
                
  23674620.070   124410992.112    23674629.766    96943678.5344   23674630.027  
                
  23648143.930   124271838.002    23648154.066    96835233.0694   23648154.484  
                
  19375212.359   103280817.381                                                  
  19375211.223  
  22305678.602   119111109.029                    92641978.710    22305681.547  
  22305677.648  
  20389527.516   108993725.542                    84772898.752    20389532.852  
  20389526.789  
 21  8 14 17 30 10.0000000  0 15G 4R 7G26G 9G 7G 2G16R 8G20G 3G30G 6
                                R10R 9R 1
  21406455.258   112491710.242    21406462.918    87655931.7814   21406462.773  
                
  22078044.719   118185519.990                    91922077.825    22078050.277  
  22078043.414  
  24590076.141   129221739.815    24590085.973   100692322.1174   24590085.895  
                
  20358317.250   106983718.750    20358325.344    83363987.7964   20358325.207  
                
  21149962.141   111143842.923    21149968.715    86605638.9154   21149968.590  
                
  24687004.039   129731091.217    24687009.254   101089175.4234                 
                
  22336241.547   117377775.942    22336247.391    91463239.0894                 
                
  19399290.852   103882345.304                    80797407.590    19399293.281  
  19399290.801  
  24002439.820   126133667.431    24002446.227    98286008.7824                 
                
  24391847.367   128180030.272    24391857.883    99880586.5144   24391858.383  
                
  23668787.633   124380342.428    23668797.332    96919795.6544   23668797.594  
                
  23652502.617   124294743.017    23652512.742    96853081.1164   23652513.152  
                
  19376885.820   103289737.877                                                  
  19376884.688  
  22312761.562   119148931.747                    92671396.403    22312764.551  
  22312760.594  
  20384517.836   108966945.925                    84752070.167    20384523.180  
  20384517.109  
 21  8 14 17 30 20.0000000  0 15G 4R 7G26G 9G 7G 2G16R 8G20G 3G30G 6
                                R10R 9R 1
  21409888.297   112509750.934    21409895.996    87669989.4614   21409895.828  
                
  22084102.562   118217948.024                    91947299.637    22084108.152  
  22084101.289  
  24595860.594   129252137.290    24595870.359   100716008.4824   24595870.320  
                
  20357892.906   106981488.830    20357900.992    83362250.1944   20357900.848  
                
  21147094.086   111128771.221    21147100.652    86593894.7364   21147100.539  
                
  24687851.453   129735544.382    24687856.633   101092645.4244                 
                
  22338588.383   117390108.615    22338594.230    91472848.9684                 
                
  19400101.508   103886686.337                    80800783.946    19400103.930  
  19400101.426  
  23996257.078   126101176.898    23996263.520    98260691.5014                 
                
  24399077.750   128218026.451    24399088.293    99910193.9164   24399088.824  
                
  23662959.117   124349713.163    23662968.770    96895928.6734   23662969.062  
                
  23656868.633   124317686.281    23656878.703    96870958.9944   23656879.129  
                
  19378574.727   103298740.710                                                  
  19378573.609  
  22319850.273   119186785.157                    92700837.932    22319853.297  
  22319849.297  
  20379514.922   108940202.490                    84731269.731    20379520.285  
  20379514.203  
 21  8 14 17 30 30.0000000  0 15G 4R 7G26G 9G 7G 2G16R 8G20G 3G30G 6
                                R10R 9R 1
  21413326.922   112527821.032    21413334.652    87684070.0564   21413334.477  
                
  22090167.000   118250411.676                    91972549.134    22090172.664  
  22090165.746  
  24601651.609   129282569.345    24601661.312   100739721.7774   24601661.270  
                
  20357475.742   106979296.656    20357483.812    83360542.0054   20357483.684  
                
  21144233.102   111113736.683    21144239.656    86582179.5194   21144239.539  
                
  24688708.391   129740047.599    24688713.535   101096154.4184                 
                
  22340948.570   117402511.529    22340954.414    91482513.5734                 
                
  19400923.617   103891088.682                    80804208.002    19400926.027  
  19400923.496  
  23990079.664   126068714.403    23990086.086    98235396.0424                 
                
  24406310.242   128256033.278    24406320.738    99939809.6214   24406321.297  
                
  23657134.391   124319104.150    23657144.070    96872077.4844   23657144.379  
                
  23661241.812   124340667.514    23661251.871    96888866.4334   23661252.281  
                
  19380279.008   103307825.542                                                  
  19380277.895  
  22326944.703   119224668.949                    92730303.099    22326947.715  
  22326943.703  
  20374518.695   108913494.809                    84710497.097    20374524.043  
  20374517.977  
 21  8 14 17 30 40.0000000  0 15G 4R 7G26G 9G 7G 2G16R 8G20G 3G30G 6
                                R10R 9R 1
  21416771.141   112545920.461    21416778.883    87698173.4984   21416778.703  
                
  22096238.125   118282910.988                    91997826.380    22096243.840  
  22096236.902  
  24607449.219   129313035.873    24607458.863   100763461.9534   24607458.809  
                
  20357065.781   106977142.247    20357073.836    83358863.2394   20357073.711  
                
  21141379.180   111098739.250    21141385.727    86570493.2104   21141385.605  
                
  24689574.844   129744600.790    24689579.918   101099702.3674                 
                
  22343322.102   117414984.544    22343327.961    91492232.8144                 
                
  19401757.117   103895552.050                    80807679.512    19401759.523  
  19401756.965  
  23983907.633   126036280.036    23983914.020    98210122.4844                 
                
  24413544.789   128294050.687    24413555.219    99969433.5754   24413555.793  
                
  23651313.594   124288515.351    23651323.234    96848242.0544   23651323.539  
                
  23665622.203   124363686.528    23665632.254    96906803.3134   23665632.664  
                
  19381998.664   103316992.267                                                  
  19381997.559  
  22334044.750   119262582.845                    92759791.685    22334047.777  
  22334043.805  
  20369529.227   108886823.199                    84689752.506    20369534.551  
  20369528.527  
 21  8 14 17 30 50.0000000  0 15G 4R 7G26G 9G 7G 2G16R 8G20G 3G30G 6
                                R10R 9R 1
  21420221.031   112564049.734    21420228.777    87712300.1984   21420228.602  
                
  22102316.000   118315446.141                    92023131.487    22102321.699  
  22102314.777  
  24613253.438   129343537.285    24613263.051   100787229.2754   24613263.000  
                
  20356663.094   106975026.110    20356671.129    83357214.2984   20356671.016  
                
  21138532.422   111083779.480    21138538.965    86558836.2464   21138538.840  
                
  24690450.891   129749204.473    24690455.930   101103289.6474                 
                
  22345709.023   117427527.886    22345714.879    91502006.8364                 
                
  19402602.164   103900077.247                    80811199.110    19402604.562  
  19402601.965  
  23977741.031   126003874.396    23977747.434    98184871.3484                 
                
  24420781.367   128332079.046    24420791.809    99999066.0564   24420792.375  
                
  23645496.641   124257947.325    23645506.379    96824422.7944   23645506.656  
                
  23670009.875   124386743.735    23670019.906    96924769.9704   23670020.293  
                
  19383733.781   103326241.422                                                  
  19383732.688  
  22341150.562   119300527.402                    92789304.094    22341153.570  
  22341149.664  
  20364546.586   108860188.121                    84669036.325    20364551.902  
  20364545.918  
 21  8 14 17 31  0.0000000  0 15G 4R 7G26G 9G 7G 2G16R 8G20G 3G30G 6
                                R10R 9R 1
  21423676.555   112582208.628    21423684.316    87726449.9794   21423684.141  
                
  22108400.594   118348017.276                    92048464.600    22108406.289  
  22108399.344  
  24619064.219   129374073.239    24619073.828   100811023.5334   24619073.832  
                
  20356267.656   106972948.081    20356275.688    83355595.0514   20356275.582  
                
  21135692.789   111068857.157    21135699.336    86547208.4714   21135699.215  
                
  24691336.508   129753858.411    24691341.574   101106916.0644                 
                
  22348109.367   117440141.776    22348115.230    91511835.8604                 
                
  19403458.656   103904663.775                    80814766.416    19403461.055  
  19403458.398  
  23971579.898   125971497.371    23971586.332    98159642.5024                 
                
  24428019.875   128370118.097    24428030.461   100028706.8694   24428031.031  
                
  23639683.594   124227399.887    23639693.477    96800619.6014   23639693.730  
                
  23674404.773   124409838.817    23674414.746    96942766.1384   23674415.133  
                
  19385484.297   103335572.673                                                  
  19385483.195  
  22348262.016   119338502.114                    92818839.973    22348265.047  
  22348261.195  
  20359570.805   108833589.718                    84648348.688    20359576.129  
  20359570.145  
 21  8 14 17 31 10.0000000  0 15G 4R 7G26G 9G 7G 2G16R 8G20G 3G30G 6
                                R10R 9R 1
  21427137.688   112600397.045    21427145.469    87740622.7594   21427145.289  
                
  22114491.766   118380623.846                    92073825.250    22114497.527  
  22114490.496  
  24624881.539   129404643.554    24624891.188   100834844.5294   24624891.207  
                
  20355879.453   106970908.059    20355887.480    83354005.4254   20355887.375  
                
  21132860.258   111053972.163    21132866.797    86535609.7854   21132866.676  
                
  24692231.656   129758562.444    24692236.820   101110581.5174                 
                
  22350523.062   117452825.808    22350528.918    91521719.5484                 
                
  19404326.672   103909312.003                    80818381.710    19404329.074  
  19404326.375  
  23965424.195   125939148.917    23965430.691    98134435.9374                 
                
  24435260.492   128408167.674    24435271.125   100058355.8614   24435271.672  
                
  23633874.547   124196873.010    23633884.434    96776832.4104   23633884.676  
                
  23678806.797   124432971.622    23678816.758    96960791.6874   23678817.137  
                
  19387250.141   103344985.683                                                  
  19387249.031  
  22355379.086   119376506.910                    92848399.263    22355382.164  
  22355378.312  
  20354601.852   108807027.827                    84627689.441    20354607.164  
  20354601.195  
 21  8 14 17 31 20.0000000  0 15G 4R 7G26G 9G 7G 2G16R 8G20G 3G30G 6
                                R10R 9R 1
  21430604.445   112618614.939    21430612.254    87754818.5114   21430612.059  
                
  22120589.617   118413266.040                    92099213.598    22120595.422  
  22120588.332  
  24630705.398   129435248.101    24630715.086   100858692.2304   24630715.117  
                
  20355498.492   106968906.067    20355506.523    83352445.4314   20355506.418  
                
  21130034.844   111039124.525    21130041.367    86524040.1974   21130041.254  
                
  24693136.336   129763316.450    24693141.551   101114285.9284                 
                
  22352950.102   117465579.993    22352955.977    91531657.8724                 
                
  19405206.141   103914021.558                    80822044.700    19405208.543  
  19405205.785  
  23959273.992   125906829.176    23959280.480    98109251.7084                 
                
  24442503.070   128446227.648    24442513.754   100088012.9734   24442514.289  
                
  23628069.484   124166366.705    23628079.312    96753061.2514   23628079.559  
                
  23683215.984   124456141.933    23683225.953    96978846.4604   23683226.293  
                
  19389031.398   103354480.757                                                  
  19389030.297  
  22362501.727   119414541.490                    92877981.716    22362504.812  
  22362501.004  
  20349639.766   108780502.588                    84607058.705    20349645.074  
  20349639.125  
 21  8 14 17 31 30.0000000  0 15G 4R 7G26G 9G 7G 2G16R 8G20G 3G30G 6
                                R10R 9R 1
  21434076.766   112636862.152    21434084.594    87769037.1054   21434084.379  
                
  22126694.055   118445943.551                    92124629.430    22126699.891  
  22126692.793  
  24636535.711   129465886.619    24636545.469   100882566.4074   24636545.484  
                
  20355124.727   106966941.953    20355132.766    83350914.9554   20355132.645  
                
  21127216.500   111024314.107    21127223.004    86512499.6164   21127222.902  
                
  24694050.469   129768120.264    24694055.703   101118029.1664                 
                
  22355390.445   117478404.165    22355396.371    91541650.7304                 
                
  19406097.062   103918792.506                    80825755.444    19406099.473  
  19406096.652  
  23953129.211   125874537.971    23953135.695    98084089.7334                 
                
  24449747.664   128484297.764    24449758.309   100117677.9804   24449758.824  
                
  23622268.234   124135880.809    23622278.070    96729305.9984   23622278.316  
                
  23687632.227   124479349.497    23687642.238    96996930.2724   23687642.566  
                
  19390827.875   103364057.030                                                  
  19390826.793  
  22369629.898   119452605.532                    92907587.096    22369632.961  
  22369629.199  
  20344684.484   108754013.838                    84586456.351    20344689.801  
  20344683.871  
 21  8 14 17 31 40.0000000  0 15G 4R 7G26G 9G 7G 2G16R 8G20G 3G30G 6
                                R10R 9R 1
  21437554.750   112655139.056    21437562.602    87783278.8414   21437562.367  
                
  22132805.195   118478656.760                    92150073.021    22132811.020  
  22132803.969  
  24642372.555   129496559.419    24642382.340   100906467.2984   24642382.355  
                
  20354758.266   106965016.136    20354766.316    83349414.3254   20354766.172  
                
  21124405.305   111009541.243    21124411.797    86500988.2984   21124411.699  
                
  24694974.156   129772974.231    24694979.367   101121811.4624                 
                
  22357844.172   117491298.631    22357850.137    91551698.3524                 
                
  19406999.531   103923625.216                    80829514.223    19407001.965  
  19406999.074  
  23946989.953   125842275.921    23946996.473    98058950.4744                 
                
  24456994.281   128522378.363    24457004.848   100147351.1674   24457005.340  
                
  23616470.961   124105415.824    23616480.820    96705567.0444   23616481.059  
                
  23692055.609   124502594.639    23692065.645    97015043.3704   23692065.977  
                
  19392639.758   103373715.367                                                  
  19392638.695  
  22376763.625   119490699.358                    92937215.620    22376766.703  
  22376762.949  
  20339736.156   108727562.139                    84565882.817    20339741.473  
  20339735.543  
 21  8 14 17 31 50.0000000  0 15G 4R 7G26G 9G 7G 2G16R 8G20G 3G30G 6
                                R10R 9R 1
  21441038.344   112673445.470    21441046.219    87797543.5714   21441045.961  
                
  22138923.000   118511405.482                    92175544.266    22138928.750  
  22138921.785  
  24648215.867   129527266.222    24648225.664   100930394.6664   24648225.660  
                
  20354399.055   106963128.471    20354407.117    83347943.4154   20354406.961  
                
  21121601.227   110994805.766    21121607.719    86489506.1164   21121607.629  
                
  24695907.344   129777878.157    24695912.594   101125632.6984                 
                
  22360311.227   117504263.090    22360317.219    91561800.5344                 
                
  19407913.492   103928519.491                    80833320.885    19407915.945  
  19407912.984  
  23940856.234   125810042.886    23940862.781    98033833.8214                 
                
  24464242.836   128560469.149    24464253.297   100177032.3034   24464253.781  
                
  23610677.617   124074971.538    23610687.527    96681844.2124   23610687.727  
                
  23696486.055   124525877.066    23696496.117    97033185.5064   23696496.473  
                
  19394466.938   103383455.221                                                  
  19394465.895  
  22383902.914   119528822.727                    92966867.139    22383905.965  
  22383902.262  
  20334794.758   108701147.510                    84545338.110    20334800.082  
  20334794.141  
 21  8 14 17 32  0.0000000  0 15G 4R 7G26G 9G 7G 2G16R 8G20G 3G30G 6
                                R10R 9R 1
  21444527.539   112691781.292    21444535.414    87811831.2094   21444535.164  
                
  22145047.453   118544189.605                    92201043.035    22145053.121  
  22145046.246  
  24654065.617   129558006.824    24654075.453   100954348.3754   24654075.426  
                
  20354047.094   106961278.872    20354055.168    83346502.1724   20354055.008  
                
  21118804.258   110980107.622    21118810.750    86478053.0194   21118810.660  
                
  24696850.016   129782831.847    24696855.332   101129492.7044                 
                
  22362791.570   117517297.393    22362797.574    91571957.1274                 
                
  19408838.984   103933475.551                    80837175.591    19408841.438  
  19408838.434  
  23934728.016   125777838.839    23934734.602    98008739.7544                 
                
  24471493.266   128598569.994    24471503.641   100206721.2734   24471504.121  
                
  23604888.172   124044547.928    23604898.137    96658137.4924   23604898.309  
                
  23700923.602   124549196.534    23700933.652    97051356.5194   23700933.980  
                
  19396309.398   103393276.552                                                  
  19396308.383  
  22391047.664   119566975.250                    92996541.323    22391050.664  
  22391047.023  
  20329860.258   108674769.805                    84524822.125    20329865.594  
  20329859.629  
 21  8 14 17 32 10.0000000  0 14G 4R 7G 9G 7G 2G16R 8G20G 3G30G 6R10
                                R 9R 1
  21448022.367   112710146.761    21448030.238    87826141.9624   21448029.984  
                
  22151178.492   118577009.148                    92226569.339    22151184.094  
  22151177.289  
  20353702.422   106959467.606    20353710.512    83345090.7974   20353710.328  
                
  21116014.445   110965447.092    21116020.941    86466629.2364   21116020.859  
                
  24697802.211   129787835.570    24697807.562   101133391.6974                 
                
  22365285.242   117530401.778    22365291.258    91582168.3274                 
                
  19409775.969   103938493.103                    80841078.151    19409778.426  
  19409775.375  
  23928605.344   125745664.084    23928611.984    97983668.5494                 
                
  24478745.586   128636681.050    24478755.918   100236418.1894   24478756.395  
                
  23599102.727   124014145.273    23599112.715    96634447.1074   23599112.883  
                
  23705368.219   124572553.189    23705378.297    97069556.5074   23705378.609  
                
  19398167.164   103403179.474                                                  
  19398166.160  
  22398197.922   119605157.142                    93026238.334    22398200.887  
  22398197.250  
  20324932.750   108648429.520                    84504335.237    20324938.098  
  20324932.133  
 21  8 14 17 32 20.0000000  0 14G 4R 7G 9G 7G 2G16R 8G20G 3G30G 6R10
                                R 9R 1
  21451522.820   112728541.799    21451530.691    87840475.7504   21451530.445  
                
  22157316.109   118609864.054                    92252123.151    22157321.680  
  22157314.926  
  20353365.039   106957694.617    20353373.141    83343709.2484   20353372.945  
                
  21113231.773   110950824.118    21113238.277    86455234.7214   21113238.191  
                
  24698763.891   129792889.208    24698769.195   101137329.5904                 
                
  22367792.242   117543576.131    22367798.266    91592434.0594                 
                
  19410724.500   103943572.546                    80845028.828    19410726.969  
  19410723.859  
  23922488.258   125713518.673    23922494.977    97958620.1894                 
                
  24485999.805   128674802.166    24486010.117   100266122.9634   24486010.586  
                
  23593321.289   123983763.540    23593331.262    96610773.0244   23593331.422  
                
  23709819.828   124595946.868    23709830.000    97087785.3354   23709830.336  
                
  19400040.250   103413164.107                                                  
  19400039.246  
  22405353.609   119643368.122                    93055957.983    22405356.551  
  22405352.922  
  20320012.242   108622126.595                    84483877.420    20320017.613  
  20320011.625  
 21  8 14 17 32 30.0000000  0 14G 4R 7G 9G 7G 2G16R 8G20G 3G30G 6R10
                                R 9R 1
  21455028.859   112746966.155    21455036.742    87854832.3854   21455036.480  
                
  22163460.297   118642754.143                    92277704.332    22163465.812  
  22163459.102  
  20353034.898   106955959.725    20353043.016    83342357.3854   20353042.809  
                
  21110456.188   110936238.310    21110462.711    86443869.1624   21110462.621  
                
  24699735.023   129797992.506    24699740.285   101141306.1694                 
                
  22370312.484   117556820.123    22370318.520    91602754.0614                 
                
  19411684.539   103948713.637                    80849027.457    19411687.008  
  19411683.859  
  23916376.734   125681402.599    23916383.480    97933594.6924                 
                
  24493255.906   128712933.015    24493266.168   100295835.3044   24493266.645  
                
  23587543.781   123953402.529    23587553.777    96587115.0884   23587553.926  
                
  23714278.445   124619377.238    23714288.680    97106042.7344   23714289.012  
                
  19401928.500   103423229.574                                                  
  19401927.477  
  22412514.695   119681607.944                    93085700.092    22412517.617  
  22412514.027  
  20315098.719   108595861.024                    84463448.648    20315104.094  
  20315098.086  
 21  8 14 17 32 40.0000000  0 14G 4R 7G 9G 7G 2G16R 8G20G 3G30G 6R10
                                R 9R 1
  21458540.492   112765419.915    21458548.379    87869211.9414   21458548.117  
                
  22169611.094   118675679.510                    92303312.945    22169616.504  
  22169609.867  
  20352712.039   106954263.036    20352720.164    83341035.2884   20352719.953  
                
  21107687.695   110921689.811    21107694.254    86432532.6734   21107694.148  
                
  24700715.625   129803145.510    24700720.930   101145321.5154                 
                
  22372846.000   117570133.853    22372852.051    91613128.4144                 
                
  19412656.102   103953916.411                    80853074.071    19412658.582  
  19412655.359  
  23910270.828   125649315.979    23910277.605    97908592.1524                 
                
  24500513.812   128751073.622    24500524.066   100325555.2444   24500524.551  
                
  23581770.273   123923062.378    23581780.301    96563473.4074   23581780.434  
                
  23718744.047   124642844.240    23718754.336    97124328.7054   23718754.672  
                
  19403831.977   103433376.176                                                  
  19403830.938  
  22419681.172   119719876.527                    93115464.521    22419684.070  
  22419680.543  
  20310192.211   108569632.934                    84443049.025    20310197.570  
  20310191.566  
 21  8 14 17 32 50.0000000  0 14G 4R 7G 9G 7G 2G16R 8G20G 3G30G 6R10
                                R 9R 1
  21462057.734   112783903.123    21462065.625    87883614.4364   21462065.367  
                
  22175768.438   118708639.880                    92328948.793    22175773.754  
  22175767.168  
  20352396.453   106952604.619    20352404.586    83339743.0134   20352404.359  
                
  21104926.320   110907178.730    21104932.922    86421225.3414   21104932.789  
                
  24701705.672   129808348.239    24701711.059   101149375.5744                 
                
  22375392.750   117583517.156    22375398.805    91623556.9594                 
                
  19413639.219   103959181.046                    80857168.793    19413641.715  
  19413638.430  
  23904170.586   125617259.033    23904177.355    97883612.7034                 
                
  24507773.547   128789223.961    24507783.824   100355282.7764   24507784.336  
                
  23576000.672   123892743.184    23576010.820    96539848.0694   23576010.934  
                
  23723216.664   124666347.845    23723226.957    97142643.2064   23723227.305  
                
  19405750.680   103443603.994                                                  
  19405749.648  
  22426853.000   119758173.644                    93145251.156    22426855.906  
  22426852.414  
  20305292.734   108543442.426                    84422678.635    20305298.070  
  20305292.078  
 21  8 14 17 33  0.0000000  0 14G 4R 7G 9G 7G 2G16R 8G20G 3G30G 6R10
                                R 9R 1
  21465580.648   112802416.163    21465588.547    87898040.1704   21465588.293  
                
  22181932.414   118741635.772                    92354612.270    22181937.617  
  22181931.129  
  20352088.234   106950984.904    20352096.375    83338480.8974   20352096.148  
                
  21102172.148   110892705.498    21102178.789    86409947.5074   21102178.645  
                
  24702705.242   129813601.036    24702710.727   101153468.6604                 
                
  22377952.812   117596970.471    22377958.863    91634040.0614                 
                
  19414633.945   103964507.861                    80861311.874    19414636.438  
  19414633.113  
  23898076.062   125585232.148    23898082.809    97858656.6884                 
                
  24515035.125   128827384.387    24515045.508   100385018.1474   24515046.020  
                
  23570235.141   123862445.368    23570245.371    96516239.3904   23570245.492  
                
  23727696.281   124689888.360    23727706.578    97160986.4604   23727706.938  
                
  19407684.664   103453913.240                                                  
  19407683.645  
  22434030.258   119796499.854                    93175060.445    22434033.168  
  22434029.656  
  20300400.414   108517290.170                    84402337.986    20300405.738  
  20300399.750  
 21  8 14 17 33 10.0000000  0 14G 4R 7G 9G 7G 2G16R 8G20G 3G30G 6R10
                                R 9R 1
  21469109.016   112820957.862    21469116.938    87912488.2424   21469116.688  
                
  22188102.789   118774665.966                    92380302.411    22188107.918  
  22188101.500  
  20351787.156   106949402.741    20351795.301    83337248.0414   20351795.074  
                
  21099424.945   110878268.879    21099431.617    86398698.2014   21099431.461  
                
  24703714.102   129818902.692    24703719.633   101157599.8024                 
                
  22380525.992   117610492.636    22380532.043    91644576.8174                 
                
  19415640.094   103969895.829                    80865502.526    19415642.594  
  19415639.219  
  23891987.062   125553234.254    23891993.797    97833723.2654                 
                
  24522298.422   128865553.583    24522308.879   100414760.3644   24522309.391  
                
  23564473.461   123832167.772    23564483.707    96492646.4634   23564483.848  
                
  23732182.648   124713464.482    23732193.020    97179357.4444   23732193.387  
                
  19409633.664   103464302.490                                                  
  19409632.652  
  22441212.672   119834853.554                    93204891.089    22441215.598  
  22441212.051  
  20295515.016   108491174.898                    84382026.110    20295520.344  
  20295514.332  
 21  8 14 17 33 20.0000000  0 14G 4R 7G 9G 7G 2G16R 8G20G 3G30G 6R10
                                R 9R 1
  21472643.031   112839529.230    21472650.961    87926959.4324   21472650.695  
                
  22194279.719   118807731.406                    92406019.965    22194284.758  
  22194278.445  
  20351493.430   106947859.179    20351501.578    83336045.2724   20351501.340  
                
  21096684.914   110863869.963    21096691.613    86387478.2764   21096691.449  
                
  24704732.438   129824254.148    24704737.977   101161769.7734                 
                
  22383112.453   117624084.627    22383118.508    91655167.9834                 
                
  19416657.852   103975346.063                    80869741.602    19416660.355  
  19416656.938  
  23885903.812   125521266.572    23885910.523    97808813.4034                 
                
  24529563.570   128903732.549    24529574.109   100444510.1734   24529574.621  
                
  23558715.891   123801911.565    23558726.105    96469070.1954   23558726.254  
                
  23736676.000   124737077.143    23736686.449    97197756.9064   23736686.785  
                
  19411597.898   103474772.975                                                  
  19411596.895  
  22448400.406   119873235.723                    93234743.871    22448403.352  
  22448399.781  
  20290636.781   108465097.963                    84361744.047    20290642.086  
  20290636.098  
 21  8 14 17 33 30.0000000  0 14G 4R 7G 9G 7G 2G16R 8G20G 3G30G 6R10
                                R 9R 1
  21476182.656   112858130.079    21476190.590    87941453.5874   21476190.332  
                
  22200463.156   118840831.844                    92431764.758    22200468.145  
  22200461.922  
  20351207.016   106946354.042    20351215.160    83334872.4354   20351214.922  
                
  21093952.016   110849508.512    21093958.738    86376287.5414   21093958.570  
                
  24705760.227   129829655.204    24705765.754   101165978.3924                 
                
  22385712.148   117637746.152    22385718.227    91665813.3374                 
                
  19417687.188   103980858.213                    80874028.832    19417689.691  
  19417686.234  
  23879826.312   125489329.023    23879833.051    97783927.0264                 
                
  24536830.516   128941920.982    24536841.121   100474267.3684   24536841.625  
                
  23552962.328   123771676.485    23552972.527    96445510.3894   23552972.672  
                
  23741176.281   124760725.990    23741186.766    97216184.5864   23741187.059  
                
  19413577.328   103485324.446                                                  
  19413576.336  
  22455593.383   119911646.135                    93264618.615    22455596.391  
  22455592.777  
  20285765.672   108439059.120                    84341491.634    20285770.973  
  20285764.988  
 21  8 14 17 33 40.0000000  0 14G 4R 7G 9G 7G 2G16R 8G20G 3G30G 6R10
                                R 9R 1
  21479727.875   112876760.282    21479735.832    87955970.6264   21479735.570  
                
  22206653.164   118873967.082                    92457536.602    22206658.062  
  22206651.914  
  20350927.898   106944887.231    20350936.039    83333729.4684   20350935.789  
                
  21091226.242   110835184.467    21091233.004    86365125.9594   21091232.824  
                
  24706797.445   129835105.743    24706802.930   101170225.5684                 
                
  22388325.039   117651477.057    22388331.145    91676512.7414                 
                
  19418728.125   103986432.462                    80878364.375    19418730.621  
  19418727.129  
  23873754.531   125457421.538    23873761.293    97759064.0504                 
                
  24544099.312   128980118.700    24544109.934   100504031.8014   24544110.418  
                
  23547212.797   123741462.522    23547222.996    96421967.0624   23547223.113  
                
  23745683.398   124784410.878    23745693.922    97234640.3324   23745694.180  
                
  19415571.906   103495956.676                                                  
  19415570.895  
  22462791.625   119950084.444                    93294515.078    22462794.652  
  22462791.055  
  20280901.703   108413058.422                    84321268.863    20280907.004  
  20280901.012  
 21  8 14 17 33 50.0000000  0 14G 4R 7G 9G 7G 2G16R 8G20G 3G30G 6R10
                                R 9R 1
  21483278.648   112895419.709    21483286.629    87970510.4304   21483286.340  
                
  22212849.688   118907137.106                    92483335.493    22212854.496  
  22212848.402  
  20350656.055   106943458.696    20350664.184    83332616.3234   20350663.934  
                
  21088507.555   110820897.683    21088514.355    86353993.4044   21088514.152  
                
  24707844.031   129840605.610    24707849.488   101174511.1814                 
                
  22390951.109   117665277.198    22390957.242    91687266.1034                 
                
  19419780.594   103992068.514                    80882747.967    19419783.074  
  19419779.562  
  23867688.422   125425544.056    23867695.188    97734224.4614                 
                
  24551369.852   129018325.505    24551380.418   100533803.3164   24551380.891  
                
  23541467.289   123711269.559    23541477.449    96398440.0754   23541477.543  
                
  23750197.312   124808131.528    23750207.852    97253123.9604   23750208.082  
                
  19417581.508   103506668.994                                                  
  19417580.484  
  22469995.086   119988550.455                    93324433.096    22469998.059  
  22469994.516  
  20276044.867   108387095.863                    84301075.781    20276050.160  
  20276044.164  
 21  8 14 17 34  0.0000000  0 14G 4R 7G 9G 7G 2G16R 8G20G 3G30G 6R10
                                R 9R 1
  21486835.031   112914108.544    21486843.016    87985073.1584   21486842.730  
                
  22219052.625   118940341.902                    92509161.428    22219057.449  
  22219051.363  
  20350391.539   106942068.603    20350399.656    83331533.1414   20350399.410  
                
  21085796.000   110806648.384    21085802.840    86342890.0644   21085802.633  
                
  24708900.023   129846154.964    24708905.523   101178835.3244                 
                
  22393590.359   117679146.634    22393596.520    91698073.4554                 
                
  19420844.641   103997766.521                    80887179.756    19420847.125  
  19420843.582  
  23861628.109   125393697.064    23861634.871    97709408.6264                 
                
  24558642.164   129056541.495    24558652.668   100563582.0084   24558653.133  
                
  23535725.859   123681097.824    23535735.941    96374929.6334   23535736.039  
                
  23754718.062   124831888.047    23754728.590    97271635.5244   23754728.809  
                
  19419606.234   103517461.991                                                  
  19419605.184  
  22477203.742   120027044.131                    93354372.632    22477206.672  
  22477203.160  
  20271195.234   108361171.786                    84280912.613    20271200.500  
  20271194.539  
 21  8 14 17 34 10.0000000  0 14G 4R 7G 9G 7G 2G16R 8G20G 3G30G 6R10
                                R 9R 1
  21490396.961   112932826.617    21490404.961    87999658.6624   21490404.684  
                
  22225262.031   118973581.423                    92535014.372    22225266.863  
  22225260.793  
  20350134.297   106940716.832    20350142.402    83330479.8094   20350142.164  
                
  21083091.539   110792436.406    21083098.406    86331815.8044   21083098.195  
                
  24709965.383   129851753.569    24709971.004   101183197.8504                 
                
  22396242.719   117693084.989    22396248.922    91708934.5054                 
                
  19421920.258   104003526.564                    80891659.786    19421922.719  
  19421919.180  
  23855573.508   125361880.174    23855580.289    97684616.2754                 
                
  24565916.195   129094766.439    24565926.629   100593367.6724   24565927.078  
                
  23529988.414   123650947.209    23529998.465    96351435.6544   23529998.582  
                
  23759245.562   124855680.137    23759256.066    97290174.8194   23759256.301  
                
  19421646.023   103528335.316                                                  
  19421644.945  
  22484417.547   120065565.296                    93384333.524    22484420.457  
  22484416.930  
  20266352.766   108335286.049                    84260779.267    20266358.008  
  20266352.055  
 21  8 14 17 34 20.0000000  0 14G 4R 7G 9G 7G 2G16R 8G20G 3G30G 6R10
                                R 9R 1
  21493964.508   112951574.174    21493972.531    88014267.1434   21493972.246  
                
  22231477.969   119006855.736                    92560894.394    22231482.770  
  22231476.699  
  20349884.406   106939403.647    20349892.504    83329456.5524   20349892.270  
                
  21080394.234   110778261.971    21080401.125    86320770.8014   21080400.922  
                
  24711040.141   129857401.601    24711045.895   101187598.8734                 
                
  22398908.258   117707092.531    22398914.508    91719849.4804                 
                
  19423007.516   104009348.846                    80896188.232    19423009.973  
  19423006.422  
  23849524.742   125330093.804    23849531.547    97659847.6874                 
                
  24573191.961   129133000.491    24573202.316   100623160.4304   24573202.742  
                
  23524255.039   123620817.979    23524265.074    96327958.3434   23524265.184  
                
  23763779.859   124879507.977    23763790.348    97308741.9464   23763790.605  
                
  19423700.914   103539289.057                                                  
  19423699.820  
  22491636.484   120104113.939                    93414315.801    22491639.387  
  22491635.855  
  20261517.547   108309439.089                    84240676.080    20261522.758  
  20261516.832  
 21  8 14 17 34 30.0000000  0 14G 4R 7G 9G 7G 2G16R 8G20G 3G30G 6R10
                                R 9R 1
  21497537.656   112970351.154    21497545.684    88028898.5624   21497545.402  
                
  22237700.312   119040164.733                    92586801.383    22237705.168  
  22237699.074  
  20349641.859   106938129.051    20349649.941    83328463.3624   20349649.711  
                
  21077704.062   110764125.066    21077710.973    86309755.0454   21077710.770  
                
  24712124.312   129863098.994    24712130.125   101192038.4174                 
                
  22401586.984   117721169.401    22401593.254    91730818.4744                 
                
  19424106.414   104015233.471                    80900765.168    19424108.855  
  19424105.301  
  23843481.820   125298338.128    23843488.629    97635103.0134                 
                
  24580469.430   129171243.550    24580479.727   100652960.2084   24580480.133  
                
  23518525.758   123590710.157    23518535.762    96304497.7074   23518535.871  
                
  23768320.930   124903371.335    23768331.383    97327336.7794   23768331.660  
                
  19425770.891   103550323.206                                                  
  19425769.793  
  22498860.523   120142690.033                    93444319.396    22498863.457  
  22498859.914  
  20256689.609   108283630.993                    84220603.114    20256694.801  
  20256688.910  
 21  8 14 17 34 40.0000000  0 14G 4R 7G 9G 7G 2G16R 8G20G 3G30G 6R10
                                R 9R 1
  21501116.352   112989157.332    21501124.391    88043552.7154   21501124.109  
                
  22243929.125   119073508.190                    92612735.165    22243934.023  
  22243927.906  
  20349406.617   106936892.822    20349414.695    83327500.0674   20349414.457  
                
  21075021.000   110750025.474    21075027.922    86298768.3624   21075027.723  
                
  24713217.828   129868845.507    24713223.582   101196516.2024                 
                
  22404278.859   117735315.350    22404285.137    91741841.2874                 
                
  19425216.867   104021180.024                    80905390.272    19425219.297  
  19425215.746  
  23837444.727   125266613.042    23837451.531    97610382.1784                 
                
  24587748.562   129209495.312    24587758.789   100682766.7694   24587759.195  
                
  23512800.484   123560623.556    23512810.496    96281053.6074   23512810.602  
                
  23772868.695   124927269.966    23772879.148    97345959.0944   23772879.426  
                
  19427855.891   103561437.471                                                  
  19427854.797  
  22506089.633   120181293.086                    93474344.004    22506092.598  
  22506089.055  
  20251868.922   108257861.629                    84200560.287    20251874.102  
  20251868.195  
 21  8 14 17 34 50.0000000  0 14G 4R 7G 9G 7G 2G16R 8G20G 3G30G 6R10
                                R 9R 1
  21504700.641   113007992.884    21504708.684    88058229.7664   21504708.414  
                
  22250164.492   119106886.355                    92638695.967    22250169.344  
  22250163.262  
  20349178.719   106935695.202    20349186.785    83326566.8594   20349186.543  
                
  21072345.070   110735963.406    21072351.996    86287810.9144   21072351.809  
                
  24714320.734   129874641.291    24714326.426   101201032.4094                 
                
  22406983.883   117749530.353    22406990.164    91752917.9234                 
                
  19426338.969   104027188.903                    80910063.844    19426341.391  
  19426337.852  
  23831413.484   125234918.790    23831420.285    97585685.3494                 
                
  24595029.336   129247755.894    24595039.539   100712580.1944   24595039.945  
                
  23507079.258   123530558.373    23507089.289    96257626.2034   23507089.379  
                
  23777423.203   124951203.902    23777433.613    97364608.9284   23777433.895  
                
  19429955.898   103572631.701                                                  
  19429954.812  
  22513323.852   120219923.287                    93504389.718    22513326.820  
  22513323.270  
  20247055.531   108232131.316                    84180547.815    20247060.707  
  20247054.797  
 21  8 14 17 35  0.0000000  0 14G 4R 7G 9G 7G 2G16R 8G20G 3G30G 6R10
                                R 9R 1
  21508290.508   113026857.739    21508298.535    88072929.6474   21508298.277  
                
  22256406.195   119140299.078                    92664683.651    22256411.082  
  22256405.008  
  20348958.148   106934536.116    20348966.203    83325663.6854   20348965.969  
                
  21069676.289   110721938.899    21069683.219    86276882.7314   21069683.023  
                
  24715432.969   129880486.210    24715438.668   101205586.8884                 
                
  22409702.016   117763814.293    22409708.285    91764048.2604                 
                
  19427472.703   104033260.091                    80914785.890    19427475.098  
  19427471.590  
  23825388.125   125203255.421    23825394.883    97561012.6054                 
                
  24602311.766   129286025.138    24602321.953   100742400.3704   24602322.371  
                
  23501362.109   123500514.607    23501372.152    96234215.4914   23501372.242  
                
  23781984.375   124975173.005    23781994.773    97383286.1534   23781995.031  
                
  19432070.922   103583905.957                                                  
  19432069.816  
  22520563.117   120258580.262                    93534456.246    22520566.039  
  22520562.547  
  20242249.422   108206439.931                    84160565.634    20242254.602  
  20242248.680  
 21  8 14 17 35 10.0000000  0 14G 4R 7G 9G 7G 2G16R 8G20G 3G30G 6R10
                                R 9R 1
  21511885.938   113045751.889    21511893.965    88087652.3574   21511893.719  
                
  22262654.367   119173746.071                    92690697.983    22262659.184  
  22262653.188  
  20348744.922   106933415.615    20348752.961    83324790.5674   20348752.727  
                
  21067014.625   110707951.792    21067021.562    86265983.6914   21067021.355  
                
  24716554.547   129886380.264    24716560.332   101210179.6114                 
                
  22412433.266   117778167.156    22412439.547    91775232.3204                 
                
  19428618.055   104039393.502                    80919556.325    19428620.430  
  19428616.941  
  23819368.672   125171623.041    23819375.422    97536363.9974                 
                
  24609595.828   129324302.972    24609605.992   100772227.2364   24609606.426  
                
  23495649.062   123470492.314    23495659.133    96210821.5084   23495659.219  
                
  23786552.203   124999177.143    23786562.629    97401990.6634   23786562.902  
                
  19434200.914   103595260.060                                                  
  19434199.809  
  22527807.414   120297264.065                    93564543.670    22527810.262  
  22527806.859  
  20237450.656   108180787.832                    84140614.005    20237455.836  
  20237449.906  
 21  8 14 17 35 20.0000000  0 14G 4R 7G 9G 7G 2G16R 8G20G 3G30G 6R10
                                R 9R 1
  21515486.930   113064675.279    21515494.984    88102397.8544   21515494.738  
                
  22268908.953   119207227.460                    92716739.068    22268913.723  
  22268907.777  
  20348539.031   106932333.643    20348547.055    83323947.4754   20348546.820  
                
  21064360.062   110694002.028    21064367.020    86255113.7514   21064366.793  
                
  24717685.477   129892323.268    24717691.289   101214810.5354                 
                
  22415177.602   117792588.794    22415183.883    91786469.9584                 
                
  19429775.047   104045589.241                    80924375.238    19429777.418  
  19429773.949  
  23813355.117   125140021.629    23813361.828    97511739.5314                 
                
  24616881.500   129362589.279    24616891.645   100802060.7084   24616892.070  
                
  23489940.062   123440491.443    23489950.180    96187444.2124   23489950.273  
                
  23791126.664   125023216.138    23791137.102    97420722.3524   23791137.344  
                
  19436345.875   103606693.974                                                  
  19436344.754  
  22535056.648   120335974.486                    93594651.761    22535059.477  
  22535056.109  
  20232659.211   108155174.810                    84120692.775    20232664.395  
  20232658.453  
 21  8 14 17 35 30.0000000  0 14G 4R 7G 9G 7G 2G16R 8G20G 3G30G 6R10
                                R 9R 1
  21519093.508   113083627.966    21519101.582    88117166.1774   21519101.324  
                
  22275169.867   119240743.166                    92742806.830    22275174.715  
  22275168.750  
  20348340.492   106931290.329    20348348.508    83323134.5024   20348348.273  
                
  21061712.625   110680089.696    21061719.598    86244272.9774   21061719.379  
                
  24718825.727   129898315.308    24718831.574   101219479.6574                 
                
  22417935.031   117807079.214    22417941.281    91797761.1904                 
                
  19430943.703   104051847.413                    80929242.703    19430946.047  
  19430942.613  
  23807347.492   125108451.413    23807354.203    97487139.3734                 
                
  24624168.773   129400884.013    24624178.922   100831900.7444   24624179.348  
                
  23484235.148   123410512.121    23484245.312    96164083.7194   23484245.391  
                
  23795707.781   125047289.980    23795718.176    97439481.1974   23795718.426  
                
  19438505.812   103618207.698                                                  
  19438504.680  
  22542310.828   120374711.438                    93624780.475    22542313.660  
  22542310.262  
  20227875.164   108129601.354                    84100802.324    20227880.359  
  20227874.398  
 21  8 14 17 35 40.0000000  0 14G 4R 7G 9G 7G 2G16R 8G20G 3G30G 6R10
                                R 9R 1
  21522705.672   113102610.007    21522713.742    88131957.3694   21522713.480  
                
  22281437.227   119274293.275                    92768901.367    22281442.137  
  22281436.109  
  20348149.328   106930285.736    20348157.340    83322351.7084   20348157.102  
                
  21059072.328   110666214.866    21059079.301    86233461.4354   21059079.082  
                
  24719975.305   129904356.450    24719981.160   101224187.0414                 
                
  22420705.547   117821638.354    22420711.758    91809105.9914                 
                
  19432124.000   104058167.857                    80934158.601    19432126.312  
  19432122.926  
  23801345.844   125076912.534    23801352.555    97462563.6244                 
                
  24631457.711   129439187.208    24631467.828   100861747.3684   24631468.258  
                
  23478534.336   123380554.422    23478544.535    96140740.0784   23478544.633  
                
  23800295.484   125071398.575    23800305.848    97458267.1384   23800306.117  
                
  19440680.695   103629801.066                                                  
  19440679.531  
  22549570.000   120413474.810                    93654929.757    22549572.816  
  22549569.418  
  20223098.508   108104067.363                    84080942.564    20223103.703  
  20223097.750  
 21  8 14 17 35 50.0000000  0 14G 4R 7G 9G 7G 2G16R 8G20G 3G30G 6R10
                                R 9R 1
  21526323.414   113121621.389    21526331.469    88146771.4294   21526331.199  
                
  22287710.867   119307877.720                    92795022.590    22287716.008  
  22287709.879  
  20347965.531   106929319.884    20347973.539    83321599.1024   20347973.301  
                
  21056439.180   110652377.593    21056446.133    86222679.1524   21056445.914  
                
  24721134.227   129910446.599    24721140.031   101228932.6074                 
                
  22423489.109   117836266.073    22423495.305    91820504.2254                 
                
  19433315.992   104064550.968                    80939123.253    19433318.289  
  19433314.941  
  23795350.172   125045405.105    23795356.906    97438012.3934                 
                
  24638748.164   129477498.748    24638758.309   100891600.5044   24638758.742  
                
  23472837.617   123350618.392    23472847.906    96117413.3334   23472848.016  
                
  23804889.773   125095541.876    23804900.113    97477080.1054   23804900.398  
                
  19442870.492   103641473.982                                                  
  19442869.312  
  22556834.078   120452264.444                    93685099.477    22556836.895  
  22556833.523  
  20218329.289   108078573.191                    84061113.761    20218334.484  
  20218328.535  
 21  8 14 17 36  0.0000000  0 14G 4R 7G 9G 7G 2G16R 8G20G 3G30G 6R10
                                R 9R 1
  21529946.711   113140661.929    21529954.730    88161608.2174   21529954.469  
                
  22293990.969   119341496.344                    92821170.374    22293996.285  
  22293990.039  
  20347789.086   106928392.646    20347797.090    83320876.5784   20347796.848  
                
  21053813.148   110638577.722    21053820.074    86211926.0094   21053819.863  
                
  24722302.422   129916585.490    24722308.199   101233716.1484                 
                
  22426285.727   117850962.398    22426291.887    91831955.9014                 
                
  19434519.656   104070996.478                    80944136.418    19434521.926  
  19434518.633  
  23789360.492   125013929.076    23789367.281    97413485.6364                 
                
  24646040.125   129515818.378    24646050.328   100921459.9364   24646050.781  
                
  23467145.055   123320703.929    23467155.391    96094103.3804   23467155.500  
                
  23809490.586   125119719.550    23809500.926    97495919.8684   23809501.203  
                
  19445075.219   103653226.439                                                  
  19445074.047  
  22564103.047   120491080.056                    93715289.390    22564105.848  
  22564102.504  
  20213567.469   108053118.524                    84041315.704    20213572.691  
  20213566.703  
 21  8 14 17 36 10.0000000  0 14G 4R 7G 9G 7G 2G16R 8G20G 3G30G 6R10
                                R 9R 1
  21533575.555   113159731.641    21533583.551    88176467.7314   21533583.285  
                
  22300277.500   119375148.912                    92847344.582    22300282.895  
  22300276.582  
  20347619.984   106927504.035    20347627.973    83320184.1594   20347627.738  
                
  21051194.227   110624815.247    21051201.117    86201202.0044   21051200.910  
                
  24723479.883   129922773.135    24723485.648   101238537.6784                 
                
  22429095.375   117865727.189    22429101.477    91843460.9524                 
                
  19435734.945   104077504.306                    80949198.054    19435737.168  
  19435733.965  
  23783376.781   124982484.543    23783383.582    97388983.3964                 
                
  24653333.695   129554146.075    24653343.859   100951325.6594   24653344.328  
                
  23461456.586   123290811.075    23461466.945    96070810.2614   23461467.059  
                
  23814097.922   125143931.544    23814108.277    97514786.3554   23814108.531  
                
  19447294.820   103665058.259                                                  
  19447293.652  
  22571376.867   120529921.594                    93745499.482    22571379.656  
  22571376.348  
  20208813.094   108027703.737                    84021548.649    20208818.320  
  20208812.332  
 21  8 14 17 36 20.0000000  0 14G 4R 7G 9G 7G 2G16R 8G20G 3G30G 6R10
                                R 9R 1
  21537209.961   113178830.604    21537217.926    88191350.0364   21537217.680  
                
  22306570.461   119408835.707                    92873545.417    22306575.867  
  22306569.570  
  20347458.258   106926654.183    20347466.227    83319521.9454   20347465.996  
                
  21048582.438   110611090.238    21048589.289    86190507.2034   21048589.102  
                
  24724666.648   129929009.638    24724672.430   101243397.2864                 
                
  22431918.078   117880560.512    22431924.109    91855019.3804                 
                
  19436961.906   104084074.653                    80954308.340    19436964.086  
  19436960.965  
  23777399.117   124951071.716    23777405.898    97364505.8644                 
                
  24660628.727   129592481.809    24660638.926   100981197.6504   24660639.406  
                
  23455772.242   123260939.958    23455782.645    96047534.0854   23455782.758  
                
