     2.11           OBSERVATION DATA    M (MIXED)           RINEX VERSION / TYPE
EFT-CORS.RU                             20210817 150658 UTC PGM / RUN BY / DATE 
MDNG                                                        MARKER NAME         
                                                            MARKER NUMBER       
MDNG                EFT-CORS.RU                             OBSERVER / AGENCY   
0                   TRIMBLE BD970       2.0                 REC # / TYPE / VERS 
0                   UNKNOWN EXT NONE                        ANT # / TYPE        
  3463911.2830  3030468.2400  4402179.3760                  APPROX POSITION XYZ 
        0.0000        0.0000        0.0000                  ANTENNA: DELTA H/E/N
     1     1                                                WAVELENGTH FACT L1/2
     6    C1    L1    P2    L2    C2    P1                  # / TYPES OF OBSERV 
    10.000                                                  INTERVAL            
  2021     8    14    18    30    0.0000000     GPS         TIME OF FIRST OBS   
  2021     8    14    19    30    0.0000000     GPS         TIME OF LAST OBS    
     0                                                      RCV CLOCK OFFS APPL 
                                                            END OF HEADER       
 21  8 14 18 30  0.0000000  0 13G 4G 9G 7G16G 8R 8G20G27G30R 2R10R12
                                R 1
  22982415.047   120773425.278    22982422.703    94109214.1994   22982422.504  
                
  20697702.742   108767200.194    20697711.309    84753713.0974   20697711.051  
                
  20572654.039   108110074.987    20572660.133    84241665.4854   20572660.082  
                
  23931894.516   125762987.525    23931899.730    97997170.0814                 
                
  24370513.023   128067906.069    24370523.180    99793220.6404   24370523.805  
                
  20448123.359   109498792.221                    85165753.729    20448126.086  
  20448122.812  
  22267797.648   117018069.833    22267803.980    91182948.0654                 
                
  24220113.633   127277552.838    24220122.523    99177353.1934   24220122.566  
                
  21872922.680   114943024.977    21872931.754    89566046.0324   21872932.043  
                
  22775988.141   121537042.903                    94528805.597    22775991.773  
  22775985.941  
  20825176.656   111009943.227                                                  
  20825175.832  
  22403218.250   119673973.802                    93079745.735    22403222.527  
  22403217.672  
  19179235.430   102524023.303                    79740908.762    19179240.371  
  19179234.809  
 21  8 14 18 30 10.0000000  0 13G 4G 9G 7G16G 8R 8G20G27G30R 2R10R12
                                R 1
  22987701.914   120801208.074    22987709.562    94130863.1224   22987709.375  
                
  20700082.414   108779705.414    20700091.043    84763457.4164   20700090.746  
                
  20572273.469   108108075.122    20572279.578    84240107.1474   20572279.512  
                
  23938070.602   125795443.052    23938075.809    98022460.1084                 
                
  24365799.195   128043134.989    24365809.352    99773918.5234   24365809.984  
                
  20453133.031   109525618.933                    85186618.953    20453135.754  
  20453132.480  
  22264693.328   117001756.568    22264699.633    91170236.4144                 
                
  24217410.086   127263345.684    24217418.914    99166282.6894   24217418.992  
                
  21868860.359   114921677.411    21868869.465    89549411.5744   21868869.738  
                
  22768544.430   121497322.005                    94497911.589    22768548.098  
  22768542.258  
  20831078.523   111041403.492                                                  
  20831077.691  
  22396041.641   119635637.404                    93049928.525    22396045.848  
  22396040.996  
  19177954.742   102517177.350                    79735584.131    19177959.703  
  19177954.125  
 21  8 14 18 30 20.0000000  0 13G 4G 9G 7G16G 8R 8G20G27G30R 2R10R12
                                R 1
  22992993.336   120829014.764    22993000.969    94152530.6684   22993000.789  
                
  20702470.227   108792253.485    20702478.898    84773235.1254   20702478.578  
                
  20571899.383   108106109.293    20571905.508    84238575.3394   20571905.430  
                
  23944253.914   125827936.611    23944259.156    98047779.7414                 
                
  24361090.805   128018392.390    24361100.957    99754638.6004   24361101.586  
                
  20458153.586   109552503.857                    85207529.438    20458156.301  
  20458152.988  
  22261600.453   116985503.402    22261606.711    91157571.6124                 
                
  24214716.836   127249192.649    24214725.637    99155254.3594   24214725.719  
                
  21864803.773   114900359.942    21864812.910    89532800.5714   21864813.160  
                
  22761102.633   121457611.266                    94467025.465    22761106.312  
  22761100.512  
  20836987.828   111072903.356                                                  
  20836986.992  
  22388871.047   119597333.388                    93020136.520    22388875.223  
  22388870.398  
  19176687.711   102510404.344                    79730316.239    19176692.703  
  19176687.070  
 21  8 14 18 30 30.0000000  0 13G 4G 9G 7G16G 8R 8G20G27G30R 2R10R12
                                R 1
  22998289.281   120856845.182    22998296.875    94174216.7014   22998296.727  
                
  20704866.188   108804844.281    20704874.895    84783046.1264   20704874.555  
                
  20571531.750   108104177.416    20571537.891    84237069.9804   20571537.812  
                
  23950444.414   125860468.003    23950449.699    98073128.8434                 
                
  24356387.883   127993678.407    24356398.000    99735380.9714   24356398.617  
                
  20463184.945   109579446.656                    85228484.948    20463187.652  
  20463184.301  
  22258518.984   116969310.219    22258525.191    91144953.5514                 
                
  24212033.883   127235093.728    24212042.645    99144268.1784   24212042.723  
                
  21860752.891   114879072.403    21860762.027    89516212.8844   21860762.277  
                
  22753662.742   121417910.632                    94436147.198    22753666.414  
  22753660.648  
  20842904.547   111104442.791                                                  
  20842903.703  
  22381706.445   119559061.790                    92990369.742    22381710.688  
  22381705.875  
  19175434.320   102503704.235                    79725105.038    19175439.320  
  19175433.672  
 21  8 14 18 30 40.0000000  0 13G 4G 9G 7G16G 8R 8G20G27G30R 2R10R12
                                R 1
  23003589.789   120884699.607    23003597.383    94195921.4464   23003597.250  
                
  20707270.320   108817478.081    20707279.051    84792890.6414   20707278.695  
                
  20571170.641   108102279.781    20571176.797    84235591.3034   20571176.703  
                
  23956642.148   125893037.397    23956647.461    98098507.5874                 
                
  24351690.492   127968993.610    24351700.594    99716146.0944   24351701.219  
                
  20468227.180   109606447.656                    85249485.706    20468229.875  
  20468226.492  
  22255449.016   116953177.460    22255455.188    91132382.5714                 
                
  24209361.312   127221049.281    24209370.066    99133324.4694   24209370.145  
                
  21856707.773   114857815.192    21856716.902    89499648.8334   21856717.164  
                
  22746224.812   121378220.394                    94405277.025    22746228.434  
  22746222.688  
  20848828.703   111136021.890                                                  
  20848827.852  
  22374547.992   119520822.936                    92960628.422    22374552.289  
  22374547.469  
  19174194.648   102497077.469                    79719950.884    19174199.648  
  19174193.992  
 21  8 14 18 30 50.0000000  0 13G 4G 9G 7G16G 8R 8G20G27G30R 2R10R12
                                R 1
  23008894.797   120912577.586    23008902.402    94217644.5544   23008902.266  
                
  20709682.555   108830154.485    20709691.285    84802768.3554   20709690.918  
                
  20570815.961   108100415.943    20570822.137    84234138.9644   20570822.031  
                
  23962846.992   125925644.243    23962852.355    98123915.4864                 
                
  24346998.586   127944337.355    24347008.652    99696933.4624   24347009.285  
                
  20473280.258   109633506.686                    85270531.622    20473282.934  
  20473279.559  
  22252390.477   116937104.712    22252396.641    91119858.3534                 
                
  24206699.031   127207058.994    24206707.758    99122422.9604   24206707.859  
                
  21852668.336   114836587.830    21852677.457    89483108.0394   21852677.719  
                
  22738788.766   121338540.316                    94374414.774    22738792.391  
  22738786.594  
  20854760.203   111167640.080                                                  
  20854759.332  
  22367395.680   119482616.393                    92930912.243    22367399.957  
  22367395.121  
  19172968.602   102490523.568                    79714853.405    19172973.613  
  19172967.953  
 21  8 14 18 31  0.0000000  0 13G 4G 9G 7G16G 8R 8G20G27G30R 2R10R12
                                R 1
  23014204.266   120940479.021    23014211.883    94239385.9244   23014211.734  
                
  20712102.883   108842873.396    20712111.598    84812679.1864   20712111.230  
                
  20570467.695   108098585.842    20570473.891    84232712.9144   20570473.777  
                
  23969058.938   125958288.379    23969064.340    98149352.4964                 
                
  24342312.102   127919709.724    24342322.086    99677743.1104   24342322.766  
                
  20478344.094   109660623.390                    85291622.384    20478346.777  
  20478343.379  
  22249343.344   116921091.979    22249349.531    91107380.8954                 
                
  24204047.055   127193122.851    24204055.770    99111563.6434   24204055.875  
                
  21848634.578   114815390.294    21848643.695    89466590.4834   21848643.945  
                
  22731354.625   121298870.454                    94343560.445    22731358.223  
  22731352.410  
  20860698.977   111199297.142                                                  
  20860698.070  
  22360249.406   119444442.380                    92901221.368    22360253.699  
  22360248.867  
  19171756.211   102484042.634                    79709812.676    19171761.234  
  19171755.566  
 21  8 14 18 31 10.0000000  0 13G 4G 9G 7G16G 8R 8G20G27G30R 2R10R12
                                R 1
  23019518.312   120968404.486    23019525.934    94261146.0244   23019525.793  
                
  20714531.422   108855635.415    20714540.113    84822623.6144   20714539.766  
                
  20570125.992   108096790.133    20570132.199    84231313.6634   20570132.082  
                
  23975278.070   125990970.249    23975283.504    98174818.8734                 
                
  24337631.180   127895111.347    24337641.133    99658575.5504   24337641.820  
                
  20483418.797   109687798.136                    85312758.292    20483421.469  
  20483418.098  
  22246307.766   116905139.895    22246313.938    91094950.6994                 
                
  24201405.516   127179241.510    24201414.242    99100747.0394   24201414.359  
                
  21844606.609   114794223.175    21844615.730    89450096.6304   21844615.977  
                
  22723922.477   121259211.235                    94312714.423    22723926.094  
  22723920.242  
  20866645.109   111230993.366                                                  
  20866644.184  
  22353109.234   119406301.470                    92871556.221    22353113.652  
  22353108.816  
  19170557.578   102477635.230                    79704829.133    19170562.602  
  19170556.945  
 21  8 14 18 31 20.0000000  0 13G 4G 9G 7G16G 8R 8G20G27G30R 2R10R12
                                R 1
  23024836.773   120996353.306    23024844.391    94282924.3104   23024844.277  
                
  20716968.023   108868439.866    20716976.672    84832601.1074   20716976.359  
                
  20569790.672   108095028.081    20569796.891    84229940.6314   20569796.762  
                
  23981504.219   126023688.977    23981509.688    98200313.9734                 
                
  24332955.766   127870541.981    24332965.707    99639430.6294   24332966.391  
                
  20488504.242   109715030.427                    85333938.963    20488506.883  
  20488503.590  
  22243283.602   116889247.899    22243289.762    91082567.3244                 
                
  24198774.305   127165414.457    24198783.074    99089972.7374   24198783.184  
                
  21840584.289   114773085.818    21840593.418    89433625.9724   21840593.652  
                
  22716492.367   121219562.876                    94281876.818    22716495.977  
  22716490.145  
  20872598.469   111262728.151                                                  
  20872597.539  
  22345975.141   119368192.981                    92841916.306    22345979.633  
  22345974.781  
  19169372.609   102471300.917                    79699902.457    19169377.633  
  19169371.973  
 21  8 14 18 31 30.0000000  0 13G 4G 9G 7G16G 8R 8G20G27G30R 2R10R12
                                R 1
  23030159.781   121024326.011    23030167.426    94304721.2114   23030167.328  
                
  20719412.820   108881287.367    20719421.422    84842612.1394   20719421.141  
                
  20569461.867   108093300.206    20569468.109    84228594.2314   20569467.973  
                
  23987737.508   126056445.129    23987743.016    98225838.2394                 
                
  24328286.047   127846002.104    24328295.961    99620308.6984   24328296.633  
                
  20493600.516   109742320.710                    85355164.740    20493603.164  
  20493599.898  
  22240271.000   116873416.573    22240277.137    91070231.2154                 
                
  24196153.555   127151642.323    24196162.309    99079241.2174   24196162.410  
                
  21836567.773   114751978.874    21836576.910    89417179.0134   21836577.137  
                
  22709064.328   121179925.217                    94251047.548    22709067.883  
  22709062.090  
  20878559.164   111294502.103                                                  
  20878558.238  
  22338847.406   119330117.683                    92812302.193    22338851.863  
  22338847.012  
  19168201.438   102465040.324                    79695033.100    19168206.449  
  19168200.797  
 21  8 14 18 31 40.0000000  0 13G 4G 9G 7G16G 8R 8G20G27G30R 2R10R12
                                R 1
  23035487.234   121052322.021    23035494.902    94326536.2994   23035494.789  
                
  20721865.695   108894177.322    20721874.262    84852656.2644   20721874.016  
                
  20569139.461   108091605.945    20569145.723    84227274.0314   20569145.566  
                
  23993977.805   126089238.111    23993983.352    98251391.2004                 
                
  24323621.891   127821491.399    24323631.723    99601209.4574   24323632.414  
                
  20498707.516   109769668.324                    85376435.092    20498710.152  
  20498706.945  
  22237269.859   116857645.498    22237275.977    91057942.0674                 
                
  24193543.156   127137924.617    24193551.875    99068552.1344   24193551.980  
                
  21832556.930   114730901.753    21832566.086    89400755.2944   21832566.312  
                
  22701638.250   121140298.089                    94220226.468    22701641.742  
  22701635.977  
  20884527.031   111326314.225                                                  
  20884526.086  
  22331725.734   119292075.082                    92782713.518    22331730.199  
  22331725.348  
  19167043.914   102458852.686                    79690220.490    19167048.914  
  19167043.277  
 21  8 14 18 31 50.0000000  0 14G 4G 9G 7G 5G16G 8R 8G20G27G30R 2R10
                                R12R 1
  23040819.141   121080341.420    23040826.801    94348369.6074   23040826.691  
                
  20724326.680   108907109.847    20724335.219    84862733.5514   20724334.984  
                
  20568823.469   108089945.375    20568829.758    84225980.0854   20568829.594  
                
  24564285.969   129086186.505    24564294.020   100586676.4614   24564294.297  
                
  24000225.078   126122067.887    24000230.664    98276972.8474                 
                
  24318963.359   127797010.182    24318973.117    99582133.1894   24318973.797  
                
  20503825.242   109797073.318                    85397750.075    20503827.852  
  20503824.719  
  22234280.203   116841934.755    22234286.316    91045699.9204                 
                
  24190943.164   127124261.592    24190951.859    99057905.6374   24190951.996  
                
  21828551.789   114709854.577    21828560.957    89384354.9064   21828561.164  
                
  22694214.117   121100681.574                    94189413.636    22694217.598  
  22694211.855  
  20890502.078   111358164.601                                                  
  20890501.102  
  22324610.219   119254065.425                    92753150.474    22324614.695  
  22324609.832  
  19165900.148   102452738.609                    79685465.093    19165905.145  
  19165899.496  
 21  8 14 18 32  0.0000000  0 14G 4G 9G 7G 5G16G 8R 8G20G27G30R 2R10
                                R12R 1
  23046155.398   121108383.792    23046163.035    94370220.7894   23046162.949  
                
  20726795.672   108920084.514    20726804.203    84872843.6784   20726803.973  
                
  20568513.797   108088318.075    20568520.117    84224712.0634   20568519.926  
                
  24558294.594   129054701.889    24558302.641   100562142.9904   24558302.785  
                
  24006479.297   126154933.909    24006484.891    98302582.7414                 
                
  24314310.305   127772558.027    24314320.074    99563079.5964   24314320.738  
                
  20508953.594   109824535.332                    85419109.429    20508956.195  
  20508953.113  
  22231301.961   116826284.048    22231308.086    91033504.5574                 
                
  24188353.500   127110652.865    24188362.203    99047301.4514   24188362.336  
                
  21824552.273   114688836.968    21824561.418    89367977.5544   21824561.645  
                
  22686791.992   121061075.815                    94158609.180    22686795.477  
  22686789.703  
  20896484.203   111390052.736                                                  
  20896483.191  
  22317500.828   119216088.286                    92723612.726    22317505.250  
  22317500.402  
  19164769.969   102446697.176                    79680766.192    19164774.969  
  19164769.309  
 21  8 14 18 32 10.0000000  0 14G 4G 9G 7G 5G16G 8R 8G20G27G30R 2R10
                                R12R 1
  23051496.219   121136450.124    23051503.852    94392090.6584   23051503.781  
                
  20729272.891   108933102.400    20729281.422    84882987.4834   20729281.191  
                
  20568210.664   108086725.096    20568217.016    84223470.7844   20568216.809  
                
  24552309.477   129023250.189    24552317.609   100537635.1894   24552317.703  
                
  24012740.594   126187837.150    24012746.230    98328221.6254                 
                
  24309663.000   127748136.170    24309672.801    99544049.5944   24309673.434  
                
  20514092.750   109852055.227                    85440513.781    20514095.340  
  20514092.297  
  22228335.367   116810694.523    22228341.508    91021356.8674                 
                
  24185774.391   127097099.595    24185783.098    99036740.4934   24185783.230  
                
  21820558.570   114667849.977    21820567.680    89351624.0584   21820567.922  
                
  22679372.000   121021481.718                    94127813.802    22679375.559  
  22679369.730  
  20902473.578   111421979.571                                                  
  20902472.555  
  22310397.773   119178144.877                    92694101.188    22310402.105  
  22310397.277  
  19163653.688   102440730.039                    79676125.085    19163658.680  
  19163653.020  
 21  8 14 18 32 20.0000000  0 14G 4G 9G 7G 5G16G 8R 8G20G27G30R 2R10
                                R12R 1
  23056841.523   121164540.047    23056849.207    94413978.9084   23056849.113  
                
  20731758.258   108946163.111    20731766.793    84893164.6584   20731766.555  
                
  20567913.977   108085166.028    20567920.359    84222255.9294   20567920.137  
                
  24546330.648   128991831.230    24546338.855   100513152.9054   24546338.797  
                
  24019008.875   126220777.111    24019014.590    98353889.0914                 
                
  24305021.367   127723744.169    24305031.176    99525042.8444   24305031.793  
                
  20519242.664   109879632.689                    85461962.914    20519245.250  
  20519242.250  
  22225380.352   116795165.845    22225386.512    91009256.6094                 
                
  24183205.773   127083601.487    24183214.500    99026222.4934   24183214.652  
                
  21816570.648   114646893.282    21816579.727    89335294.1714   21816579.965  
                
  22671954.148   120981898.975                    94097027.236    22671957.746  
  22671951.922  
  20908470.125   111453944.523                                                  
  20908469.121  
  22303300.945   119140234.976                    92664615.708    22303305.262  
  22303300.434  
  19162551.219   102434836.729                    79671541.392    19162556.207  
  19162550.547  
 21  8 14 18 32 30.0000000  0 14G 4G 9G 7G 5G16G 8R 8G20G27G30R 2R10
                                R12R 1
  23062191.266   121192653.483    23062199.012    94435885.4634   23062198.898  
                
  20734251.766   108959266.576    20734260.297    84903375.1474   20734260.043  
                
  20567623.727   108083640.750    20567630.141    84221067.4014   20567629.895  
                
  24540358.070   128960445.066    24540366.277   100488696.1534   24540366.152  
                
  24025284.102   126253753.583    24025289.887    98379585.0294                 
                
  24300385.438   127699382.103    24300395.223    99506059.4344   24300395.816  
                
  20524403.258   109907267.389                    85483456.580    20524405.852  
  20524402.867  
  22222436.922   116779698.033    22222443.078    90997203.7644                 
                
  24180647.648   127070158.520    24180656.414    99015747.4614   24180656.594  
                
  21812588.453   114625966.764    21812597.492    89318987.8024   21812597.746  
                
  22664538.461   120942327.811                    94066249.704    22664542.102  
  22664536.332  
  20914473.773   111485947.373                                                  
  20914472.773  
  22296210.367   119102358.408                    92635156.171    22296214.684  
  22296209.840  
  19161462.578   102429017.309                    79667015.174    19161467.570  
  19161461.898  
 21  8 14 18 32 40.0000000  0 14G 4G 9G 7G 5G16G 8R 8G20G27G30R 2R10
                                R12R 1
  23067545.500   121220790.384    23067553.234    94457810.3314   23067553.145  
                
  20736753.414   108972412.832    20736761.941    84913618.9924   20736761.688  
                
  20567339.906   108082149.284    20567346.340    84219905.2244   20567346.078  
                
  24534391.742   128929091.836    24534399.918   100464265.0734   24534399.816  
                
  24031566.250   126286766.472    24031572.086    98405309.3624                 
                
  24295755.258   127675050.286    24295765.043    99487099.5904   24295765.621  
                
  20529574.570   109934959.511                    85504994.889    20529577.156  
  20529574.184  
  22219505.086   116764291.109    22219511.219    90985198.3854                 
                
  24178100.055   127056770.853    24178108.879    99005315.5254   24178109.059  
                
  21808612.031   114605070.530    21808621.035    89302705.0254   21808621.312  
                
  22657124.984   120902768.121                    94035481.082    22657128.609  
  22657122.918  
  20920484.516   111517988.051                                                  
  20920483.527  
  22289125.984   119064515.347                    92605722.712    22289130.375  
  22289125.504  
  19160387.781   102423271.900                    79662546.519    19160392.770  
  19160387.105  
 21  8 14 18 32 50.0000000  0 14G 4G 9G 7G 5G16G 8R 8G20G27G30R 2R10
                                R12R 1
  23072904.219   121248950.738    23072911.918    94479753.4774   23072911.879  
                
  20739263.195   108985601.854    20739271.715    84923896.1454   20739271.449  
                
  20567062.531   108080691.649    20567068.988    84218769.4004   20567068.703  
                
  24528431.672   128897771.609    24528439.832   100439859.7114   24528439.785  
                
  24037855.312   126319815.720    24037861.180    98431062.0104                 
                
  24291130.852   127650748.621    24291140.609    99468163.2254   24291141.180  
                
  20534756.586   109962708.884                    85526577.732    20534759.195  
  20534756.211  
  22216584.836   116748945.124    22216590.965    90973240.4614                 
                
  24175562.992   127043438.533    24175571.863    98994926.7254   24175572.020  
                
  21804641.367   114584204.550    21804650.344    89286445.8244   21804650.633  
                
  22649713.719   120863220.016                    94004721.450    22649717.277  
  22649711.641  
  20926502.336   111550066.405                                                  
  20926501.359  
  22282047.891   119026705.932                    92576315.421    22282052.340  
  22282047.457  
  19159326.789   102417600.279                    79658135.256    19159331.789  
  19159326.121  
 21  8 14 18 33  0.0000000  0 14G 4G 9G 7G 5G16G 8R 8G20G27G30R 2R10
                                R12R 1
  23078267.375   121277134.445    23078275.078    94501714.7934   23078275.043  
                
  20741781.117   108998833.566    20741789.621    84934206.5654   20741789.344  
                
  20566791.562   108079267.703    20566798.047    84217659.8364   20566797.746  
                
  24522477.891   128866484.504    24522486.105   100415480.1374   24522486.074  
                
  24044151.242   126352901.072    24044157.117    98456842.8134                 
                
  24286512.148   127626477.340    24286521.957    99449250.5604   24286522.520  
                
  20539949.258   109990515.355                    85548204.968    20539951.863  
  20539948.863  
  22213676.188   116733660.067    22213682.320    90961330.0244                 
                
  24173036.469   127030161.580    24173045.371    98984581.0564   24173045.523  
                
  21800676.445   114563368.755    21800685.418    89270210.1504   21800685.707  
                
  22642304.602   120823683.586                    93973970.905    22642308.145  
  22642302.516  
  20932527.242   111582182.484                                                  
  20932526.238  
  22274976.188   118988930.114                    92546934.224    22274980.598  
  22274975.738  
  19158279.648   102412002.703                    79653781.578    19158284.652  
  19158278.980  
 21  8 14 18 33 10.0000000  0 14G 4G 9G 7G 5G16G 8R 8G20G27G30R 2R10
                                R12R 1
  23083634.969   121305341.556    23083642.699    94523694.3694   23083642.668  
                
  20744307.164   109012108.026    20744315.641    84944550.2894   20744315.375  
                
  20566527.008   108077877.458    20566533.520    84216576.5334   20566533.203  
                
  24516530.453   128835230.524    24516538.680   100391126.3834   24516538.625  
                
  24050454.023   126386022.522    24050459.895    98482651.7564                 
                
  24281899.188   127602236.441    24281909.027    99430361.5684   24281909.586  
                
  20545152.609   110018379.088                    85569876.760    20545155.219  
  20545152.191  
  22210779.141   116718436.003    22210785.254    90949467.1174                 
                
  24170520.500   127016940.107    24170529.453    98974278.6344   24170529.566  
                
  21796717.281   114542563.246    21796726.266    89253998.0744   21796726.543  
                
  22634897.727   120784159.049                    93943229.614    22634901.234  
  22634895.625  
  20938559.133   111614335.900                                                  
  20938558.129  
  22267910.680   118951188.020                    92517579.259    22267915.160  
  22267910.301  
  19157246.359   102406479.175                    79649485.499    19157251.363  
  19157245.719  
 21  8 14 18 33 20.0000000  0 14G 4G 9G 7G 5G16G 8R 8G20G27G30R 2R10
                                R12R 1
  23089007.039   121333572.151    23089014.781    94545692.2354   23089014.777  
                
  20746841.367   109025425.349    20746849.816    84954927.4204   20746849.562  
                
  20566268.883   108076521.004    20566275.418    84215519.5574   20566275.082  
                
  24510589.336   128804009.797    24510597.613   100366798.5514   24510597.539  
                
  24056763.688   126419180.098    24056769.543    98508488.8004                 
                
  24277292.141   127578026.312    24277301.984    99411496.5494   24277302.543  
                
  20550366.656   110046299.998                    85591593.011    20550369.266  
  20550366.230  
  22207893.750   116703273.201    22207899.848    90937651.9314                 
                
  24168015.156   127003774.365    24168024.129    98964019.6034   24168024.203  
                
  21792763.906   114521788.129    21792772.918    89237809.6834   21792773.176  
                
  22627493.102   120744646.490                    93912497.665    22627496.590  
  22627490.953  
  20944598.031   111646526.630                                                  
  20944597.031  
  22260851.625   118913480.011                    92488250.819    22260856.125  
  22260851.281  
  19156226.984   102401029.969                    79645247.229    19156231.992  
  19156226.355  
 21  8 14 18 33 30.0000000  0 14G 4G 9G 7G 5G16G 8R 8G20G27G30R 2R10
                                R12R 1
  23094383.539   121361825.798    23094391.281    94567708.0664   23094391.324  
                
  20749383.664   109038785.148    20749392.086    84965337.6484   20749391.844  
                
  20566017.109   108075197.941    20566023.656    84214488.6004   20566023.316  
                
  24504654.492   128772822.087    24504662.789   100342496.4454   24504662.680  
                
  24063080.141   126452373.257    24063085.988    98534353.5774                 
                
  24272690.867   127553846.601    24272700.656    99392655.2044   24272701.223  
                
  20555591.328   110074277.853                    85613353.562    20555593.922  
  20555590.875  
  22205019.953   116688171.316    22205026.035    90925884.2234                 
                
  24165520.328   126990664.010    24165529.281    98953803.7394   24165529.348  
                
  21788816.242   114501043.062    21788825.270    89221644.7034   21788825.512  
                
  22620090.750   120705146.110                    93881775.169    22620094.215  
  22620088.539  
  20950643.875   111678754.358                                                  
  20950642.859  
  22253798.969   118875805.596                    92458948.510    22253803.375  
  22253798.527  
  19155221.438   102395654.725                    79641066.479    19155226.434  
  19155220.828  
 21  8 14 18 33 40.0000000  0 14G 4G 9G 7G 5G16G 8R 8G20G27G30R 2R10
                                R12R 1
  23099764.484   121390102.957    23099772.301    94589742.2164   23099772.352  
                
  20751934.125   109052187.878    20751942.523    84975781.3284   20751942.309  
                
  20565771.789   108073908.777    20565778.344    84213484.0544   20565778.004  
                
  24498726.023   128741667.933    24498734.352   100318220.5144   24498734.266  
                
  24069403.422   126485602.297    24069409.309    98560246.3494                 
                
  24268095.516   127529697.946    24268105.254    99373838.0774   24268105.832  
                
  20560826.641   110102312.721                    85635158.465    20560829.227  
  20560826.156  
  22202157.844   116673130.865    22202163.902    90914164.3864                 
                
  24163036.133   126977609.578    24163045.105    98943631.4894   24163045.180  
                
  21784874.383   114480328.487    21784883.422    89205503.4934   21784883.664  
                
  22612690.703   120665657.907                    93851062.139    22612694.113  
  22612688.445  
  20956696.695   111711019.236                                                  
  20956695.660  
  22246752.547   118838165.401                    92429672.839    22246757.027  
  22246752.145  
  19154229.820   102390353.975                    79636943.675    19154234.836  
  19154229.207  
 21  8 14 18 33 50.0000000  0 14G 4G 9G 7G 5G16G 8R 8G20G27G30R 2R10
                                R12R 1
  23105149.867   121418403.427    23105157.797    94611794.5234   23105157.809  
                
  20754492.727   109065633.371    20754501.105    84986258.3284   20754500.895  
                
  20565532.883   108072653.318    20565539.438    84212505.7714   20565539.082  
                
  24492803.977   128710547.432    24492812.270   100293970.7404   24492812.211  
                
  24075733.500   126518867.037    24075739.395    98586166.9364                 
                
  24263505.977   127505580.301    24263515.789    99355045.1264   24263516.359  
                
  20566072.555   110130404.376                    85657007.526    20566075.137  
  20566072.062  
  22199307.406   116658151.713    22199313.445    90902492.3124                 
                
  24160562.578   126964611.029    24160571.602    98933502.7614   24160571.691  
                
  21780938.305   114459644.277    21780947.332    89189385.9314   21780947.586  
                
  22605292.922   120626181.924                    93820358.597    22605296.289  
  22605290.648  
  20962756.438   111743321.138                                                  
  20962755.422  
  22239712.562   118800559.281                    92400423.650    22239717.062  
  22239712.148  
  19153252.133   102385127.665                    79632878.765    19153257.145  
  19153251.512  
 21  8 14 18 34  0.0000000  0 14G 4G 9G 7G 5G16G 8R 8G20G27G30R 2R10
                                R12R 1
  23110539.594   121446726.856    23110547.637    94633864.7324   23110547.582  
                
  20757059.398   109079121.293    20757067.762    84996768.3954   20757067.551  
                
  20565300.312   108071431.200    20565306.859    84211553.4724   20565306.508  
                
  24486888.289   128679460.366    24486896.598   100269747.0694   24486896.555  
                
  24082070.273   126552166.987    24082076.188    98612114.9494                 
                
  24258922.227   127481493.383    24258932.172    99336276.1274   24258932.734  
                
  20571329.031   110158552.671                    85678900.634    20571331.617  
  20571328.512  
  22196468.586   116643233.602    22196474.621    90890867.8124                 
                
  24158099.602   126951668.081    24158108.680    98923417.3584   24158108.738  
                
  21777007.938   114438990.109    21777016.941    89173291.7754   21777017.207  
                
  22597897.477   120586718.463                    93789664.828    22597900.832  
  22597895.203  
  20968822.992   111775659.302                                                  
  20968822.008  
  22232678.930   118762987.086                    92371200.841    22232683.441  
  22232678.523  
  19152288.320   102379975.538                    79628871.553    19152293.328  
  19152287.688  
 21  8 14 18 34 10.0000000  0 14G 4G 9G 7G 5G16G 8R 8G20G27G30R 2R10
                                R12R 1
  23115933.797   121475073.682    23115941.895    94655953.1784   23115941.793  
                
  20759634.242   109092652.135    20759642.594    85007311.9094   20759642.375  
                
  20565074.188   108070242.879    20565080.711    84210627.5034   20565080.375  
                
  24480979.039   128648407.178    24480987.355   100245549.7684   24480987.320  
                
  24088413.805   126585502.523    24088419.762    98638090.6654                 
                
  24254344.508   127457437.676    24254354.492    99317531.4364   24254355.039  
                
  20576596.133   110186757.789                    85700837.946    20576598.719  
  20576595.562  
  22193641.492   116628377.117    22193647.531    90879291.3244                 
                
  24155647.312   126938781.290    24155656.430    98913375.7244   24155656.473  
                
  21773083.383   114418366.474    21773092.367    89157221.4204   21773092.648  
                
  22590504.406   120547267.568                    93758980.816    22590507.738  
  22590502.129  
  20974896.492   111808034.431                                                  
  20974895.523  
  22225651.797   118725449.281                    92342004.776    22225656.246  
  22225651.352  
  19151338.477   102374898.092                    79624922.433    19151343.484  
  19151337.824  
 21  8 14 18 34 20.0000000  0 15G 4G 9G14G 7G 5G16G 8R 8G20G27G30R 2
                                R10R12R 1
  23121332.484   121503443.941    23121340.613    94678059.8664   23121340.480  
                
  20762217.258   109106225.915    20762225.613    85017888.8774   20762225.395  
                
  24685149.117   129721328.372    24685157.473   101081593.6584   24685157.363  
                
  20564854.492   108069088.366    20564860.988    84209727.8794   20564860.672  
                
  24475076.289   128617388.046    24475084.609   100221379.0304   24475084.574  
                
  24094764.125   126618873.578    24094770.156    98664094.0654                 
                
  24249772.797   127433413.612    24249782.875    99298811.4144   24249783.395  
                
  20581873.875   110215019.887                    85722819.583    20581876.469  
  20581873.285  
  22190826.148   116613582.353    22190832.199    90867762.9334                 
                
  24153205.742   126925950.821    24153214.910    98903377.9684   24153214.965  
                
  21769164.664   114397773.438    21769173.641    89141174.9064   21769173.930  
                
  22583113.680   120507829.231                    93728306.566    22583116.996  
  22583111.391  
  20980976.922   111840446.485                                                  
  20980975.988  
  22218630.984   118687946.121                    92312835.672    22218635.516  
  22218630.641  
  19150402.625   102369895.397                    79621031.450    19150407.656  
  19150401.965  
 21  8 14 18 34 30.0000000  0 15G 4G 9G14G 7G 5G16G 8R 8G20G27G30R 2
                                R10R12R 1
  23126735.664   121531838.025    23126743.871    94700185.1474   23126743.695  
                
  20764808.523   109119843.092    20764816.887    85028499.6624   20764816.656  
                
  24677860.039   129683023.936    24677868.168   101051746.1424   24677868.234  
                
  20564641.320   108067968.143    20564647.789    84208854.9784   20564647.492  
                
  24469180.109   128586403.548    24469188.473   100197235.2804   24469188.398  
                
  24101121.250   126652280.446    24101127.367    98690125.3974                 
                
  24245207.195   127409421.564    24245217.371    99280116.3404   24245217.859  
                
  20587162.273   110243339.067                    85744845.608    20587164.879  
  20587161.660  
  22188022.633   116598849.774    22188028.707    90856282.9994                 
                
  24150774.977   126913177.156    24150784.219    98893424.4884   24150784.242  
                
  21765251.836   114377211.440    21765260.809    89125152.5764   21765261.098  
                
  22575725.461   120468404.555                    93697642.948    22575728.820  
  22575723.215  
  20987064.273   111872895.487                                                  
  20987063.363  
  22211616.805   118650477.949                    92283693.773    22211621.355  
  22211616.477  
  19149480.852   102364968.019                    79617199.041    19149485.871  
  19149480.195  
 21  8 14 18 34 40.0000000  0 15G 4G 9G14G 7G 5G16G 8R 8G20G27G30R 2
                                R10R12R 1
  23132143.086   121560254.299    23132151.316    94722327.6764   23132151.125  
                
  20767407.734   109133501.968    20767416.117    85039142.9424   20767415.879  
                
  24670571.516   129644721.987    24670579.348   101021900.5294   24670579.566  
                
  20564434.352   108066880.512    20564440.805    84208007.4804   20564440.516  
                
  24463290.234   128555452.114    24463298.605   100173117.2964   24463298.547  
                
  24107484.844   126685721.362    24107491.047    98716183.2424                 
                
  24240647.414   127385460.068    24240657.617    99261445.0594   24240658.098  
                
  20592461.078   110271713.955                    85766914.956    20592463.703  
  20592460.430  
  22185230.648   116584177.774    22185236.742    90844850.2764                 
                
  24148354.727   126900458.748    24148363.984    98883514.0504   24148364.000  
                
  21761344.609   114356678.830    21761353.590    89109153.1494   21761353.879  
                
  22568339.469   120428991.676                    93666988.513    22568342.852  
  22568337.262  
  20993158.203   111905379.550                                                  
  20993157.297  
  22204609.000   118613043.398                    92254578.014    22204613.504  
  22204608.637  
  19148572.859   102360114.256                    79613423.886    19148577.887  
  19148572.203  
 21  8 14 18 34 50.0000000  0 15G 4G 9G14G 7G 5G16G 8R 8G20G27G30R 2
                                R10R12R 1
  23137554.891   121588693.480    23137563.113    94744488.0904   23137562.902  
                
  20770015.039   109147203.394    20770023.438    85049819.3804   20770023.188  
                
  24663283.641   129606423.466    24663291.246   100992057.5934   24663291.590  
                
  20564233.727   108065826.217    20564240.176    84207185.9574   20564239.906  
                
  24457406.820   128524534.662    24457415.188   100149025.7654   24457415.137  
                
  24113855.047   126719197.005    24113861.336    98742268.1394                 
                
  24236093.648   127361529.955    24236103.789    99242798.2314   24236104.301  
                
  20597770.414   110300145.267                    85789028.187    20597773.051  
  20597769.734  
  22182450.359   116569567.247    22182456.461    90833465.4344                 
                
  24145945.148   126887796.461    24145954.398    98873647.3504   24145954.426  
                
  21757443.133   114336176.467    21757452.137    89093177.2874   21757452.414  
                
  22560955.875   120389591.467                    93636343.935    22560959.234  
  22560953.684  
  20999258.891   111937899.613                                                  
  20999257.992  
  22197607.602   118575643.220                    92225489.011    22197612.078  
  22197607.223  
  19147678.836   102355335.172                    79609706.825    19147683.848  
  19147678.199  
 21  8 14 18 35  0.0000000  0 15G 4G 9G14G 7G 5G16G 8R 8G20G27G30R 2
                                R10R12R 1
  23142971.062   121617155.572    23142979.246    94766666.3574   23142979.023  
                
  20772630.430   109160947.334    20772638.840    85060528.9364   20772638.586  
                
  24655996.422   129568128.448    24656003.828   100962217.3774   24656004.262  
                
  20564039.438   108064805.234    20564045.891    84206390.3884   20564045.609  
                
  24451529.883   128493651.279    24451538.223   100124960.7964   24451538.230  
                
  24120231.828   126752707.260    24120238.211    98768380.0234                 
                
  24231545.922   127337631.487    24231556.000    99224176.0614   24231556.543  
                
  20603090.242   110328632.778                    85811185.130    20603092.879  
  20603089.562  
  22179681.781   116555018.246    22179687.914    90822128.5474                 
                
  24143546.281   126875190.407    24143555.578    98863824.4724   24143555.570  
                
  21753547.414   114315704.346    21753556.465    89077224.9964   21753556.711  
                
  22553574.727   120350204.362                    93605709.538    22553578.105  
  22553572.547  
  21005366.289   111970455.483                                                  
  21005365.406  
  22190612.633   118538277.488                    92196426.765    22190617.090  
  22190612.258  
  19146798.758   102350630.594                    79606047.690    19146803.758  
  19146798.137  
 21  8 14 18 35 10.0000000  0 15G 4G 9G14G 7G 5G16G 8R 8G20G27G30R 2
                                R10R12R 1
  23148391.602   121645640.819    23148399.734    94788862.6714   23148399.547  
                
  20775253.961   109174734.060    20775262.383    85071271.8364   20775262.133  
                
  24648709.891   129529837.259    24648717.191   100932380.1574   24648717.676  
                
  20563851.539   108063817.816    20563858.000    84205620.9804   20563857.715  
                
  24445659.523   128462802.380    24445667.828   100100922.6914   24445667.848  
                
  24126615.250   126786252.320    24126621.711    98794519.0394                 
                
  24227004.312   127313764.957    24227014.312    99205578.7774   24227014.855  
                
  20608420.602   110357176.574                    85833385.868    20608423.262  
  20608419.961  
  22176924.961   116540531.049    22176931.137    90810839.8304                 
                
  24141158.164   126862640.879    24141167.520    98854045.6304   24141167.504  
                
  21749657.500   114295262.753    21749666.594    89061296.4884   21749666.820  
                
  22546196.086   120310830.749                    93575085.625    22546199.480  
  22546193.918  
  21011480.453   112003047.349                                                  
  21011479.605  
  22183624.203   118500946.549                    92167391.591    22183628.668  
  22183623.809  
  19145932.719   102346001.061                    79602446.950    19145937.711  
  19145932.121  
 21  8 14 18 35 20.0000000  0 15G 4G 9G14G 7G 5G16G 8R 8G20G27G30R 2
                                R10R12R 1
  23153816.531   121674149.143    23153824.648    94811076.9494   23153824.477  
                
  20777885.633   109188563.519    20777894.059    85082048.0344   20777893.809  
                
  24641424.062   129491549.966    24641431.355   100902545.9894   24641431.848  
                
  20563670.031   108062864.000    20563676.496    84204877.7504   20563676.207  
                
  24439795.727   128431987.900    24439803.977   100076911.3984   24439804.023  
                
  24133005.266   126819832.051    24133011.766    98820685.0444                 
                
  24222468.805   127289930.412    24222478.688    99187006.4034   24222479.227  
                
  20613761.547   110385777.065                    85855630.689    20613764.230  
  20613760.941  
  22174179.914   116526105.738    22174186.141    90799599.3294                 
                
  24138780.820   126850147.927    24138790.180    98844310.8884   24138790.164  
                
  21745773.398   114274851.645    21745782.520    89045391.7324   21745782.719  
                
  22538819.992   120271470.520                    93544472.121    22538823.348  
  22538817.812  
  21017601.344   112035675.115                                                  
  21017600.512  
  22176642.273   118463650.451                    92138383.534    22176646.793  
  22176641.895  
  19145080.703   102341446.510                    79598904.523    19145085.691  
  19145080.133  
 21  8 14 18 35 30.0000000  0 15G 4G 9G14G 7G 5G16G 8R 8G20G27G30R 2
                                R10R12R 1
  23159245.805   121702680.386    23159253.961    94833309.0784   23159253.809  
                
  20780525.398   109202435.575    20780533.824    85092857.4244   20780533.586  
                
  24634138.977   129453266.476    24634146.262   100872714.7614   24634146.719  
                
  20563494.867   108061943.528    20563501.328    84204160.4984   20563501.035  
                
  24433938.461   128401207.853    24433946.684   100052926.9534   24433946.719  
                
  24139401.828   126853446.188    24139408.375    98846877.8814                 
                
  24217939.406   127266127.994    24217949.152    99168459.0814   24217949.723  
                
  20619112.930   110414433.471                    85877919.001    20619115.629  
  20619112.340  
  22171446.625   116511742.211    22171452.879    90788406.9624                 
                
  24136414.250   126837711.554    24136423.578    98834620.2094   24136423.582  
                
  21741895.062   114254470.883    21741904.195    89029510.6284   21741904.375  
                
  22531446.391   120232123.538                    93513868.938    22531449.730  
  22531444.199  
  21023728.852   112068338.153                                                  
  21023728.008  
  22169666.875   118426389.120                    92109402.511    22169671.410  
  22169666.500  
  19144242.703   102336966.923                    79595420.391    19144247.676  
  19144242.133  
 21  8 14 18 35 40.0000000  0 15G 4G 9G14G 7G 5G16G 8R 8G20G27G30R 2
                                R10R12R 1
  23164679.430   121731234.614    23164687.691    94855559.1104   23164687.520  
                
  20783173.289   109216350.318    20783181.719    85103700.0814   20783181.488  
                
  24626854.602   129414986.989    24626861.922   100842886.6644   24626862.336  
                
  20563326.055   108061056.426    20563332.504    84203469.2524   20563332.230  
                
  24428087.820   128370462.488    24428096.004   100028969.5254   24428096.035  
                
  24145804.914   126887094.699    24145811.535    98873097.4914                 
                
  24213416.141   127242357.702    24213425.758    99149936.7994   24213426.324  
                
  20624474.781   110443145.899                    85900250.876    20624477.473  
  20624474.223  
  22168725.125   116497440.600    22168731.418    90777262.8504                 
                
  24134058.445   126825331.860    24134067.738    98824973.7164   24134067.758  
                
  21738022.523   114234120.618    21738031.656    89013653.2784   21738031.828  
                
  22524075.336   120192790.236                    93483276.390    22524078.668  
  22524073.176  
  21029863.023   112101036.728                                                  
  21029862.180  
  22162698.062   118389162.962                    92080448.854    22162702.621  
  22162697.656  
  19143418.727   102332562.286                    79591994.556    19143423.703  
  19143418.152  
 21  8 14 18 35 50.0000000  0 15G 4G 9G14G 7G 5G16G 8R 8G20G27G30R 2
                                R10R12R 1
  23170117.430   121759811.735    23170125.750    94877827.0084   23170125.570  
                
  20785829.289   109230307.699    20785837.727    85114575.9564   20785837.504  
                
  24619571.016   129376711.547    24619578.363   100813061.7044   24619578.719  
                
  20563163.594   108060202.700    20563170.023    84202804.0064   20563169.766  
                
  24422243.766   128339751.810    24422251.930   100005039.1094   24422251.945  
                
  24152214.500   126920777.436    24152221.176    98899343.7524                 
                
  24208898.961   127218619.597    24208908.527    99131439.5814   24208909.074  
                
  20629847.141   110471914.548                    85922626.493    20629849.809  
  20629846.594  
  22166015.422   116483200.976    22166021.734    90766167.0314                 
                
  24131713.469   126813008.895    24131722.691    98815371.4164   24131722.762  
                
  21734155.781   114213800.783    21734164.914    88997819.6434   21734165.086  
                
  22516706.812   120153470.393                    93452694.300    22516710.152  
  22516704.668  
  21036003.797   112133770.539                                                  
  21036002.938  
  22155735.805   118351971.798                    92051522.431    22155740.395  
  22155735.344  
  19142608.836   102328232.943                    79588627.295    19142613.820  
  19142608.254  
 21  8 14 18 36  0.0000000  0 15G 4G 9G14G 7G 5G16G 8R 8G20G27G30R 2
                                R10R12R 1
  23175559.914   121788412.458    23175568.312    94900113.2454   23175568.137  
                
  20788493.531   109244308.374    20788501.984    85125485.5684   20788501.762  
                
  24612288.312   129338440.930    24612295.711   100783240.4984   24612296.043  
                
  20563007.609   108059382.989    20563014.016    84202165.2734   20563013.781  
                
  24416406.461   128309076.537    24416414.617    99981136.2954   24416414.613  
                
  24158630.711   126954494.922    24158637.445    98925617.1034                 
                
  24204388.070   127194914.404    24204397.602    99112968.0104   24204398.117  
                
  20635230.070   110500739.789                    85945046.123    20635232.762  
  20635229.535  
  22163317.656   116469024.101    22163323.957    90755120.1124                 
                
  24129379.430   126800743.414    24129388.621    98805813.9114   24129388.695  
                
  21730294.961   114193512.066    21730304.094    88982010.2584   21730304.273  
                
  22509340.984   120114165.002                    93422123.457    22509344.312  
  22509338.867  
  21042151.336   112166540.313                                                  
  21042150.500  
  22148780.180   118314816.317                    92022623.741    22148784.832  
  22148779.750  
  19141813.109   102323979.361                    79585318.957    19141818.102  
  19141812.496  
 21  8 14 18 36 10.0000000  0 15G 4G 9G14G 7G 5G16G 8R 8G20G27G30R 2
                                R10R12R 1
  23181006.578   121817035.026    23181015.023    94922416.5494   23181014.832  
                
  20791165.695   109258350.695    20791174.180    85136427.6364   20791173.965  
                
  24605006.195   129300173.636    24605013.695   100753421.9304   24605013.996  
                
  20562857.773   108058595.626    20562864.152    84201551.7484   20562863.938  
                
  24410575.625   128278435.251    24410583.773    99957259.9774   24410583.754  
                
  24165053.203   126988245.413    24165059.969    98951916.1844                 
                
  24199883.180   127171240.831    24199892.680    99094521.0794   24199893.148  
                
  20640623.250   110529620.024                    85967508.506    20640625.965  
  20640622.719  
  22160631.492   116454908.188    22160637.793    90744120.7024                 
                
  24127056.000   126788533.808    24127065.129    98796299.9574   24127065.207  
                
  21726439.742   114173252.843    21726448.871    88966223.8534   21726449.051  
                
  22501977.500   120074872.141                    93391562.349    22501980.812  
  22501975.398  
  21048305.250   112199344.036                                                  
  21048304.426  
  22141830.984   118277695.066                    91993751.682    22141835.645  
  22141830.566  
  19141031.273   102319800.051                    79582068.390    19141036.270  
  19141030.633  
 21  8 14 18 36 20.0000000  0 15G 4G 9G14G 7G 5G16G 8R 8G20G27G30R 2
                                R10R12R 1
  23186457.703   121845680.772    23186466.125    94944737.9084   23186465.930  
                
  20793846.039   109272436.015    20793854.555    85147403.2054   20793854.332  
                
  24597724.938   129261910.990    24597732.590   100723606.9744   24597732.828  
                
  20562714.344   108057841.890    20562720.691    84200964.4294   20562720.508  
                
  24404751.547   128247829.392    24404759.688    99933411.2604   24404759.656  
                
  24171482.234   127022030.141    24171489.059    98978241.9534                 
                
  24195384.570   127147600.222    24195393.961    99076099.8364   24195394.441  
                
  20646026.953   110558556.478                    85990014.627    20646029.645  
  20646026.445  
  22157957.211   116440854.728    22157963.531    90733169.9504                 
                
  24124743.531   126776381.597    24124752.621    98786830.7104   24124752.695  
                
  21722590.406   114153024.467    21722599.527    88950461.4874   21722599.723  
                
  22494616.797   120035594.030                    93361012.717    22494620.090  
  22494614.672  
  21054465.773   112232183.075                                                  
  21054464.961  
  22134888.516   118240609.521                    91964907.388    22134893.141  
  22134888.117  
  19140263.594   102315696.383                    79578876.656    19140268.613  
  19140262.930  
 21  8 14 18 36 30.0000000  0 15G 4G 9G14G 7G 5G16G 8R 8G20G27G30R 2
                                R10R12R 1
  23191913.195   121874349.349    23191921.570    94967077.0864   23191921.391  
                
  20796534.500   109286563.992    20796543.047    85158412.0104   20796542.816  
                
  24590444.547   129223652.726    24590452.289   100693795.4154   24590452.480  
                
  20562577.250   108057121.470    20562583.566    84200403.0714   20562583.398  
                
  24398934.133   128217258.527    24398942.258    99909589.8164   24398942.250  
                
  24177917.695   127055848.714    24177924.586    99004594.0724                 
                
  24190892.180   127123992.404    24190901.418    99057704.1364   24190901.941  
