     2.11           OBSERVATION DATA    M (MIXED)           RINEX VERSION / TYPE
EFT-CORS.RU                             20210817 150634 UTC PGM / RUN BY / DATE 
MDNG                                                        MARKER NAME         
                                                            MARKER NUMBER       
MDNG                EFT-CORS.RU                             OBSERVER / AGENCY   
0                   TRIMBLE BD970       2.0                 REC # / TYPE / VERS 
0                   UNKNOWN EXT NONE                        ANT # / TYPE        
  3463911.2830  3030468.2400  4402179.3760                  APPROX POSITION XYZ 
        0.0000        0.0000        0.0000                  ANTENNA: DELTA H/E/N
     1     1                                                WAVELENGTH FACT L1/2
     6    C1    L1    P2    L2    C2    P1                  # / TYPES OF OBSERV 
    10.000                                                  INTERVAL            
  2021     8    14    13    30    0.0000000     GPS         TIME OF FIRST OBS   
  2021     8    14    14    30    0.0000000     GPS         TIME OF LAST OBS    
     0                                                      RCV CLOCK OFFS APPL 
                                                            END OF HEADER       
 21  8 14 13 30  0.0000000  0 16G 4G17R 7R22G21G 1R15G22G32R16G 3R 6
                                R21G19R 5G31
  22980347.633   120762556.621    22980356.430    94100743.3754   22980356.285  
                
  23862306.930   125397282.665    23862314.723    97712199.9404   23862314.352  
                
  20977197.305   112292605.992                    87338702.021    20977202.410  
  20977195.801  
  20402800.781   108911528.193                    84708998.984    20402803.398  
  20402798.977  
  21360738.711   112251439.453    21360745.117    87468709.1434                 
                
  20223887.758   106277276.316    20223897.414    82813507.7324   20223897.152  
                
  22320594.367   119274515.328                    92769067.908    22320599.109  
  22320594.340  
  20654520.922   108540268.813    20654524.891    84576868.5964                 
                
  23685661.250   124469027.106    23685670.891    96988904.4934   23685671.305  
                
  22265614.039   118938920.941                    92508077.209    22265616.867  
  22265613.344  
  21066065.680   110702954.062    21066074.469    86262091.6954   21066074.898  
                
  19618006.180   104685460.271                                                  
  19618003.859  
  20576586.891   110109485.897                    85640706.476    20576590.824  
  20576585.207  
  24401835.328   128232512.148    24401841.379    99921463.5024                 
                
  23173368.953   123874947.632                    96347193.075    23173374.531  
  23173368.844  
  21340068.453   112142845.870    21340075.277    87384087.4284   21340075.340  
                
 21  8 14 13 30 10.0000000  0 16G 4G17R 7R22G21G 1R15G22G32R16G 3R 6
                                R21G19R 5G31
  22974665.898   120732698.883    22974674.668    94077477.6194   22974674.543  
                
  23861982.961   125395580.137    23861990.719    97710873.2824   23861990.363  
                
  20973350.484   112272013.704                    87322685.802    20973355.594  
  20973349.000  
  20401136.695   108902645.183                    84702089.976    20401139.332  
  20401134.902  
  21363650.094   112266738.792    21363656.484    87480630.7044                 
                
  20225109.031   106283694.110    20225118.672    82818508.6074   20225118.418  
                
  22321062.148   119277014.972                    92771012.071    22321066.910  
  22321062.129  
  20653439.914   108534588.024    20653443.871    84572442.0064                 
                
  23691576.055   124500109.676    23691585.734    97013124.6724   23691586.164  
                
  22259631.539   118906963.512                    92483221.453    22259634.359  
  22259630.840  
  21062790.023   110685740.363    21062798.809    86248678.4254   21062799.246  
                
  19619462.391   104693230.938                                                  
  19619460.074  
  20582219.164   110139625.210                    85664148.157    20582223.102  
  20582217.465  
  24398833.945   128216739.629    24398839.992    99909173.2414                 
                
  23179298.164   123906642.521                    96371844.642    23179303.703  
  23179298.082  
  21338799.172   112136175.759    21338805.969    87378889.9384   21338806.051  
                
 21  8 14 13 30 20.0000000  0 16G 4G17R 7R22G21G 1R15G22G32R16G 3R 6
                                R21G19R 5G31
  22968989.172   120702867.538    22968997.961    94054232.4364   22968997.836  
                
  23861670.109   125393936.051    23861677.770    97709592.1624   23861677.465  
                
  20969509.352   112251451.780                    87306693.201    20969514.449  
  20969507.887  
  20399489.898   108893854.471                    84695252.751    20399492.535  
  20399488.094  
  21366570.484   112282085.545    21366576.879    87492589.2074                 
                
  20226342.945   106290178.398    20226352.570    82823561.2984   20226352.328  
                
  22321546.078   119279600.943                    92773023.357    22321550.859  
  22321546.090  
  20652365.430   108528941.555    20652369.383    84568042.1634                 
                
  23697492.648   124531201.587    23697502.355    97037352.1064   23697502.793  
                
  22253657.969   118875054.296                    92458403.197    22253660.887  
  22253657.293  
  21059519.766   110668555.038    21059528.555    86235287.2674   21059528.984  
                
  19620925.336   104701037.528                                                  
  19620923.020  
  20587864.359   110169833.684                    85687643.618    20587868.305  
  20587862.672  
  24395844.312   128201029.021    24395850.398    99896931.2164                 
                
  23185227.570   123938338.298                    96396496.920    23185233.062  
  23185227.496  
  21337543.320   112129576.262    21337550.082    87373747.4684   21337550.180  
                
 21  8 14 13 30 30.0000000  0 16G 4G17R 7R22G21G 1R15G22G32R16G 3R 6
                                R21G19R 5G31
  22963317.516   120673062.895    22963326.320    94031008.0564   22963326.207  
                
  23861368.422   125392350.596    23861375.902    97708356.7504   23861375.773  
                
  20965673.906   112230920.235                    87290724.215    20965678.992  
  20965672.457  
  20397860.406   108885156.123                    84688487.369    20397863.047  
  20397858.605  
  21369499.977   112297480.091    21369506.383    87504584.9424                 
                
  20227589.570   106296729.442    20227599.184    82828666.0054   20227598.953  
                
  22322046.195   119282273.364                    92775101.944    22322050.992  
  22322046.258  
  20651297.539   108523329.723    20651301.484    84563669.3074                 
                
  23703411.055   124562303.040    23703420.809    97061586.9914   23703421.234  
                
  22247693.578   118843193.884                    92433622.872    22247696.504  
  22247692.918  
  21056254.977   110651398.453    21056263.785    86221918.4984   21056264.211  
                
  19622395.000   104708879.911                                                  
  19622392.688  
  20593522.516   110200111.605                    85711193.114    20593526.484  
  20593520.832  
  24392866.547   128185380.752    24392872.711    99884737.7854                 
                
  23191157.195   123970035.327                    96421150.176    23191162.652  
  23191157.141  
  21336300.984   112123047.749    21336307.734    87368660.3244   21336307.836  
                
 21  8 14 13 30 40.0000000  0 16G 4G17R 7R22G21G 1R15G22G32R16G 3R 6
                                R21G19R 5G31
  22957650.945   120643284.946    22957659.758    94007804.4604   22957659.652  
                
  23861077.859   125390823.651    23861085.176    97707166.9124   23861085.203  
                
  20961844.125   112210419.167                    87274778.971    20961849.223  
  20961842.691  
  20396248.227   108876550.200                    84681793.885    20396250.855  
  20396246.426  
  21372438.523   112312922.238    21372444.938    87516617.7714                 
                
  20228848.875   106303347.189    20228858.488    82833822.6824   20228858.258  
                
  22322562.531   119285032.505                    92777247.912    22322567.336  
  22322562.602  
  20650236.227   108517752.492    20650240.172    84559323.4124                 
                
  23709331.250   124593413.904    23709341.098    97085829.2194   23709341.496  
                
  22241738.352   118811382.197                    92408880.472    22241741.281  
  22241737.645  
  21052995.641   110634270.516    21053004.477    86208572.0574   21053004.887  
                
  19623871.406   104716758.270                                                  
  19623869.098  
  20599193.602   110230458.705                    85734796.398    20599197.586  
  20599191.918  
  24389900.609   128169794.780    24389906.848    99872592.8894                 
                
  23197087.023   124001733.502                    96445804.314    23197092.441  
  23197086.977  
  21335072.141   112116590.139    21335078.875    87363628.4234   21335078.973  
                
 21  8 14 13 30 50.0000000  0 16G 4G17R 7R22G21G 1R15G22G32R16G 3R 6
                                R21G19R 5G31
  22951989.359   120613533.221    22951998.188    93984621.3164   22951998.074  
                
  23860798.438   125389354.794    23860805.586    97706022.3364   23860805.695  
                
  20958019.914   112189947.939                    87258856.910    20958025.016  
  20958018.465  
  20394653.297   108868036.333                    84675171.979    20394655.891  
  20394651.539  
  21375386.016   112328411.421    21375392.445    87528687.2664                 
                
  20230120.789   106310031.109    20230130.406    82839030.9224   20230130.164  
                
  22323094.969   119287877.658                    92779460.811    22323099.805  
  22323095.012  
  20649181.406   108512209.345    20649185.355    84555004.0714                 
                
  23715253.148   124624533.645    23715263.086    97110078.3434   23715263.441  
                
  22235792.172   118779619.071                    92384175.837    22235795.168  
  22235791.453  
  21049741.672   110617170.839    21049750.535    86195247.6354   21049750.934  
                
  19625354.477   104724672.182                                                  
  19625352.172  
  20604877.477   110260874.247                    85758452.917    20604881.473  
  20604875.809  
  24386946.453   128154270.699    24386952.723    99860496.1864                 
                
  23203016.945   124033432.314                    96470458.923    23203022.367  
  23203016.863  
  21333856.719   112110203.059    21333863.410    87358651.4814   21333863.512  
                
 21  8 14 13 31  0.0000000  0 16G 4G17R 7R22G21G 1R15G22G32R16G 3R 6
                                R21G19R 5G31
  22946332.852   120583808.141    22946341.664    93961458.9374   22946341.559  
                
  23860530.133   125387944.449    23860537.227    97704923.3774   23860537.289  
                
  20954201.398   112169507.149                    87242958.514    20954206.504  
  20954199.941  
  20393075.680   108859614.895                    84668621.975    20393078.293  
  20393073.949  
  21378342.555   112343948.088    21378348.988    87540793.7464                 
                
  20231405.359   106316781.594    20231414.984    82844291.0384   20231414.742  
                
  22323643.570   119290809.232                    92781740.947    22323648.426  
  22323643.621  
  20648133.141   108506700.705    20648137.098    84550711.6274                 
                
  23721176.812   124655662.566    23721186.781    97134334.6264   23721187.113  
                
  22229855.148   118747904.736                    92359509.154    22229858.211  
  22229854.453  
  21046493.156   110600099.778    21046502.051    86181945.5104   21046502.430  
                
  19626844.250   104732621.907                                                  
  19626841.945  
  20610574.211   110291358.620                    85782162.974    20610578.223  
  20610572.527  
  24384004.148   128138808.852    24384010.410    99848448.0124                 
                
  23208947.023   124065132.051                    96495114.265    23208952.441  
  23208946.902  
  21332654.789   112103886.901    21332661.414    87353729.7974   21332661.562  
                
 21  8 14 13 31 10.0000000  0 16G 4G17R 7R22G21G 1R15G22G32R16G 3R 6
                                R21G19R 5G31
  22940681.438   120554109.793    22940690.242    93938317.3784   22940690.148  
                
  23860272.906   125386592.497    23860279.992    97703869.9074   23860280.059  
                
  20950388.500   112149096.449                    87227083.526    20950393.609  
  20950387.055  
  20391515.398   108851285.996                    84662143.943    20391518.004  
  20391513.691  
  21381308.109   112359532.165    21381314.539    87552937.1824                 
                
  20232702.602   106323598.638    20232712.234    82849603.0174   20232711.977  
                
  22324208.352   119293827.271                    92784088.287    22324213.242  
  22324208.359  
  20647091.477   108501226.682    20647095.445    84546446.1534                 
                
  23727102.219   124686800.675    23727112.215    97158598.0814   23727112.535  
                
  22223927.336   118716239.644                    92334880.783    22223930.457  
  22223926.660  
  21043250.102   110583057.430    21043259.027    86168665.7654   21043259.395  
                
  19628340.711   104740607.292                                                  
  19628338.402  
  20616283.781   110321911.632                    85805926.414    20616287.820  
  20616282.082  
  24381073.758   128123409.492    24381079.980    99836448.5164                 
                
  23214877.250   124096832.770                    96519770.331    23214882.742  
  23214877.082  
  21331466.367   112097641.723    21331472.941    87348863.4224   21331473.133  
                
 21  8 14 13 31 20.0000000  0 16G 4G17R 7R22G21G 1R15G22G32R16G 3R 6
                                R21G19R 5G31
  22935035.109   120524438.108    22935043.883    93915196.6004   22935043.816  
                
  23860026.773   125385298.858    23860033.891    97702861.8604   23860033.922  
                
  20946581.242   112128715.996                    87211232.077    20946586.363  
  20946579.789  
  20389972.430   108843049.503                    84655737.786    20389975.004  
  20389970.707  
  21384282.648   112375163.444    21384289.070    87565117.3974                 
                
  20234012.484   106330482.149    20234022.129    82854966.7854   20234021.871  
                
  22324789.289   119296931.647                    92786502.794    22324794.207  
  22324789.273  
  20646056.375   108495787.160    20646060.355    84542207.5694                 
                
  23733029.312   124717947.786    23733039.375    97182868.5274   23733039.691  
                
  22218008.742   118684623.930                    92310290.819    22218011.895  
  22218008.070  
  21040012.492   110566043.716    21040021.453    86155408.3274   21040021.801  
                
  19629843.883   104748628.520                                                  
  19629841.578  
  20622006.125   110352533.077                    85829743.072    20622010.172  
  20622004.402  
  24378155.234   128108072.568    24378161.441    99824497.6944                 
                
  23220807.656   124128534.335                    96544427.063    23220813.238  
  23220807.426  
  21330291.430   112091467.409    21330297.973    87344052.2784   21330298.176  
                
 21  8 14 13 31 30.0000000  0 16G 4G17R 7R22G21G 1R15G22G32R16G 3R 6
                                R21G19R 5G31
  22929393.852   120494793.036    22929402.574    93892096.5514   22929402.508  
                
  23859791.742   125384063.451    23859798.848    97701899.1874   23859798.848  
                
  20942779.633   112108365.741                    87195404.118    20942784.766  
  20942778.168  
  20388446.781   108834905.500                    84649403.554    20388449.324  
  20388445.062  
  21387266.148   112390841.831    21387272.551    87577334.3074                 
                
  20235335.000   106337432.023    20235344.652    82860382.2674   20235344.395  
                
  22325386.375   119300122.332                    92788984.447    22325391.316  
  22325386.332  
  20645027.820   108490382.065    20645031.816    84537995.8054                 
                
  23738958.148   124749103.805    23738968.277    97207145.9204   23738968.547  
                
  22212099.398   118653057.619                    92285739.238    22212102.574  
  22212098.723  
  21036780.328   110549058.612    21036789.320    86142173.1884   21036789.652  
                
  19631353.672   104756685.020                                                  
  19631351.359  
  20627741.203   110383222.626                    85853612.714    20627745.262  
  20627739.473  
  24375248.562   128092797.923    24375254.738    99812595.3704                 
                
  23226738.203   124160236.600                    96569084.359    23226743.812  
  23226737.969  
  21329129.977   112085363.951    21329136.473    87339296.3374   21329136.691  
                
 21  8 14 13 31 40.0000000  0 16G 4G17R 7R22G21G 1R15G22G32R16G 3R 6
                                R21G19R 5G31
  22923757.758   120465174.975    22923766.426    93869017.5464   22923766.359  
                
  23859567.836   125382886.538    23859574.910    97700982.0864   23859574.922  
                
  20938983.703   112088045.912                    87179599.814    20938988.855  
  20938982.219  
  20386938.500   108826854.181                    84643141.420    20386941.016  
  20386936.770  
  21390258.688   112406567.696    21390265.062    87589588.2234                 
                
  20236670.211   106344448.606    20236679.867    82865849.7234   20236679.613  
                
  22325999.672   119303399.670                    92791533.512    22326004.645  
  22325999.613  
  20644005.898   108485011.815    20644009.914    84533811.1914                 
                
  23744888.711   124780268.940    23744898.875    97231430.4224   23744899.098  
                
  22206199.453   118621541.167                    92261226.451    22206202.535  
  22206198.777  
  21033553.688   110532102.493    21033562.691    86128960.6214   21033563.012  
                
  19632870.203   104764777.480                                                  
  19632867.898  
  20633489.062   110413980.532                    85877535.507    20633493.125  
  20633487.352  
  24372353.820   128077585.983    24372359.941    99800741.9154                 
                
  23232668.945   124191939.903                    96593742.444    23232674.578  
  23232668.695  
  21327982.078   112079331.672    21327988.547    87334595.8664   21327988.793  
                
 21  8 14 13 31 50.0000000  0 16G 4G17R 7R22G21G 1R15G22G32R16G 3R 6
                                R21G19R 5G31
  22918126.734   120435583.658    22918135.344    93845959.3844   22918135.270  
                
  23859354.984   125381767.853    23859362.094    97700110.3864   23859362.055  
                
  20935193.438   112067756.419                    87163819.109    20935198.613  
  20935191.949  
  20385447.602   108818895.673                    84636951.470    20385450.117  
  20385445.879  
  21393260.211   112422340.767    21393266.586    87601878.9254                 
                
  20238018.062   106351531.591    20238027.730    82871368.9324   20238027.469  
                
  22326629.109   119306763.285                    92794149.649    22326634.102  
  22326628.996  
  20642990.555   108479676.137    20642994.586    84529653.5144                 
                
  23750820.945   124811442.907    23750831.070    97255721.8094   23750831.289  
                
  22200308.820   118590074.523                    92236752.404    22200311.812  
  22200308.145  
  21030332.516   110515175.145    21030341.523    86115770.4844   21030341.840  
                
  19634393.312   104772905.107                                                  
  19634391.012  
  20639249.633   110444806.435                    85901511.205    20639253.680  
  20639247.922  
  24369470.961   128062436.515    24369477.012    99788937.1424                 
                
  23238599.844   124223643.901                    96618401.096    23238605.465  
  23238599.578  
  21326847.672   112073370.342    21326854.125    87329950.6754   21326854.375  
                
 21  8 14 13 32  0.0000000  0 16G 4G17R 7R22G21G 1R15G22G32R16G 3R 6
                                R21G19R 5G31
  22912500.836   120406019.263    22912509.363    93822922.1994   22912509.297  
                
  23859153.211   125380707.653    23859160.465    97699284.2584   23859160.340  
                
  20931408.844   112047497.249                    87148061.979    20931414.020  
  20931407.344  
  20383974.070   108811029.818                    84630833.570    20383976.562  
  20383972.352  
  21396270.734   112438161.157    21396277.121    87614206.4944                 
                
  20239378.562   106358681.098    20239388.246    82876939.9744   20239387.984  
                
  22327274.750   119310213.493                    92796833.150    22327279.793  
  22327274.605  
  20641981.820   108474375.160    20641985.863    84525522.8834                 
                
  23756754.883   124842625.733    23756764.980    97280020.1044   23756765.211  
                
  22194427.539   118558657.929                    92212317.269    22194430.477  
  22194426.879  
  21027116.844   110498276.695    21027125.855    86102602.8574   21027126.160  
                
  19635923.125   104781068.462                                                  
  19635920.840  
  20645022.859   110475700.147                    85925539.654    20645026.895  
  20645021.168  
  24366600.023   128047349.734    24366606.016    99777181.1914                 
                
  23244530.969   124255348.884                    96643060.522    23244536.535  
  23244530.723  
  21325726.812   112067480.162    21325733.242    87325360.9274   21325733.488  
                
 21  8 14 13 32 10.0000000  0 16G 4G17R 7R22G21G 1R15G22G32R16G 3R 6
                                R21G19R 5G31
  22906880.031   120376481.711    22906888.508    93799905.9294   22906888.445  
                
  23858962.531   125379705.730    23858969.941    97698503.5314   23858969.723  
                
  20927629.891   112027268.200                    87132328.263    20927635.066  
  20927628.391  
  20382517.867   108803256.556                    84624787.698    20382520.348  
  20382516.160  
  21399290.219   112454028.647    21399296.617    87626570.7594                 
                
  20240751.703   106365897.005    20240761.395    82882562.7464   20240761.133  
                
  22327936.516   119313749.821                    92799583.622    22327941.574  
  22327936.328  
  20640979.664   108469108.809    20640983.711    84521419.2344                 
                
  23762690.469   124873817.291    23762700.570    97304325.1914   23762700.801  
                
  22188555.664   118527291.533                    92187921.201    22188558.570  
  22188554.980  
  21023906.656   110481407.075    21023915.668    86089457.6994   21023915.965  
                
  19637459.609   104789267.422                                                  
  19637457.332  
  20650808.742   110506661.530                    85949620.712    20650812.754  
  20650807.055  
  24363741.008   128032325.553    24363746.949    99765474.0224                 
                
  23250462.180   124287054.464                    96667720.418    23250467.738  
  23250461.988  
  21324619.453   112061660.970    21324625.855    87320826.4954   21324626.113  
                
 21  8 14 13 32 20.0000000  0 16G 4G17R 7R22G21G 1R15G22G32R16G 3R 6
                                R21G19R 5G31
  22901264.375   120346971.198    22901272.809    93776910.7324   22901272.766  
                
  23858782.953   125378762.109    23858790.438    97697768.2414   23858790.188  
                
  20923856.617   112007069.566                    87116618.220    20923861.770  
  20923855.145  
  20381079.086   108795576.231                    84618814.110    20381081.547  
  20381077.387  
  21402318.688   112469943.329    21402325.098    87638971.8094                 
                
  20242137.500   106373179.430    20242147.207    82888237.3614   20242146.941  
                
  22328614.523   119317372.893                    92802401.557    22328619.586  
  22328614.305  
  20639984.148   108463877.311    20639988.199    84517342.7374                 
                
  23768627.742   124905017.654    23768637.824    97328637.1554   23768638.055  
                
  22182693.273   118495975.378                    92163564.192    22182696.062  
  22182692.559  
  21020701.992   110464566.490    21020710.992    86076335.1704   21020711.305  
                
  19639002.688   104797501.567                                                  
  19639000.410  
  20656607.297   110537690.704                    85973754.503    20656611.297  
  20656605.605  
  24360893.945   128017364.127    24360899.895    99753815.7884                 
                
  23256393.555   124318760.843                    96692380.939    23256399.098  
  23256393.395  
  21323525.641   112055912.987    21323532.031    87316347.5634   21323532.305  
                
 21  8 14 13 32 30.0000000  0 16G 4G17R 7R22G21G 1R15G22G32R16G 3R 6
                                R21G19R 5G31
  22895653.805   120317487.493    22895662.211    93753936.4404   22895662.180  
                
  23858614.422   125377876.628    23858621.930    97697078.2694   23858621.664  
                
  20920088.984   111986901.132                    87100931.667    20920094.117  
  20920087.535  
  20379657.664   108787988.582                    84612912.599    20379660.086  
  20379655.953  
  21405356.086   112485904.949    21405362.516    87651409.4274                 
                
  20243535.914   106380528.114    20243545.637    82893963.6024   20243545.367  
                
  22329308.609   119321081.970                    92805286.412    22329313.680  
  22329308.398  
  20638995.219   108458680.414    20638999.262    84513293.2064                 
                
  23774566.633   124936226.488    23774576.688    97352955.7154   23774576.922  
                
  22176840.234   118464709.647                    92139246.424    22176843.043  
  22176839.516  
  21017502.812   110447754.695    21017511.797    86063235.0764   21017512.113  
                
  19640552.391   104805771.113                                                  
  19640550.117  
  20662418.406   110568787.094                    85997940.570    20662422.398  
  20662416.719  
  24358058.812   128002465.367    24358064.801    99742206.3764                 
                
  23262325.016   124350467.857                    96717041.936    23262330.578  
  23262324.883  
  21322445.344   112050235.997    21322451.727    87311923.9394   21322452.012  
                
 21  8 14 13 32 40.0000000  0 16G 4G17R 7R22G21G 1R15G22G32R16G 3R 6
                                R21G19R 5G31
  22890048.383   120288030.934    22890056.762    93730983.2854   22890056.742  
                
  23858457.031   125377049.602    23858464.551    97696433.8374   23858464.266  
                
  20916327.031   111966763.116                    87085268.780    20916332.164  
  20916325.562  
  20378253.672   108780493.999                    84607083.476    20378256.113  
  20378251.969  
  21408402.469   112501913.733    21408408.914    87663883.7914                 
                
  20244946.984   106387943.351    20244956.719    82899741.7044   20244956.441  
                
  22330018.914   119324877.656                    92808238.597    22330023.992  
  22330018.715  
  20638012.914   108453518.359    20638016.945    84509270.8244                 
                
  23780507.188   124967444.069    23780517.230    97377281.0874   23780517.453  
                
  22170996.750   118433494.856                    92114968.270    22170999.547  
  22170995.988  
  21014309.180   110430972.039    21014318.152    86050157.6904   21014318.469  
                
  19642108.719   104814075.977                                                  
  19642106.441  
  20668242.141   110599950.961                    86022179.118    20668246.137  
  20668240.453  
  24355235.656   127987629.568    24355241.746    99730646.0324                 
                
  23268256.633   124382175.675                    96741703.561    23268262.219  
  23268256.488  
  21321378.602   112044630.247    21321384.988    87307555.8384   21321385.277  
                
 21  8 14 13 32 50.0000000  0 16G 4G17R 7R22G21G 1R15G22G32R16G 3R 6
                                R21G19R 5G31
  22884448.109   120258601.439    22884456.488    93708051.2334   22884456.461  
                
  23858310.742   125376280.869    23858318.250    97695834.8154   23858317.973  
                
  20912570.711   111946655.299                    87069629.383    20912575.832  
  20912569.230  
  20376867.102   108773092.352                    84601326.640    20376869.512  
  20376865.402  
  21411457.781   112517969.522    21411464.250    87676394.7844                 
                
  20246370.688   106395424.975    20246380.434    82905571.5414   20246380.152  
                
  22330745.359   119328759.662                    92811257.928    22330750.453  
  22330745.168  
  20637037.242   108448391.151    20637041.266    84505275.5924                 
                
  23786449.367   124998670.230    23786459.410    97401613.1474   23786459.621  
                
  22165162.703   118402330.882                    92090729.661    22165165.562  
  22165161.973  
  21011121.070   110414218.450    21011130.039    86037102.9524   21011130.352  
                
  19643671.688   104822416.236                                                  
  19643669.398  
  20674078.406   110631181.953                    86046469.882    20674082.418  
  20674076.727  
  24352424.469   127972856.695    24352430.613    99719134.7034                 
                
  23274188.320   124413884.121                    96766365.626    23274193.969  
  23274188.105  
  21320325.406   112039095.695    21320331.809    87303243.2034   21320332.094  
                
 21  8 14 13 33  0.0000000  0 16G 4G17R 7R22G21G 1R15G22G32R16G 3R 6
                                R21G19R 5G31
  22878853.000   120229199.050    22878861.371    93685140.2914   22878861.359  
                
  23858175.562   125375570.394    23858183.047    97695281.1934   23858182.785  
                
  20908820.055   111926577.784                    87054013.546    20908825.172  
  20908818.586  
  20375497.977   108765783.829                    84595642.220    20375500.359  
  20375496.266  
  21414522.039   112534072.276    21414528.535    87688942.3744                 
                
  20247807.031   106402973.011    20247816.797    82911453.1284   20247816.520  
                
  22331488.000   119332728.119                    92814344.506    22331493.105  
  22331487.828  
  20636068.195   108443298.774    20636072.211    84501307.5094                 
                
  23792393.141   125029904.871    23792403.203    97425951.8134   23792403.395  
                
  22159338.219   118371217.774                    92066530.592    22159341.125  
  22159337.500  
  21007938.500   110397493.951    21007947.465    86024070.8834   21007947.777  
                
  19645241.273   104830791.858                                                  
  19645239.008  
  20679927.172   110662479.885                    86070812.711    20679931.188  
  20679925.484  
  24349625.250   127958146.765    24349631.359    99707672.3974                 
                
  23280120.172   124445593.355                    96791028.295    23280125.844  
  23280119.898  
  21319285.773   112033632.368    21319292.199    87298986.0834   21319292.465  
                
 21  8 14 13 33 10.0000000  0 16G 4G17R 7R22G21G 1R15G22G32R16G 3R 6
                                R21G19R 5G31
  22873263.055   120199823.800    22873271.406    93662250.4884   22873271.414  
                
  23858051.469   125374918.240    23858058.973    97694773.0274   23858058.730  
                
  20905075.062   111906530.544                    87038421.253    20905080.180  
  20905073.605  
  20374146.289   108758568.382                    84590030.215    20374148.684  
  20374144.586  
  21417595.227   112550221.972    21417601.742    87701526.5444                 
                
  20249256.000   106410587.421    20249265.785    82917386.4254   20249265.508  
                
  22332246.797   119336782.892                    92817498.224    22332251.887  
  22332246.652  
  20635105.789   108438241.251    20635109.797    84497366.5804                 
                
  23798338.516   125061147.950    23798348.598    97450297.0484   23798348.793  
                
  22153523.375   118340156.026                    92042371.480    22153526.289  
  22153522.652  
  21004761.477   110380798.595    21004770.438    86011061.5124   21004770.758  
                
  19646817.453   104839202.610                                                  
  19646815.180  
  20685788.469   110693844.790                    86095207.621    20685792.465  
  20685786.766  
  24346838.008   127943499.791    24346844.059    99696259.1794                 
                
  23286052.125   124477303.030                    96815691.349    23286057.797  
  23286051.906  
  21318259.734   112028240.520    21318266.184    87294784.6444   21318266.441  
                
 21  8 14 13 33 20.0000000  0 16G 4G17R 7R22G21G 1R15G22G32R16G 3R 6
                                R21G19R 5G31
  22867678.258   120170475.610    22867686.590    93639381.7964   22867686.602  
                
  23857938.430   125374324.178    23857945.918    97694310.1114   23857945.703  
                
  20901335.719   111886513.627                    87022852.546    20901340.812  
  20901334.254  
  20372812.000   108751445.839                    84584490.448    20372814.406  
  20372810.301  
  21420677.320   112566418.463    21420683.832    87714147.1794                 
                
  20250717.578   106418268.070    20250727.387    82923371.3424   20250727.094  
                
  22333021.766   119340924.052                    92820719.114    22333026.824  
  22333021.668  
  20634149.992   108433218.515    20634153.992    84493452.7574                 
                
  23804285.461   125092399.321    23804295.562    97474648.7454   23804295.734  
                
  22147718.109   118309145.448                    92018252.151    22147721.004  
  22147717.340  
  21001589.977   110364132.276    21001598.938    85998074.7814   21001599.258  
                
  19648400.242   104847648.605                                                  
  19648397.953  
  20691662.211   110725276.298                    86119654.337    20691666.203  
  20691660.492  
  24344062.758   127928915.736    24344068.711    99684894.9964                 
                
  23291984.227   124509013.236                    96840354.833    23291989.867  
  23291984.004  
  21317247.219   112022919.729    21317253.691    87290638.5884   21317253.926  
                
 21  8 14 13 33 30.0000000  0 16G 4G17R 7R22G21G 1R15G22G32R16G 3R 6
                                R21G19R 5G31
  22862098.688   120141154.784    22862107.023    93616534.4044   22862107.027  
                
  23857836.484   125373788.450    23857843.930    97693892.6524   23857843.781  
                
  20897602.047   111866526.981                    87007307.389    20897607.129  
  20897600.570  
  20371495.211   108744416.691                    84579023.329    20371497.633  
  20371493.512  
  21423768.367   112582661.971    21423774.875    87726804.4554                 
                
  20252191.812   106426015.209    20252201.641    82929408.0704   20252201.328  
                
  22333812.883   119345151.563                    92824007.183    22333817.906  
  22333812.801  
  20633200.883   108428230.861    20633204.883    84489566.2724                 
                
  23810234.023   125123659.127    23810244.125    97499007.0344   23810244.305  
                
  22141922.500   118278186.471                    91994172.966    22141925.355  
  22141921.688  
  20998424.070   110347495.313    20998433.023    85985110.9164   20998433.344  
                
  19649989.656   104856130.032                                                  
  19649987.355  
  20697548.383   110756774.316                    86144152.785    20697552.375  
  20697546.664  
  24341299.547   127914394.898    24341305.387    99673580.0744                 
                
  23297916.414   124540724.112                    96865018.844    23297922.059  
  23297916.227  
  21316248.289   112017670.309    21316254.773    87286548.1324   21316254.992  
                
 21  8 14 13 33 40.0000000  0 16G 4G17R 7R22G21G 1R15G22G32R16G 3R 6
                                R21G19R 5G31
  22856524.281   120111861.132    22856532.605    93593708.1984   22856532.598  
                
  23857745.609   125373310.962    23857752.996    97693520.5664   23857752.934  
                
  20893874.016   111846570.622                    86991785.783    20893879.094  
  20893872.535  
  20370195.836   108737480.513                    84573628.529    20370198.305  
  20370194.129  
  21426868.320   112598952.305    21426874.797    87739498.2084                 
                
  20253678.656   106433828.611    20253688.500    82935496.4324   20253688.191  
                
  22334620.164   119349465.427                    92827362.394    22334625.156  
  22334620.125  
  20632258.406   108423278.111    20632262.406    84485706.9854                 
                
  23816184.141   125154927.157    23816194.219    97523371.7094   23816194.402  
                
  22136136.508   118247278.944                    91970133.758    22136139.281  
  22136135.703  
  20995263.703   110330887.497    20995272.660    85972169.7704   20995272.980  
                
  19651585.602   104864646.298                                                  
  19651583.309  
  20703446.953   110788338.762                    86168702.901    20703450.945  
  20703445.234  
  24338548.352   127899937.170    24338554.133    99662314.3394                 
                
  23303848.695   124572435.362                    96889683.138    23303854.285  
  23303848.512  
  21315262.906   112012492.131    21315269.414    87282513.1934   21315269.617  
                
 21  8 14 13 33 50.0000000  0 16G 4G17R 7R22G21G 1R15G22G32R16G 3R 6
                                R21G19R 5G31
  22850955.039   120082594.687    22850963.328    93570903.1844   22850963.328  
                
  23857665.781   125372891.601    23857673.133    97693193.7844   23857673.137  
                
  20890151.617   111826644.408                    86976287.623    20890156.688  
  20890150.121  
  20368913.883   108730637.391                    84568306.110    20368916.395  
  20368912.164  
  21429977.180   112615289.459    21429983.625    87752228.4524                 
                
  20255178.094   106441708.238    20255187.949    82941636.3974   20255187.633  
                
  22335443.586   119353865.533                    92830784.697    22335448.547  
  22335443.547  
  20631322.555   108418360.190    20631326.562    84481874.8364                 
                
  23822135.797   125186203.312    23822145.859    97547742.7144   23822146.039  
                
  22130360.195   118216423.321                    91946134.970    22130362.961  
  22130359.414  
  20992108.898   110314308.879    20992117.840    85959251.3714   20992118.168  
                
  19653188.117   104873197.643                                                  
  19653185.828  
  20709357.914   110819969.443                    86193304.532    20709361.926  
  20709356.203  
  24335809.156   127885542.569    24335814.953    99651097.7824                 
                
  23309781.062   124604147.184                    96914347.895    23309786.660  
  23309780.910  
  21314291.094   112007385.216    21314297.629    87278533.7814   21314297.812  
                
 21  8 14 13 34  0.0000000  0 16G 4G17R 7R22G21G 1R15G22G32R16G 3R 6
                                R21G19R 5G31
  22845391.039   120053355.684    22845399.301    93548119.5524   22845399.301  
                
  23857597.047   125372530.490    23857604.375    97692912.3984   23857604.441  
                
  20886434.938   111806748.694                    86960813.170    20886439.984  
  20886433.434  
  20367649.445   108723887.712                    84563056.361    20367651.949  
  20367647.715  
  21433094.953   112631673.401    21433101.375    87764995.1584                 
                
  20256690.180   106449654.268    20256700.047    82947828.1054   20256699.730  
                
  22336283.180   119358352.027                    92834274.187    22336288.129  
  22336283.168  
  20630393.391   108413477.368    20630397.406    84478070.0434                 
                
  23828089.039   125217487.706    23828099.051    97572120.1614   23828099.234  
                
  22124593.625   118185619.678                    91922176.591    22124596.406  
  22124592.840  
  20988959.695   110297759.718    20988968.625    85946355.9204   20988968.953  
                
  19654797.227   104881784.122                                                  
  19654794.930  
  20715281.242   110851666.276                    86217957.615    20715285.266  
  20715279.527  
  24333082.008   127871211.351    24333087.871    99639930.6134                 
                
  23315713.523   124635859.601                    96939013.080    23315719.148  
  23315713.312  
  21313332.891   112002349.837    21313339.453    87274610.1134   21313339.617  
                
 21  8 14 13 34 10.0000000  0 16G 4G17R 7R22G21G 1R15G22G32R16G 3R 6
                                R21G19R 5G31
  22839832.242   120024144.081    22839840.496    93525357.2824   22839840.504  
                
  23857539.359   125372227.482    23857546.691    97692676.2814   23857546.785  
                
  20882723.914   111786883.314                    86945362.342    20882728.961  
  20882722.406  
  20366402.516   108717231.486                    84557879.295    20366405.008  
  20366400.789  
  21436221.602   112648104.042    21436227.992    87777798.2474                 
                
  20258214.875   106457666.608    20258224.758    82954071.4904   20258224.441  
                
  22337138.953   119362924.942                    92837830.914    22337143.910  
  22337138.977  
  20629470.883   108408629.577    20629474.910    84474292.5424                 
                
  23834043.828   125248780.232    23834053.766    97596503.9494   23834053.969  
                
  22118836.859   118154868.323                    91898258.871    22118839.613  
  22118836.035  
  20985816.086   110281239.942    20985825.008    85933483.3714   20985825.348  
                
  19656412.945   104890405.911                                                  
  19656410.629  
  20721216.898   110883429.165                    86242662.089    20721220.938  
  20721215.172  
  24330366.906   127856943.487    24330372.828    99628812.7884                 
                
  23321646.086   124667572.548                    96963678.658    23321651.734  
  23321645.836  
  21312388.281   111997385.882    21312394.859    87270742.0944   21312395.012  
                
 21  8 14 13 34 20.0000000  0 16G 4G17R 7R22G21G 1R15G22G32R16G 3R 6
                                R21G19R 5G31
  22834278.742   119994960.277    22834286.973    93502616.6674   22834286.996  
                
  23857492.828   125371983.001    23857500.195    97692485.7564   23857500.270  
                
  20879018.633   111767048.655                    86929935.384    20879023.676  
  20879017.141  
  20365173.148   108710669.068                    84552775.198    20365175.676  
  20365171.430  
  21439357.211   112664581.741    21439363.566    87790638.0084                 
                
  20259752.258   106465745.605    20259762.152    82960366.8064   20259761.836  
                
  22338010.945   119367584.557                    92841455.050    22338015.855  
  22338010.977  
  20628555.117   108403817.157    20628559.160    84470542.6024                 
                
  23840000.219   125280081.184    23840010.070    97620894.2904   23840010.309  
                
  22113089.930   118124169.609                    91874382.104    22113092.691  
  22113089.129  
  20982678.141   110264749.957    20982687.055    85920634.0354   20982687.406  
                
  19658035.242   104899062.796                                                  
  19658032.910  
  20727164.930   110915258.266                    86267418.027    20727168.984  
  20727163.172  
  24327663.914   127842739.346    24327669.898    99617744.6254                 
                
  23327578.797   124699286.291                    96988344.892    23327584.461  
  23327578.516  
  21311457.336   111992493.728    21311463.918    87266930.0244   21311464.059  
                
 21  8 14 13 34 30.0000000  0 16G 4G17R 7R22G21G 1R15G22G32R16G 3R 6
                                R21G19R 5G31
  22828730.320   119965803.221    22828738.543    93479896.8934   22828738.586  
                
  23857457.227   125371795.891    23857464.668    97692339.9794   23857464.688  
                
  20875318.875   111747243.528                    86914531.392    20875323.906  
  20875317.402  
  20363961.148   108704199.295                    84547743.146    20363963.672  
  20363959.449  
  21442501.562   112681105.401    21442507.895    87803513.5744                 
                
  20261302.125   106473890.168    20261312.035    82966713.2124   20261311.707  
                
  22338898.945   119372329.706                    92845145.713    22338903.848  
  22338898.980  
  20627645.898   108399039.167    20627649.957    84466819.4914                 
                
  23845958.008   125311389.447    23845967.793    97645290.3204   23845968.059  
                
  22107352.781   118093522.555                    91850545.502    22107355.492  
  22107351.887  
  20979545.672   110248288.721    20979554.586    85907807.1014   20979554.938  
                
  19659663.984   104907754.053                                                  
  19659661.641  
  20733125.109   110947152.343                    86292224.508    20733129.172  
  20733123.348  
  24324972.883   127828597.947    24324978.926    99606725.3534                 
                
  23333511.461   124730999.688                    97013010.825    23333517.078  
  23333511.168  
  21310539.852   111987672.288    21310546.441    87263173.0594   21310546.578  
                
 21  8 14 13 34 40.0000000  0 16G 4G17R 7R22G21G 1R15G22G32R16G 3R 6
                                R21G19R 5G31
  22823187.180   119936673.960    22823195.391    93457198.7854   22823195.430  
                
  23857432.727   125371667.213    23857440.234    97692239.7094   23857440.199  
                
  20871624.875   111727469.205                    86899151.378    20871629.910  
  20871623.395  
  20362766.664   108697823.088                    84542783.868    20362769.211  
  20362764.965  
  21445654.852   112697675.985    21445661.160    87816425.7084                 
                
  20262864.648   106482101.270    20262874.578    82973111.4764   20262874.246  
                
  22339803.141   119377161.426                    92848903.752    22339808.031  
  22339803.172  
  20626743.430   108394296.642    20626747.504    84463124.0234                 
                
  23851917.359   125342705.951    23851927.117    97669692.7634   23851927.379  
                
  22101625.477   118062928.611                    91826750.232    22101628.262  
  22101624.594  
  20976418.875   110231857.289    20976427.785    85895003.3914   20976428.141  
                
  19661299.336   104916480.644                                                  
  19661296.988  
  20739097.586   110979112.246                    86317082.198    20739101.660  
  20739095.828  
  24322293.984   127814520.258    24322300.035    99595755.7244                 
                
  23339444.305   124762713.831                    97037677.351    23339449.879  
  23339444.035  
  21309636.023   111982922.680    21309642.621    87259472.0644   21309642.758  
                
 21  8 14 13 34 50.0000000  0 16G 4G17R 7R22G21G 1R15G22G32R16G 3R 6
                                R21G19R 5G31
  22817649.297   119907572.269    22817657.496    93434522.1454   22817657.523  
                
  23857419.312   125371596.716    23857426.887    97692184.7844   23857426.809  
                
  20867936.531   111707725.184                    86883794.909    20867941.570  
  20867935.027  
  20361589.750   108691540.592                    84537897.473    20361592.305  
  20361588.043  
  21448817.008   112714293.172    21448823.305    87829374.1534                 
                
  20264439.781   106490378.654    20264449.719    82979561.3724   20264449.383  
                
  22340723.508   119382079.540                    92852728.976    22340728.375  
  22340723.551  
  20625847.656   108389589.303    20625851.738    84459455.9654                 
                
  23857878.211   125374030.377    23857887.941    97694101.3944   23857888.207  
                
  22095908.055   118032387.543                    91802996.101    22095910.945  
  22095907.164  
  20973297.703   110215455.419    20973306.602    85882222.7154   20973306.957  
                
  19662941.219   104925242.023                                                  
  19662938.891  
  20745082.289   111011137.542                    86341990.754    20745086.375  
  20745080.531  
  24319627.172   127800506.121    24319633.145    99584835.6454                 
                
  23345377.203   124794428.368                    97062344.184    23345382.773  
  23345376.973  
  21308745.812   111978244.582    21308752.414    87255826.7934   21308752.551  
                
 21  8 14 13 35  0.0000000  0 16G 4G17R 7R22G21G 1R15G22G32R16G 3R 6
                                R21G19R 5G31
  22812116.617   119878498.003    22812124.801    93411866.8984   22812124.844  
                
  23857416.930   125371584.180    23857424.527    97692175.0344   23857424.395  
                
  20864253.805   111688011.336                    86868461.934    20864258.867  
  20864252.285  
  20360430.297   108685351.369                    84533083.645    20360432.859  
  20360428.598  
  21451987.977   112730956.724    21451994.254    87842358.7274                 
                
  20266027.484   106498722.102    20266037.441    82986062.7654   20266037.102  
                
  22341659.977   119387083.781                    92856621.150    22341664.820  
  22341660.008  
  20624958.547   108384917.030    20624962.641    84455815.2374                 
                
  23863840.531   125405362.488    23863850.168    97718516.0194   23863850.465  
                
  22090200.539   118001899.273                    91779283.042    22090203.512  
  22090199.629  
  20970182.125   110199082.994    20970191.016    85869464.9894   20970191.375  
                
  19664589.594   104934038.169                                                  
  19664587.250  
  20751079.148   111043227.953                    86366949.932    20751083.219  
  20751077.383  
  24316972.445   127786555.482    24316978.320    99573965.0174                 
                
  23351310.117   124826143.129                    97087011.189    23351315.719  
  23351309.934  
  21307869.203   111973637.963    21307875.816    87252237.2284   21307875.945  
                
 21  8 14 13 35 10.0000000  0 16G 4G17R 7R22G21G 1R15G22G32R16G 3R 6
                                R21G19R 5G31
  22806589.203   119849451.392    22806597.395    93389233.1794   22806597.426  
                
  23857425.617   125371629.809    23857433.207    97692210.5984   23857433.078  
                
  20860576.781   111668327.930                    86853152.637    20860581.852  
  20860575.273  
  20359288.398   108679255.823                    84528342.657    20359290.988  
  20359286.715  
  21455167.812   112747666.792    21455174.066    87855379.5624                 
                
  20267627.805   106507131.789    20267637.789    82992615.7614   20267637.438  
                
  22342612.609   119392174.304                    92860580.438    22342617.449  
  22342612.633  
  20624076.164   108380280.027    20624080.270    84452201.9884                 
                
  23869804.359   125436702.451    23869813.914    97742936.7584   23869814.242  
                
  22084503.000   117971464.232                    91755611.345    22084506.016  
  22084502.098  
  20967072.203   110182740.241    20967081.094    85856730.3744   20967081.438  
                
  19666244.539   104942869.198                                                  
  19666242.211  
  20757088.180   111075383.451                    86391959.760    20757092.227  
  20757086.426  
  24314329.820   127772668.487    24314335.664    99563143.9994                 
                
  23357243.125   124857858.241                    97111678.481    23357248.727  
  23357242.984  
  21307006.219   111969102.962    21307012.863    87248703.4524   21307012.973  
                
 21  8 14 13 35 20.0000000  0 16G 4G17R 7R22G21G 1R15G22G32R16G 3R 6
                                R21G19R 5G31
  22801067.047   119820432.359    22801075.250    93366620.9654   22801075.285  
                
  23857445.344   125371733.495    23857452.953    97692291.3714   23857452.789  
                
  20856905.398   111648674.809                    86837866.880    20856910.500  
  20856903.891  
  20358164.000   108673253.745                    84523674.367    20358166.594  
  20358162.324  
  21458356.477   112764423.323    21458362.695    87868436.5884                 
                
  20269240.703   106515607.606    20269250.707    82999220.2894   20269250.348  
                
  22343581.383   119397351.128                    92864606.860    22343586.219  
  22343581.438  
  20623200.453   108375678.162    20623204.570    84448616.1254                 
                
  23875769.625   125468050.089    23875779.133    97767363.4664   23875779.473  
                
  22078815.414   117941082.329                    91731980.980    22078818.371  
  22078814.535  
  20963967.906   110166427.083    20963976.797    85844018.8274   20963977.141  
                
  19667905.922   104951734.711                                                  
  19667903.598  
  20763109.344   111107603.847                    86417020.072    20763113.355  
  20763107.578  
  24311699.266   127758845.042    24311705.098    99552372.4654                 
                
  23363176.164   124889573.697                    97136346.054    23363181.773  
  23363176.051  
  21306156.836   111964639.463    21306163.512    87245225.4044   21306163.605  
                
 21  8 14 13 35 30.0000000  0 16G 4G17R 7R22G21G 1R15G22G32R16G 3R 6
                                R21G19R 5G31
  22795550.195   119791441.156    22795558.465    93344030.4334   22795558.484  
                
  23857476.148   125371895.333    23857483.762    97692417.4664   23857483.598  
                
  20853239.711   111629052.075                    86822604.764    20853244.840  
  20853238.211  
  20357057.211   108667345.551                    84519079.115    20357059.852  
  20357055.520  
  21461554.000   112781226.329    21461560.188    87881529.8374                 
                
  20270866.219   106524149.700    20270876.234    83005876.4624   20270875.859  
                
  22344566.328   119402614.291                    92868700.430    22344571.145  
  22344566.430  
  20622331.492   108371111.691    20622335.617    84445057.8324                 
                
  23881736.383   125499405.539    23881745.863    97791796.2674   23881746.219  
                
  22073137.875   117910753.963                    91708392.246    22073140.848  
  22073137.012  
  20960869.297   110150143.733    20960878.195    85831330.5054   20960878.539  
                
  19669573.922   104960635.445                                                  
  19669571.602  
  20769142.648   111139889.208                    86442130.908    20769146.637  
  20769140.883  
  24309080.883   127745085.468    24309086.785    99541650.7294                 
                
  23369109.273   124921289.458                    97161013.854    23369114.898  
  23369109.105  
  21305321.125   111960247.727    21305327.812    87241803.2764   21305327.895  
                
 21  8 14 13 35 40.0000000  0 16G 4G17R 7R22G21G 1R15G22G32R16G 3R 6
                                R21G19R 5G31
  22790038.562   119762477.426    22790046.918    93321461.3104   22790046.891  
                
  23857517.945   125372114.949    23857525.461    97692588.5994   23857525.395  
                
  20849579.633   111609459.482                    86807366.084    20849584.797  
  20849578.148  
  20355967.914   108661530.779                    84514556.506    20355970.605  
  20355966.195  
  21464760.281   112798075.429    21464766.453    87894659.0024                 
                
  20272504.281   106532757.720    20272514.309    83012584.0024   20272513.926  
                
  22345567.352   119407963.425                    92872860.881    22345572.133  
  22345567.469  
  20621469.188   108366580.271    20621473.316    84441526.8534                 
                
  23887704.547   125530768.359    23887713.973    97816234.8134   23887714.348  
                
  22067470.367   117880479.122                    91684845.153    22067473.367  
  22067469.520  
  20957776.289   110133889.872    20957785.203    85818665.1574   20957785.539  
                
  19671248.367   104969570.574                                                  
  19671246.051  
  20775187.969   111172238.945                    86467291.808    20775191.961  
  20775186.184  
  24306474.609   127731389.386    24306480.602    99530978.4724                 
                
