     2.11           OBSERVATION DATA    M (MIXED)           RINEX VERSION / TYPE
EFT-CORS.RU                             20210817 145444 UTC PGM / RUN BY / DATE 
MDNG                                                        MARKER NAME         
                                                            MARKER NUMBER       
MDNG                EFT-CORS.RU                             OBSERVER / AGENCY   
0                   TRIMBLE BD970       2.0                 REC # / TYPE / VERS 
0                   UNKNOWN EXT NONE                        ANT # / TYPE        
  3463911.2830  3030468.2400  4402179.3760                  APPROX POSITION XYZ 
        0.0000        0.0000        0.0000                  ANTENNA: DELTA H/E/N
     1     1                                                WAVELENGTH FACT L1/2
     6    C1    L1    P2    L2    C2    P1                  # / TYPES OF OBSERV 
    10.000                                                  INTERVAL            
  2021     8    15    23    30    0.0000000     GPS         TIME OF FIRST OBS   
  2021     8    16     0    30    0.0000000     GPS         TIME OF LAST OBS    
     0                                                      RCV CLOCK OFFS APPL 
                                                            END OF HEADER       
 21  8 15 23 30  0.0000000  0 19R 6G 6G17G15R14R 4G13G14G12R15G 1G24
                                R24R17G30G19R23R13R 5
  23430781.188   125031134.870                                                  
  23430778.695  
  24315653.547   127779622.132    24315662.996    99568574.9124   24315663.406  
                
  21288532.727   111872023.796    21288538.633    87173038.1394   21288538.426  
                
  22434682.289   117895052.392    22434688.676    91866307.1234   22434688.512  
                
  19710364.633   105067369.334                    81719060.971    19710367.996  
  19710364.180  
  23334455.852   124954963.839                    97187191.977    23334459.543  
  23334455.281  
  22457854.586   118016859.641    22457860.613    91961199.6624                 
                
  22574872.594   118631789.672    22574878.812    92440395.6704   22574878.824  
                
  23844597.438   125304204.312    23844603.547    97639666.0644   23844603.738  
                
  20889033.164   111624688.687                    86819181.762    20889036.793  
  20889033.293  
  24203130.773   127188327.917    24203139.395    99107824.2514   24203138.902  
                
  21237093.633   111601700.619    21237102.137    86962393.8864   21237102.121  
                
  20109455.758   107534316.054                    83637801.607    20109459.648  
  20109454.660  
  21900691.883   117195026.785                    91151685.507    21900696.160  
  21900690.332  
  24660294.406   129590760.891    24660304.121   100979871.8154   24660304.410  
                
  20365410.516   107020958.444    20365415.051    83392993.8284                 
                
  21351749.680   114217481.244                                                  
  21351747.797  
  22897750.820   122272680.562                    95101047.424    22897753.176  
  22897749.004  
  21859914.445   116853761.125                    90886241.636    21859918.277  
  21859914.172  
 21  8 15 23 30 10.0000000  0 19R 6G 6G17G15R14R 4G13G14G12R15G 1G24
                                R24R17G30G19R23R13R 5
  23427024.453   125011088.311                                                  
  23427022.016  
  24309352.469   127746509.376    24309361.859    99542772.7734   24309362.289  
                
  21291548.148   111887869.988    21291554.094    87185385.8264   21291553.859  
                
  22439254.531   117919079.723    22439260.934    91885029.7124   22439260.758  
                
  19711382.914   105072797.357                    81723282.760    19711386.289  
  19711382.449  
  23341975.812   124995233.270                    97218512.663    23341979.598  
  23341975.270  
  22464070.633   118049525.289    22464076.691    91986653.3924                 
                
  22579834.250   118657863.308    22579840.477    92460712.7934   22579840.480  
                
  23838783.570   125273652.122    23838789.684    97615859.1534   23838789.855  
                
  20884629.914   111601159.040                    86800880.924    20884633.535  
  20884630.074  
  24206052.633   127203682.348    24206061.156    99119788.7624   24206060.656  
                
  21232971.875   111580040.648    21232980.352    86945515.9834   21232980.348  
                
  20107512.188   107523922.971                    83629718.110    20107516.082  
  20107511.074  
  21892758.867   117152575.674                    91118667.977    21892763.117  
  21892757.293  
  24666811.922   129625010.720    24666821.660   101006560.0094   24666821.949  
                
  20364121.031   107014182.164    20364125.582    83387713.6014                 
                
  21356040.305   114240433.183                                                  
  21356038.398  
  22903279.148   122302201.301                    95124007.949    22903281.473  
  22903277.285  
  21863248.930   116871585.859                    90900105.308    21863252.750  
  21863248.641  
 21  8 15 23 30 20.0000000  0 19R 6G 6G17G15R14R 4G13G14G12R15G 1G24
                                R24R17G30G19R23R13R 5
  23423281.727   124991115.864                                                  
  23423279.188  
  24303052.727   127713403.513    24303062.078    99516975.9924   24303062.488  
                
  21294573.055   111903766.010    21294579.027    87197772.3354   21294578.789  
                
  22443835.094   117943150.783    22443841.480    91903786.3714   22443841.316  
                
  19712408.453   105078264.054                    81727534.627    19712411.836  
  19712407.996  
  23349498.164   125035515.965                    97249843.641    23349502.109  
  23349497.723  
  22470292.648   118082222.148    22470298.730    92012131.4644                 
                
  22584798.625   118683951.150    22584804.863    92481040.9664   22584804.840  
                
  23832972.336   125243113.958    23832978.461    97592063.1864   23832978.602  
                
  20880230.336   111577649.008                    86782595.360    20880233.938  
  20880230.516  
  24208986.523   127219100.017    24208994.961    99131802.5364   24208994.457  
                
  21228857.750   111558420.802    21228866.203    86928669.3504   21228866.215  
                
  20105585.609   107513620.752                    83621705.288    20105589.512  
  20105584.477  
  21884831.797   117110156.549                    91085675.336    21884836.086  
  21884830.246  
  24673332.258   129659275.304    24673342.004   101033259.6814   24673342.277  
                
  20362844.516   107007474.015    20362849.051    83382486.4644                 
                
  21360345.602   114263463.617                                                  
  21360343.703  
  22908810.836   122331739.925                    95146982.445    22908813.125  
  22908808.953  
  21866597.727   116889487.076                    90914028.464    21866601.520  
  21866597.449  
 21  8 15 23 30 30.0000000  0 19R 6G 6G17G15R14R 4G13G14G12R15G 1G24
                                R24R17G30G19R23R13R 5
  23419552.695   124971217.441                                                  
  23419550.184  
  24296754.289   127680304.894    24296763.672    99491184.8434   24296764.066  
                
  21297607.477   111919712.023    21297613.465    87210197.8024   21297613.223  
                
  22448423.992   117967265.608    22448430.367    91922577.1484   22448430.223  
                
  19713441.320   105083769.792                    81731816.870    19713444.703  
  19713440.879  
  23357023.078   125075812.122                    97281185.092    23357027.102  
  23357022.652  
  22476520.633   118114950.367    22476526.734    92037633.9784                 
                
  22589765.719   118710053.390    22589771.926    92501380.3684   22589771.914  
                
  23827163.812   125212590.149    23827169.957    97568278.4054   23827170.070  
                
  20875834.477   111554158.893                    86764325.264    20875838.094  
  20875834.660  
  24211932.477   127234581.052    24211940.820    99143865.6704   24211940.336  
                
  21224751.320   111536841.356    21224759.754    86911854.1994   21224759.770  
                
  20103676.000   107503409.273                    83613763.024    20103679.895  
  20103674.852  
  21876910.914   117067769.877                    91052707.939    21876915.141  
  21876909.250  
  24679855.430   129693554.739    24679865.145   101059970.9324   24679865.402  
                
  20361581.016   107000834.303    20361585.527    83377312.6664                 
                
  21364665.602   114286572.677                                                  
  21364663.719  
  22914345.945   122361296.723                    95169971.088    22914348.176  
  22914344.059  
  21869960.875   116907464.922                    90928011.229    21869964.664  
  21869960.598  
 21  8 15 23 30 40.0000000  0 19R 6G 6G17G15R14R 4G13G14G12R15G 1G24
                                R24R17G30G19R23R13R 5
  23415837.414   124951392.363                                                  
  23415834.852  
  24290457.172   127647213.278    24290466.539    99465399.1644   24290466.941  
                
  21300651.344   111935707.735    21300657.344    87222662.0004   21300657.113  
                
  22453021.148   117991423.855    22453027.516    91941401.7534   22453027.359  
                
  19714481.422   105089314.155                    81736129.151    19714484.824  
  19714480.992  
  23364550.391   125116121.107                    97312536.541    23364554.535  
  23364550.031  
  22482754.469   118147709.376    22482760.586    92063160.4784                 
                
  22594735.492   118736169.658    22594741.633    92521730.7074   22594741.645  
                
  23821357.945   125182080.194    23821364.148    97544504.4094   23821364.230  
                
  20871442.297   111530688.432                    86746070.463    20871445.910  
  20871442.473  
  24214890.414   127250125.094    24214898.695    99155977.9224   24214898.223  
                
  21220652.531   111515302.107    21220660.949    86895070.3704   21220660.977  
                
  20101783.359   107493288.523                    83605891.347    20101787.250  
  20101782.199  
  21868996.062   117025415.370                    91019765.554    21869000.195  
  21868994.270  
  24686381.406   129727848.692    24686391.043   101086693.4984   24686391.316  
                
  20360330.477   106994262.742    20360334.977    83372191.9804                 
                
  21369000.203   114309759.882                                                  
  21368998.312  
  22919884.305   122390871.064                    95192973.335    22919886.422  
  22919882.410  
  21873338.234   116925518.769                    90942053.105    21873342.055  
  21873337.965  
 21  8 15 23 30 50.0000000  0 19R 6G 6G17G15R14R 4G13G14G12R15G 1G24
                                R24R17G30G19R23R13R 5
  23412136.180   124931641.628                                                  
  23412133.562  
  24284161.477   127614129.203    24284170.824    99439619.3744   24284171.254  
                
  21303704.750   111951753.497    21303710.762    87235165.1834   21303710.547  
                
  22457626.625   118015625.855    22457632.977    91960260.4554   22457632.828  
                
  19715528.875   105094897.624                    81740471.852    19715532.293  
  19715528.441  
  23372080.242   125156443.356                    97343898.303    23372084.387  
  23372079.879  
  22488994.242   118180499.523    22489000.367    92088711.2324                 
                
  22599708.000   118762300.344    22599714.070    92542092.2834   22599714.113  
                
  23815554.680   125151584.688    23815561.090    97520741.6994   23815561.156  
                
  20867053.875   111507238.041                    86727831.278    20867057.492  
  20867054.039  
  24217860.422   127265732.504    24217868.652    99168139.5374   24217868.215  
                
  21216561.477   111493803.504    21216569.863    86878318.2124   21216569.902  
                
  20099907.727   107483258.707                    83598090.388    20099911.617  
  20099906.559  
  21861087.250   116983093.588                    90986848.629    21861091.387  
  21861085.422  
  24692910.203   129762157.584    24692919.773   101113427.6944   24692920.051  
                
  20359092.984   106987759.679    20359097.492    83367124.6694                 
                
  21373349.453   114333025.489                                                  
  21373347.547  
  22925425.977   122420463.226                    95215989.461    22925428.105  
  22925424.078  
  21876729.914   116943649.168                    90956154.506    21876733.770  
  21876729.617  
 21  8 15 23 31  0.0000000  0 18R 6G 6G17G15R14R 4G13G14G12R15G 1G24
                                R24R17G19R23R13R 5
  23408448.781   124911964.884                                                  
  23408446.133  
  24277867.203   127581052.737    24277876.543    99413845.5164   24277876.977  
                
  21306767.641   111967849.152    21306773.660    87247707.2574   21306773.449  
                
  22462240.406   118039871.481    22462246.742    91979153.1444   22462246.586  
                
  19716583.672   105100520.283                    81744845.026    19716587.078  
  19716583.246  
  23379612.477   125196778.508                    97375270.085    23379616.691  
  23379612.133  
  22495239.891   118213320.665    22495246.047    92114286.1464                 
                
  22604683.242   118788445.364    22604689.281    92562465.0164   22604689.336  
                
  23809754.203   125121103.648    23809760.773    97496990.2334   23809760.816  
                
  20862669.195   111483807.678                    86709607.684    20862672.820  
  20862669.355  
  24220842.445   127281403.149    24220850.621    99180350.4254   24220850.207  
                
  21212478.156   111472345.570    21212486.523    86861597.7484   21212486.590  
                
  20098049.141   107473320.073                    83590360.336    20098053.016  
  20098047.969  
  21853184.508   116940804.785                    90953957.351    21853188.730  
  21853182.727  
  20357868.516   106981325.083    20357873.062    83362110.7004                 
                
  21377713.352   114356369.451                                                  
  21377711.434  
  22930970.945   122450073.462                    95239019.634    22930973.172  
  22930969.125  
  21880135.844   116961855.739                    90970315.172    21880139.734  
  21880135.523  
 21  8 15 23 31 10.0000000  0 18R 6G 6G17G15R14R 4G13G14G12R15G 1G24
                                R24R17G19R23R13R 5
  23404775.266   124892362.355                                                  
  23404772.613  
  24271574.344   127547983.688    24271583.688    99388077.4424   24271584.148  
                
  21309839.969   111983994.360    21309845.988    87260287.9334   21309845.773  
                
  22466862.422   118064160.304    22466868.750    91998079.5044   22466868.570  
                
  19717645.742   105106181.687                    81749248.333    19717649.160  
  19717645.320  
  23387147.078   125237126.079                    97406651.530    23387151.328  
  23387146.668  
  22501491.375   118246172.375    22501497.551    92139884.8734                 
                
  22609661.156   118814604.398    22609667.195    92582848.6744   22609667.227  
                
  23803956.438   125090636.715    23803963.164    97473249.7934   23803963.156  
                
  20858288.266   111460397.306                    86691399.612    20858291.902  
  20858288.395  
  24223836.445   127297136.716    24223844.566    99192610.3784   24223844.188  
                
  21208402.547   111450928.104    21208410.906    86844908.8104   21208410.984  
                
  20096207.523   107463472.160                    83582700.847    20096211.379  
  20096206.336  
  21845287.930   116898548.766                    90921091.555    21845292.156  
  21845286.172  
  20356657.031   106974958.672    20356661.645    83357149.8534                 
                
  21382091.797   114379791.179                                                  
  21382089.883  
  22936519.414   122479701.522                    95262063.676    22936521.570  
  22936517.559  
  21883555.953   116980138.199                    90984534.841    21883559.875  
  21883555.633  
 21  8 15 23 31 20.0000000  0 18R 6G 6G17G15R14R 4G13G14G12R15G 1G24
                                R24R17G19R23R13R 5
  23401115.617   124872834.031                                                  
  23401112.965  
  24265282.898   127514922.072    24265292.227    99362315.1364   24265292.711  
                
  21312921.656   112000188.828    21312927.672    87272906.9964   21312927.461  
                
  22471492.602   118088492.088    22471498.910    92017039.3314   22471498.730  
                
  19718715.070   105111881.818                    81753681.768    19718718.484  
  19718714.656  
  23394683.984   125277485.831                    97438042.445    23394688.234  
  23394683.527  
  22507748.617   118279054.355    22507754.789    92165507.1964                 
                
  22614641.680   118840777.245    22614647.699    92603243.1034   22614647.746  
                
  23798161.367   125060183.847    23798168.219    97449520.3164   23798168.168  
                
  20853910.984   111437006.465                    86673206.744    20853914.629  
  20853911.098  
  24226842.375   127312932.972    24226850.457    99204919.1574   24226850.082  
                
  21204334.617   111429551.012    21204342.977    86828251.3504   21204343.055  
                
  20094382.891   107453715.054                    83575111.984    20094386.727  
  20094381.699  
  21837397.477   116856325.466                    90888251.217    21837401.691  
  21837395.742  
  20355458.484   106968660.325    20355463.164    83352242.0514                 
                
  21386484.742   114403290.481                                                  
  21386482.816  
  22942071.008   122509346.989                    95285121.261    22942073.250  
  22942069.219  
  21886990.227   116998496.314                    90998813.368    21886994.184  
  21886989.828  
 21  8 15 23 31 30.0000000  0 18R 6G 6G17G15R14R 4G13G14G12R15G 1G24
                                R24R17G19R23R13R 5
  23397469.898   124853380.249                                                  
  23397467.328  
  24258993.008   127481868.476    24259002.293    99336559.0864   24259002.777  
                
  21316012.836   112016433.096    21316018.852    87285564.8664   21316018.652  
                
  22476131.055   118112867.257    22476137.340    92036032.9704   22476137.176  
                
  19719791.758   105117621.161                    81758145.705    19719795.180  
  19719791.359  
  23402223.250   125317858.006                    97469443.041    23402227.461  
  23402222.742  
  22514011.703   118311967.149    22514017.891    92191153.5194                 
                
  22619624.953   118866964.420    22619630.930    92623648.6894   22619631.000  
                
  23792369.148   125029745.397    23792375.961    97425802.0404   23792375.922  
                
  20849537.523   111413636.012                    86655029.732    20849541.164  
  20849537.637  
  24229860.312   127328792.404    24229868.371    99217277.1414   24229868.004  
                
  21200274.492   111408214.913    21200282.848    86811625.8184   21200282.914  
                
  20092575.336   107444049.266                    83567594.163    20092579.145  
  20092574.145  
  21829513.227   116814135.584                    90855436.868    21829517.477  
  21829511.516  
  20354273.008   106962430.607    20354277.727    83347387.7284                 
                
  21390892.266   114426867.771                                                  
  21390890.383  
  22947625.984   122539010.465                    95308192.855    22947628.309  
  22947624.188  
  21890438.672   117016930.248                    91013150.862    21890442.648  
  21890438.230  
 21  8 15 23 31 40.0000000  0 18R 6G 6G17G15R14R 4G13G14G12R15G 1G24
                                R24R17G19R23R13R 5
  23393838.312   124834000.948                                                  
  23393835.742  
  24252704.609   127448822.815    24252713.848    99310809.2114   24252714.344  
                
  21319113.422   112032726.825    21319119.438    87298261.2824   21319119.242  
                
  22480777.688   118137285.485    22480783.984    92055060.1574   22480783.836  
                
  19720875.773   105123399.546                    81762640.010    19720879.195  
  19720875.391  
  23409764.680   125358242.320                    97500853.075    23409768.922  
  23409764.188  
  22520280.578   118344910.393    22520286.777    92216823.5564                 
                
  22624610.883   118893165.646    22624616.832    92644065.2314   22624616.941  
                
  23786579.664   124999321.141    23786586.355    97402094.8384   23786586.355  
                
  20845167.828   111390285.710                    86636868.399    20845171.473  
  20845167.926  
  24232890.211   127344714.709    24232898.246    99229684.1524   24232897.902  
                
  21196222.141   111386919.670    21196230.488    86795032.1184   21196230.562  
                
  20090784.812   107434474.575                    83560147.185    20090788.590  
  20090783.617  
  21821635.305   116771979.117                    90822648.507    21821639.531  
  21821633.574  
  20353100.547   106956269.325    20353105.285    83342586.7364                 
                
  21395314.328   114450522.769                                                  
  21395312.457  
  22953184.195   122568691.794                    95331278.337    22953186.734  
  22953182.523  
  21893901.297   117035440.059                    91027547.360    21893905.266  
  21893900.824  
 21  8 15 23 31 50.0000000  0 18R 6G 6G17G15R14R 4G13G14G12R15G 1G24
                                R24R17G19R23R13R 5
  23390220.680   124814695.973                                                  
  23390218.059  
  24246417.672   127415784.877    24246426.879    99285065.3734   24246427.383  
                
  21322223.359   112049069.637    21322229.379    87310995.9414   21322229.184  
                
  22485432.453   118161746.368    22485438.781    92074120.5824   22485438.621  
                
  19721967.062   105129216.707                    81767164.459    19721970.504  
  19721966.691  
  23417308.195   125398638.318                    97532272.183    23417312.594  
  23417307.812  
  22526555.211   118377883.666    22526561.371    92242517.0224                 
                
  22629599.438   118919380.616    22629605.418    92664492.4704   22629605.527  
                
  23780792.938   124968911.136    23780799.461    97378398.7294   23780799.492  
                
  20840801.859   111366955.258                    86618722.482    20840805.520  
  20840801.938  
  24235932.023   127360699.518    24235940.008    99242139.8624   24235939.691  
                
  21192177.508   111365665.018    21192185.855    86778470.0534   21192185.926  
                
  20089011.320   107424990.952                    83552771.043    20089015.082  
  20089010.121  
  21813763.531   116729855.885                    90789886.017    21813767.840  
  21813761.828  
  20351941.047   106950176.126    20351945.777    83337838.7994                 
                
  21399750.820   114474254.990                                                  
  21399748.938  
  22958745.758   122598390.435                    95354377.271    22958748.301  
  22958744.133  
  21897377.992   117054025.012                    91042002.325    21897381.934  
  21897377.539  
 21  8 15 23 32  0.0000000  0 18R 6G 6G17G15R14R 4G13G14G12R15G 1G24
                                R24R17G19R23R13R 5
  23386616.977   124795465.687                                                  
  23386614.383  
  24240132.195   127382755.079    24240141.426    99259327.8624   24240141.941  
                
  21325342.672   112065461.728    21325348.684    87323768.9954   21325348.488  
                
  22490095.344   118186250.043    22490101.703    92093214.3444   22490101.523  
                
  19723065.688   105135072.989                    81771719.336    19723069.121  
  19723065.328  
  23424854.047   125439046.000                    97563700.372    23424858.445  
  23424853.629  
  22532835.578   118410887.102    22532841.621    92268234.0024                 
                
  22634590.656   118945609.515    22634596.727    92684930.5724   22634596.797  
                
  23775008.898   124938515.524    23775015.371    97354713.8444   23775015.418  
                
  20836439.656   111343644.959                    86600592.247    20836443.312  
  20836439.742  
  24238985.773   127376747.069    24238993.734    99254644.4504   24238993.441  
                
  21188140.672   111344451.310    21188149.023    86761939.8964   21188149.094  
                
  20087254.852   107415598.386                    83545465.722    20087258.590  
  20087253.648  
  21805898.008   116687766.256                    90757149.652    21805902.406  
  21805896.336  
  20350794.547   106944151.267    20350799.270    83333144.1054                 
                
  21404201.766   114498064.591                                                  
  21404199.859  
  22964310.688   122628106.551                    95377489.798    22964313.188  
  22964309.090  
  21900868.781   117072685.212                    91056515.828    21900872.684  
  21900868.324  
 21  8 15 23 32 10.0000000  0 18R 6G 6G17G15R14R 4G13G14G12R15G 1G24
                                R24R17G19R23R13R 5
  23383027.180   124776310.028                                                  
  23383024.594  
  24233848.211   127349733.452    24233857.543    99233596.7394   24233858.082  
                
  21328471.320   112081902.884    21328477.320    87336580.2854   21328477.125  
                
  22494766.367   118210796.349    22494772.738    92112341.3444   22494772.551  
                
  19724171.594   105140968.037                    81776304.384    19724175.039  
  19724171.242  
  23432402.047   125479465.375                    97595137.651    23432406.469  
  23432401.695  
  22539121.664   118443920.627    22539127.594    92293974.4274                 
                
  22639584.508   118971852.322    22639590.652    92705379.5034   22639590.668  
                
  23769227.633   124908134.358    23769233.965    97331040.2064   23769234.051  
                
  20832081.242   111320354.897                    86582477.756    20832084.895  
  20832081.340  
  24242051.438   127392857.223    24242059.383    99267197.8294   24242059.113  
                
  21184111.641   111323278.583    21184119.996    86745441.6744   21184120.070  
                
  20085515.508   107406297.292                    83538231.524    20085519.230  
  20085514.312  
  21798038.734   116645710.484                    90724439.606    21798043.273  
  21798037.188  
  20349661.055   106938194.716    20349665.793    83328502.6374                 
                
  21408667.125   114521951.218                                                  
  21408665.211  
  22969878.867   122657840.286                    95400616.022    22969881.371  
  22969877.281  
  21904373.656   117091420.781                    91071087.925    21904377.543  
  21904373.184  
 21  8 15 23 32 20.0000000  0 18R 6G 6G17G15R14R 4G13G14G12R15G 1G24
                                R24R17G19R23R13R 5
  23379451.430   124757229.345                                                  
  23379448.859  
  24227565.859   127316720.113    24227575.305    99207872.0804   24227575.848  
                
  21331609.312   112098393.140    21331615.281    87349429.8364   21331615.113  
                
  22499445.445   118235385.066    22499451.828    92131501.3814   22499451.641  
                
  19725284.812   105146902.123                    81780919.780    19725288.266  
  19725284.477  
  23439952.273   125519895.968                    97626583.679    23439956.551  
  23439951.816  
  22545413.414   118476983.957    22545419.301    92319738.0594                 
                
  22644580.977   118998108.927    22644587.160    92725839.1844   22644587.156  
                
  23763449.039   124877767.471    23763455.383    97307377.7424   23763455.469  
                
  20827726.586   111297084.928                    86564378.903    20827730.227  
  20827726.699  
  24245129.000   127409029.908    24245136.965    99279799.9194   24245136.680  
                
  21180090.406   111302146.884    21180098.754    86728975.4064   21180098.836  
                
  20083793.156   107397087.126                    83531068.072    20083796.848  
  20083791.969  
  21790185.898   116603688.624                    90691755.945    21790190.469  
  21790184.332  
  20348540.539   106932306.415    20348545.312    83323914.3534                 
                
  21413146.898   114545914.905                                                  
  21413145.004  
  22975450.383   122687591.783                    95423756.050    22975452.914  
  22975448.801  
  21907892.531   117110231.236                    91085718.266    21907896.395  
  21907892.035  
 21  8 15 23 32 30.0000000  0 18R 6G 6G17G15R14R 4G13G14G12R15G 1G24
                                R24R17G19R23R13R 5
  23375889.711   124738223.446                                                  
  23375887.141  
  24221285.227   127283715.091    24221294.668    99182153.9034   24221295.203  
                
  21334756.617   112114932.327    21334762.551    87362317.5234   21334762.395  
                
  22504132.570   118260016.123    22504138.984    92150694.4014   22504138.789  
                
  19726405.375   105152875.301                    81785565.596    19726408.848  
  19726405.043  
  23447504.461   125560337.646                    97658038.337    23447508.691  
  23447504.066  
  22551710.797   118510076.915    22551716.699    92345524.7594                 
                
  22649580.055   119024379.242    22649586.285    92746309.5584   22649586.242  
                
  23757673.141   124847414.892    23757679.426    97283726.3924   23757679.590  
                
  20823375.695   111273835.069                    86546295.691    20823379.324  
  20823375.801  
  24248218.430   127425264.953    24248226.398    99292450.5984   24248226.117  
                
  21176076.969   111281056.169    21176085.293    86712541.0834   21176085.383  
                
  20082087.883   107387968.296                    83523975.652    20082091.555  
  20082086.699  
  21782339.484   116561700.785                    90659098.732    21782344.059  
  21782337.867  
  20347433.016   106926486.356    20347437.824    83319379.2434                 
                
  21417641.016   114569955.435                                                  
  21417639.133  
  22981025.211   122717360.946                    95446909.836    22981027.781  
  22981023.609  
  21911425.422   117129116.657                    91100406.918    21911429.270  
  21911424.992  
 21  8 15 23 32 40.0000000  0 18R 6G 6G17G15R14R 4G13G14G12R15G 1G24
                                R24R17G19R23R13R 5
  23372342.047   124719292.684                                                  
  23372339.492  
  24215006.383   127250718.991    24215015.742    99156442.6444   24215016.277  
                
  21337913.297   112131520.774    21337919.172    87375243.5884   21337919.043  
                
  22508827.820   118284689.882    22508834.293    92169920.6944   22508834.090  
                
  19727533.320   105158887.875                    81790242.027    19727536.801  
  19727532.992  
  23455058.672   125600790.728                    97689501.860    23455063.008  
  23455058.363  
  22558013.906   118543199.903    22558019.820    92371334.8944                 
                
  22654581.820   119050663.692    22654588.066    92766790.9374   22654587.992  
                
  23751900.125   124817077.098    23751906.297    97260086.5044   23751906.492  
                
  20819028.664   111250605.858                    86528228.523    20819032.281  
  20819028.770  
  24251319.812   127441562.797    24251327.754    99305150.2054   24251327.477  
                
  21172071.461   111260007.023    21172079.754    86696139.1544   21172079.855  
                
  20080399.781   107378941.240                    83516954.615    20080403.434  
  20080398.613  
  21774499.594   116519747.573                    90626468.457    21774504.105  
  21774497.918  
  20346338.562   106920735.015    20346343.395    83314897.6854                 
                
  21422149.570   114594073.090                                                  
  21422147.691  
  22986603.250   122747147.893                    95470077.455    22986605.926  
  22986601.719  
  21914972.375   117148077.079                    91115153.921    21914976.219  
  21914971.930  
 21  8 15 23 32 50.0000000  0 18R 6G 6G17G15R14R 4G13G14G12R15G 1G24
                                R24R17G19R23R13R 5
  23368808.469   124700437.172                                                  
  23368806.016  
  24208729.148   127217731.733    24208738.508    99130738.2874   24208739.039  
                
  21341079.312   112148158.252    21341085.121    87388207.8634   21341085.023  
                
  22513531.133   118309406.071    22513537.691    92189180.0434   22513537.477  
                
  19728668.625   105164939.653                    81794948.978    19728672.137  
  19728668.305  
  23462615.180   125641254.864                    97720973.955    23462619.414  
  23462614.734  
  22564322.672   118576352.702    22564328.582    92397168.2324                 
                
  22659586.242   119076962.079    22659592.488    92787283.1864   22659592.414  
                
  23746129.969   124786753.942    23746136.109    97236458.0694   23746136.277  
                
  20814685.469   111227397.155                    86510177.312    20814689.066  
  20814685.586  
  24254433.094   127457923.203    24254441.027    99317898.5524   24254440.746  
                
  21168073.828   111238999.346    21168082.094    86679769.5334   21168082.211  
                
  20078728.750   107370005.568                    83510004.637    20078732.391  
  20078727.602  
  21766666.172   116477828.851                    90593865.021    21766670.605  
  21766664.410  
  20345257.148   106915052.227    20345261.977    83310469.5504                 
                
  21426672.492   114618267.615                                                  
  21426670.633  
  22992184.711   122776952.616                    95493258.888    22992187.414  
  22992183.152  
  21918533.328   117167112.538                    91129959.273    21918537.211  
  21918532.863  
 21  8 15 23 33  0.0000000  0 18R 6G 6G17G15R14R 4G13G14G12R15G 1G24
                                R24R17G19R23R13R 5
  23365289.219   124681657.185                                                  
  23365286.730  
  24202453.594   127184753.436    24202462.941    99105040.9054   24202463.492  
                
  21344254.656   112164844.752    21344260.395    87401210.3364   21344260.312  
                
  22518242.500   118334164.532    22518249.117    92208472.3464   22518248.906  
                
  19729811.281   105171030.657                    81799686.414    19729814.809  
  19729810.961  
  23470173.734   125681729.910                    97752454.539    23470177.871  
  23470173.195  
  22570637.086   118609535.154    22570643.004    92423024.7014                 
                
  22664593.320   119103274.382    22664599.574    92807786.2714   22664599.508  
                
  23740362.484   124756445.431    23740368.453    97212841.0404   23740368.723  
                
  20810346.164   111204209.180                    86492142.220    20810349.754  
  20810346.289  
  24257558.273   127474346.098    24257566.211    99330695.6454   24257565.934  
                
  21164084.109   111218033.213    21164092.363    86663432.2884   21164092.492  
                
  20077074.898   107361161.671                    83503126.066    20077078.535  
  20077073.750  
  21758839.070   116435944.907                    90561288.632    21758843.609  
  21758837.406  
  20344188.805   106909438.055    20344193.590    83306094.8724                 
                
  21431209.766   114642538.850                                                  
  21431207.949  
  22997769.688   122806775.244                    95516454.272    22997772.227  
  22997768.008  
  21922108.305   117186222.785                    91144822.779    21922112.188  
  21922107.816  
 21  8 15 23 33 10.0000000  0 18R 6G 6G17G15R14R 4G13G14G12R15G 1G24
                                R24R17G19R23R13R 5
  23361783.891   124662952.230                                                  
  23361781.477  
  24196179.664   127151784.013    24196189.035    99079350.4434   24196189.617  
                
  21347439.266   112181579.967    21347444.934    87414250.7694   21347444.879  
                
  22522961.852   118358965.014    22522968.473    92227797.3824   22522968.273  
                
  19730961.281   105177160.796                    81804454.303    19730964.812  
  19730960.953  
  23477734.156   125722215.498                    97783943.332    23477738.223  
  23477733.617  
  22576957.062   118642746.927    22576962.988    92448904.0084                 
                
  22669602.984   119129600.331    22669609.223    92828299.9994   22669609.164  
                
  23734597.570   124726151.314    23734603.637    97189235.2554   23734603.926  
                
  20806010.656   111181041.575                    86474122.977    20806014.250  
  20806010.777  
  24260695.281   127490831.199    24260703.238    99343541.2074   24260702.977  
                
  21160102.258   111197108.473    21160110.512    86647127.2924   21160110.633  
                
  20075438.141   107352409.249                    83496318.636    20075441.793  
  20075436.977  
  21751018.508   116394095.715                    90528739.276    21751023.098  
  21751016.836  
  20343133.469   106903892.265    20343138.199    83301773.4744                 
                
  21435761.305   114666886.511                                                  
  21435759.512  
  23003357.812   122836615.414                    95539663.293    23003360.324  
  23003356.102  
  21925697.203   117205407.484                    91159744.216    21925701.086  
  21925696.723  
 21  8 15 23 33 20.0000000  0 18R 6G 6G17G15R14R 4G13G14G12R15G 1G24
                                R24R17G19R23R13R 5
  23358292.570   124644322.203                                                  
  23358290.152  
  24189907.469   127118823.377    24189916.777    99053666.8464   24189917.414  
                
  21350633.070   112198363.513    21350638.660    87427328.8594   21350638.633  
                
  22527689.156   118383807.205    22527695.750    92247154.9384   22527695.570  
                
  19732118.602   105183329.944                    81809252.530    19732122.133  
  19732118.281  
  23485296.445   125762711.274                    97815440.070    23485300.492  
  23485295.918  
  22583282.578   118675987.718    22583288.539    92474805.9194                 
                
  22674615.211   119155939.728    22674621.441    92848824.2024   22674621.383  
                
  23728835.453   124695871.464    23728841.477    97165640.5854   23728841.781  
                
  20801678.922   111157894.126                    86456119.407    20801682.508  
  20801679.031  
  24263844.086   127507378.315    24263852.039    99356435.0394   24263851.797  
                
  21156128.258   111176225.000    21156136.516    86630854.4614   21156136.629  
                
  20073818.453   107343748.132                    83489582.207    20073822.117  
  20073817.285  
  21743204.422   116352281.210                    90496216.897    21743209.039  
  21743202.758  
  20342091.078   106898414.517    20342095.762    83297505.0944                 
                
  21440327.094   114691310.345                                                  
  21440325.250  
  23008949.164   122866472.752                    95562885.670    23008951.621  
  23008947.457  
  21929299.969   117224666.229                    91174723.217    21929303.844  
  21929299.496  
 21  8 15 23 33 30.0000000  0 18R 6G 6G17G15R14R 4G13G14G12R15G 1G24
                                R24R17G19R23R13R 5
  23354815.406   124625767.665                                                  
  23354812.930  
  24183637.055   127085871.701    24183646.250    99027990.2334   24183646.902  
                
  21353836.102   112215195.526    21353841.609    87440444.7144   21353841.633  
                
  22532424.391   118408691.056    22532430.973    92266544.9554   22532430.797  
                
  19733283.219   105189537.983                    81814081.007    19733286.762  
  19733282.895  
  23492860.688   125803217.129                    97846944.631    23492864.707  
  23492860.141  
  22589613.586   118709257.539    22589619.641    92500730.4364                 
                
  22679630.008   119182292.581    22679636.234    92869358.9044   22679636.156  
                
  23723076.133   124665605.971    23723082.027    97142057.0774   23723082.332  
                
  20797351.016   111134767.149                    86438131.765    20797354.598  
  20797351.113  
  24267004.688   127523987.396    24267012.637    99369377.1684   24267012.418  
                
  21152162.156   111155382.966    21152170.414    86614613.9154   21152170.520  
                
  20072215.852   107335178.397                    83482916.873    20072219.535  
  20072214.668  
  21735397.000   116310501.676                    90463721.682    21735401.469  
  21735395.254  
  20341061.664   106893004.945    20341066.328    83293289.8474                 
                
  21444907.070   114715810.113                                                  
  21444905.203  
  23014543.750   122896347.563                    95586121.632    23014546.203  
  23014542.066  
  21932916.609   117243999.197                    91189759.949    21932920.465  
  21932916.188  
 21  8 15 23 33 40.0000000  0 18R 6G 6G17G15R14R 4G13G14G12R15G 1G24
                                R24R17G19R23R13R 5
  23351352.352   124607288.995                                                  
  23351349.914  
  24177368.523   127052929.636    24177377.578    99002321.0854   24177378.234  
                
  21357048.414   112232076.353    21357053.844    87453598.6064   21357053.895  
                
  22537167.617   118433616.922    22537174.203    92285967.6954   22537174.027  
                
  19734455.266   105195785.684                    81818940.331    19734458.805  
  19734454.945  
  23500427.016   125843733.446                    97878457.311    23500430.816  
  23500426.297  
  22595950.188   118742556.751    22595956.324    92526677.8664                 
                
  22684647.438   119208659.387    22684653.660    92889904.4474   22684653.590  
                
  23717319.609   124635355.358    23717325.449    97118485.1694   23717325.773  
                
  20793027.031   111111661.118                    86420160.413    20793030.613  
  20793027.129  
  24270177.156   127540658.878    24270185.129    99382367.9234   24270184.926  
                
  21148204.031   111134582.894    21148212.301    86598406.0694   21148212.402  
                
  20070630.453   107326700.634                    83476323.060    20070634.148  
  20070629.238  
  21727596.188   116268757.550                    90431254.025    21727600.523  
  21727594.379  
  20340045.328   106887664.126    20340050.000    83289128.1734                 
                
  21449501.328   114740386.295                                                  
  21449499.465  
  23020141.617   122926240.269                    95609371.477    23020144.172  
  23020140.047  
  21936547.164   117263406.534                    91204854.537    21936551.020  
  21936546.773  
 21  8 15 23 33 50.0000000  0 18R 6G 6G17G15R14R 4G13G14G12R15G 1G24
                                R24R17G19R23R13R 5
  23347903.594   124588886.126                                                  
  23347901.168  
  24171101.750   127019997.193    24171110.711    98976659.4324   24171111.363  
                
  21360269.992   112249005.844    21360275.363    87466790.4294   21360275.445  
                
  22541918.820   118458584.656    22541925.395    92305423.0744   22541925.211  
                
  19735634.719   105202072.837                    81823830.332    19735638.250  
  19735634.406  
  23507995.062   125884259.883                    97909977.896    23507998.746  
  23507994.348  
  22602292.383   118775885.142    22602298.539    92552648.0364                 
                
  22689667.500   119235039.998    22689673.711    92910460.7614   22689673.660  
                
  23711565.820   124605119.409    23711571.738    97094924.6884   23711572.020  
                
  20788706.953   111088575.957                    86402205.292    20788710.523  
  20788707.062  
  24273361.477   127557392.630    24273369.496    99395407.2064   24273369.297  
                
  21144253.898   111113824.824    21144262.176    86582230.9534   21144262.270  
                
  20069062.273   107318314.956                    83469800.868    20069065.980  
  20069061.031  
  21719801.922   116227049.121                    90398814.141    21719806.266  
  21719800.164  
  20339042.055   106882391.948    20339046.746    83285019.9974                 
                
  21454109.828   114765038.647                                                  
  21454107.977  
  23025742.867   122956150.560                    95632635.055    23025745.445  
  23025741.266  
  21940191.594   117282888.089                    91220006.867    21940195.457  
  21940191.219  
 21  8 15 23 34  0.0000000  0 18R 6G 6G17G15R14R 4G13G14G12R15G 1G24
                                R24R17G19R23R13R 5
  23344469.148   124570559.135                                                  
  23344466.727  
  24164836.805   126987074.464    24164845.691    98951005.3524   24164846.324  
                
  21363500.820   112265983.888    21363506.152    87480020.0754   21363506.238  
                
  22546677.977   118483594.098    22546684.535    92324910.9534   22546684.348  
                
  19736821.594   105208399.512                    81828751.090    19736825.133  
  19736821.273  
  23515565.016   125924796.250                    97941506.188    23515568.625  
  23515564.250  
  22608640.125   118809242.529    22608646.305    92578640.8014                 
                
  22694690.195   119261434.371    22694696.398    92931027.7974   22694696.359  
                
  23705814.867   124574898.385    23705820.859    97071375.8494   23705821.125  
                
  20784390.805   111065511.726                    86384266.438    20784394.371  
  20784390.930  
  24276557.633   127574188.560    24276565.695    99408494.9454   24276565.516  
                
  21140311.766   111093108.767    21140320.047    86566088.5714   21140320.121  
                
  20067511.266   107310021.076                    83463350.084    20067514.988  
  20067510.008  
  21712014.258   116185376.471                    90366402.089    21712018.707  
  21712012.570  
  20338051.852   106877188.384    20338056.555    83280965.2804                 
                
  21458732.555   114789767.070                                                  
  21458730.680  
  23031347.555   122986079.006                    95655912.751    23031350.059  
  23031345.922  
  21943849.906   117302443.830                    91235216.884    21943853.785  
  21943849.508  
 21  8 15 23 34 10.0000000  0 18R 6G 6G17G15R14R 4G13G14G12R15G 1G24
                                R24R17G19R23R13R 5
  23341049.008   124552307.973                                                  
  23341046.531  
  24158573.664   126954161.347    24158582.477    98925358.7654   24158583.113  
                
  21366740.820   112283010.223    21366746.152    87493287.3564   21366746.223  
                
  22551445.008   118508644.989    22551451.543    92344431.1384   22551451.367  
                
  19738015.812   105214765.374                    81833702.312    19738019.359  
  19738015.480  
  23523136.547   125965342.199                    97973041.925    23523140.309  
  23523135.938  
  22614993.328   118842628.736    22614999.543    92604656.0324                 
                
  22699715.461   119287842.280    22699721.656    92951605.3794   22699721.617  
                
  23700066.812   124544692.090    23700072.789    97047838.4904   23700073.039  
                
  20780078.523   111042468.193                    86366343.687    20780082.086  
  20780078.668  
  24279765.578   127591046.406    24279773.695    99421630.9324   24279773.512  
                
  21136377.609   111072434.634    21136385.898    86549978.8554   21136385.961  
                
  20065977.422   107301818.965                    83456970.659    20065981.160  
  20065976.148  
  21704233.461   116143739.565                    90334017.835    21704237.832  
  21704231.711  
  20337074.664   106872053.251    20337079.363    83276963.8814                 
                
  21463369.430   114814571.186                                                  
  21463367.574  
  23036955.461   123016024.760                    95679203.889    23036957.805  
  23036953.805  
  21947522.000   117322073.259                    91250484.233    21947525.922  
  21947521.633  
 21  8 15 23 34 20.0000000  0 18R 6G 6G17G15R14R 4G13G14G12R15G 1G24
                                R24R17G19R23R13R 5
  23337642.945   124534132.215                                                  
  23337640.445  
  24152312.359   126921257.696    24152321.039    98899719.5454   24152321.695  
                
  21369989.945   112300084.499    21369995.285    87506591.9894   21369995.363  
                
  22556219.852   118533736.938    22556226.344    92363983.3024   22556226.184  
                
  19739217.352   105221170.234                    81838683.861    19739220.898  
  19739217.016  
  23530709.883   126005897.241                    98004584.730    23530713.703  
  23530709.340  
  22621351.906   118876043.366    22621358.121    92630693.3904                 
                
  22704743.242   119314263.393    22704749.438    92972193.2684   22704749.379  
                
  23694321.445   124514500.234    23694327.504    97024312.3784   23694327.762  
                
  20775770.070   111019445.166                    86348436.909    20775773.641  
  20775770.223  
  24282985.227   127607965.826    24282993.391    99434814.8604   24282993.195  
                
  21132451.367   111051802.170    21132459.676    86533901.6154   21132459.734  
                
  20064460.727   107293708.545                    83450662.557    20064464.484  
  20064459.441  
  21696459.367   116102138.192                    90301661.207    21696463.617  
  21696457.512  
  20336110.453   106866986.343    20336115.121    83273015.6364                 
                
  21468020.375   114839450.546                                                  
  21468018.539  
  23042566.680   123045987.822                    95702508.515    23042568.879  
  23042564.930  
  21951207.859   117341776.240                    91265808.771    21951211.809  
  21951207.473  
 21  8 15 23 34 30.0000000  0 17R 6G 6G17G15R14R 4G13G14G12R15G24R24
                                R17G19R23R13R 5
  23334251.281   124516033.478                                                  
  23334248.789  
  24146053.055   126888364.913    24146061.699    98874088.8094   24146062.391  
                
  21373248.445   112317208.008    21373253.809    87519934.9854   21373253.879  
                
  22561002.727   118558871.085    22561009.203    92383568.3534   22561009.055  
                
  19740426.445   105227615.384                    81843696.753    19740430.000  
  19740426.117  
  23538285.250   126046462.709                    98036135.649    23538289.039  
  23538284.703  
  22627716.109   118909487.510    22627722.266    92656753.7704                 
                
  22709773.781   119340699.003    22709779.961    92992792.4394   22709779.902  
                
  23688579.000   124484324.026    23688585.113    97000798.4704   23688585.414  
                
  20771465.719   110996444.021                    86330547.139    20771469.293  
  20771465.883  
  21128533.344   111031212.781    21128541.672    86517857.9324   21128541.727  
                
  20062961.375   107285690.903                    83444426.624    20062965.145  
  20062960.066  
  21688692.211   116060573.993                    90269333.477    21688696.352  
  21688690.266  
  20335159.484   106861989.004    20335164.125    83269121.6054                 
                
  21472685.617   114864406.424                                                  
  21472683.773  
  23048181.297   123075969.481                    95725827.537    23048183.480  
  23048179.520  
  21954907.656   117361553.693                    91281191.209    21954911.613  
  21954907.277  
 21  8 15 23 34 40.0000000  0 17R 6G 6G17G15R14R 4G13G14G12R15G24R24
                                R17G19R23R13R 5
  23330873.703   124498010.277                                                  
  23330871.180  
  24139795.617   126855481.601    24139804.160    98848465.4414   24139804.895  
                
  21376515.969   112334378.980    21376521.367    87533314.9654   21376521.398  
                
  22565793.320   118584045.799    22565799.836    92403185.0114   22565799.656  
                
  19741642.852   105234099.504                    81848739.954    19741646.410  
  19741642.523  
  23545862.164   126087036.725                    98067693.221    23545865.953  
  23545861.598  
  22634085.641   118942959.536    22634091.719    92682835.8824                 
                
  22714806.766   119367147.511    22714812.918    93013401.6564   22714812.867  
                
  23682839.297   124454161.883    23682845.430    96977295.5024   23682845.730  
                
  20767165.180   110973463.279                    86312673.225    20767168.773  
  20767165.371  
  21124623.227   111010664.969    21124631.570    86501846.6554   21124631.609  
                
  20061479.117   107277764.680                    83438261.779    20061482.895  
  20061477.785  
  21680931.625   116019045.431                    90237033.490    21680935.734  
  21680929.680  
  20334221.445   106857059.579    20334226.078    83265280.5004                 
                
  21477364.836   114889437.049                                                  
  21477362.973  
  23053799.141   123105967.826                    95749159.574    23053801.254  
  23053797.238  
  21958621.102   117381404.050                    91296630.385    21958625.070  
  21958620.750  
 21  8 15 23 34 50.0000000  0 17R 6G 6G17G15R14R 4G13G14G12R15G24R24
                                R17G19R23R13R 5
  23327510.398   124480063.059                                                  
  23327507.840  
  24133540.047   126822608.087    24133548.527    98822849.7214   24133549.273  
                
  21379792.578   112351597.651    21379798.020    87546732.1194   21379798.023  
                
  22570591.656   118609261.233    22570598.203    92422833.3934   22570598.012  
                
  19742866.547   105240622.513                    81853813.408    19742870.098  
  19742866.207  
  23553440.656   126127619.339                    98099257.503    23553444.441  
  23553440.098  
  22640460.508   118976459.548    22640466.570    92708939.8054                 
                
  22719842.258   119393609.122    22719848.367    93034021.0974   22719848.332  
                
  23677102.375   124424014.110    23677108.586    96953803.7364   23677108.855  
                
  20762868.500   110950503.125                    86294815.338    20762872.098  
  20762868.688  
  21120721.094   110990159.090    21120729.453    86485868.0454   21120729.480  
                
  20060014.016   107269930.176                    83432168.283    20060017.816  
  20060012.645  
  21673177.680   115977552.876                    90204761.510    21673181.836  
  21673175.797  
  20333296.367   106852198.308    20333301.016    83261492.5044                 
                
  21482058.062   114914542.653                                                  
  21482056.180  
  23059420.094   123135983.445                    95772505.048    23059422.230  
  23059418.137  
  21962348.180   117401327.381                    91312126.306    21962352.172  
  21962347.832  
 21  8 15 23 35  0.0000000  0 17R 6G 6G17G15R14R 4G13G14G12R15G24R24
                                R17G19R23R13R 5
  23324161.367   124462191.794                                                  
  23324158.805  
  24127286.344   126789744.796    24127294.891    98797241.9724   24127295.602  
                
  21383078.312   112368864.297    21383083.785    87560186.6394   21383083.770  
                
  22575397.766   118634517.539    22575404.328    92442513.6244   22575404.125  
                
  19744097.633   105247184.874                    81858917.467    19744101.180  
  19744097.277  
  23561020.836   126168210.852                    98130828.696    23561024.590  
  23561020.285  
  22646840.727   119009987.834    22646846.824    92735065.7324                 
                
  22724880.297   119420084.121    22724886.398    93054650.9694   22724886.371  
                
  23671368.273   124393881.170    23671374.504    96930323.5304   23671374.773  
                
  20758575.742   110927563.972                    86276973.769    20758579.344  
  20758575.938  
  21116826.992   110969695.489    21116835.355    86469922.3864   21116835.379  
                
  20058566.086   107262187.552                    83426146.252    20058569.906  
  20058564.691  
  21665430.523   115936096.890                    90172517.986    21665434.781  
  21665428.738  
  20332384.320   106847405.516    20332389.008    83257757.8674                 
                
  21486765.289   114939723.185                                                  
  21486763.395  
  23065044.117   123166016.524                    95795864.137    23065046.422  
  23065042.336  
  21966088.938   117421323.919                    91327679.148    21966092.977  
  21966088.535  
 21  8 15 23 35 10.0000000  0 17R 6G 6G17G15R14R 4G13G14G12R15G24R24
