     2.11           OBSERVATION DATA    M (MIXED)           RINEX VERSION / TYPE
EFT-CORS.RU                             20210817 144846 UTC PGM / RUN BY / DATE 
MDNG                                                        MARKER NAME         
                                                            MARKER NUMBER       
MDNG                EFT-CORS.RU                             OBSERVER / AGENCY   
0                   TRIMBLE BD970       2.0                 REC # / TYPE / VERS 
0                   UNKNOWN EXT NONE                        ANT # / TYPE        
  3463911.2830  3030468.2400  4402179.3760                  APPROX POSITION XYZ 
        0.0000        0.0000        0.0000                  ANTENNA: DELTA H/E/N
     1     1                                                WAVELENGTH FACT L1/2
     6    C1    L1    P2    L2    C2    P1                  # / TYPES OF OBSERV 
    10.000                                                  INTERVAL            
  2021     8    16    11    30    0.0000000     GPS         TIME OF FIRST OBS   
  2021     8    16    12    30    0.0000000     GPS         TIME OF LAST OBS    
     0                                                      RCV CLOCK OFFS APPL 
                                                            END OF HEADER       
 21  8 16 11 30  0.0000000  0 15R 6R21R22G32G31G 1R23G27G22G 8G21R 8
                                G10G 3R 7
  22703580.023   121150670.701                                                  
  22703577.727  
  23024700.445   123209789.757                    95829818.349    23024705.605  
  23024698.133  
  19661188.727   104952773.924                    81629958.671    19661191.555  
  19661186.977  
  20788162.617   109242566.933    20788170.992    85124134.7524   20788171.477  
                
  24462644.305   128552058.546    24462654.645   100170483.2934   24462654.777  
                
  21943371.469   115313228.229    21943381.785    89854504.9104   21943381.414  
                
  20808663.922   111312338.217                                                  
  20808662.582  
  23616676.719   124106439.477    23616686.609    96706365.1274   23616686.902  
                
  22608125.164   118806524.822    22608129.965    92576542.3294                 
                
  22182120.727   116567817.405    22182130.820    90832119.6334   22182131.332  
                
  21467249.812   112811184.823    21467255.852    87904855.2204                 
                
  20237946.500   108373309.692                    84290364.738    20237949.238  
  20237945.594  
  22613766.945   118836175.257    22613776.594    92599672.7774   22613776.082  
                
  24192360.500   127131713.895    24192370.906    99063722.2444   24192371.375  
                
  19576296.242   104793492.460                    81506048.972    19576300.758  
  19576294.578  
 21  8 16 11 30 10.0000000  0 15R 6R21R22G32G31G 1R23G27G22G 8G21R 8
                                G10G 3R 7
  22710487.883   121187532.317                                                  
  22710485.605  
  23032838.086   123253335.859                    95863687.499    23032843.281  
  23032835.820  
  19664940.656   104972801.986                    81645536.044    19664943.457  
  19664938.895  
  20789829.570   109251326.872    20789837.961    85130960.6874   20789838.438  
                
  24456136.172   128517858.360    24456146.445   100143833.8264   24456146.637  
                
  21937939.719   115284684.213    21937950.020    89832262.8234   21937949.641  
                
  20802890.062   111281451.971                                                  
  20802888.707  
  23623465.141   124142113.145    23623475.102    96734162.7664   23623475.430  
                
  22603715.953   118783354.393    22603720.766    92558487.4644                 
                
  22186610.820   116591412.988    22186620.945    90850505.7854   22186621.453  
                
  21464382.211   112796115.499    21464388.266    87893112.8984                 
                
  20234259.523   108353566.086                    84275008.605    20234262.262  
  20234258.621  
  22618397.578   118860509.370    22618407.246    92618634.4014   22618406.734  
                
  24186706.461   127102001.953    24186716.727    99040570.0404   24186717.273  
                
  19579065.203   104808314.960                    81517577.579    19579069.730  
  19579063.535  
 21  8 16 11 30 20.0000000  0 15R 6R21R22G32G31G 1R23G27G22G 8G21R 8
                                G10G 3R 7
  22717396.789   121224399.327                                                  
  22717394.492  
  23040980.125   123296905.978                    95897575.334    23040985.496  
  23040977.953  
  19668707.117   104992907.634                    81661173.763    19668709.902  
  19668705.371  
  20791507.375   109260143.814    20791515.785    85137831.0294   20791516.246  
                
  24449628.602   128483660.939    24449638.730   100117186.5414   24449639.020  
                
  21932513.211   115256167.724    21932523.477    89810042.1974   21932523.113  
                
  20797126.359   111250620.106                                                  
  20797124.977  
  23630256.352   124177801.520    23630266.438    96761971.8574   23630266.754  
                
  22599310.508   118760203.663    22599315.328    92540447.9554                 
                
  22191109.609   116615054.256    22191119.758    90868927.5474   22191120.258  
                
  21461520.836   112781078.871    21461526.891    87881396.0554                 
                
  20230582.664   108333876.664                    84259694.612    20230585.402  
  20230581.773  
  22623031.141   118884858.860    22623040.809    92637608.0184   22623040.285  
                
  24181054.445   127072301.410    24181064.965    99017426.8334   24181065.516  
                
  19581843.727   104823188.636                    81529145.994    19581848.270  
  19581842.051  
 21  8 16 11 30 30.0000000  0 15R 6R21R22G32G31G 1R23G27G22G 8G21R 8
                                G10G 3R 7
  22724306.555   121261270.923                                                  
  22724304.273  
  23049126.531   123340499.740                    95931481.535    23049132.098  
  23049124.457  
  19672488.070   105013090.642                    81676871.654    19672490.844  
  19672486.312  
  20793195.977   109269017.508    20793204.426    85144745.6004   20793204.855  
                
  24443121.516   128449466.258    24443131.633   100090541.3784   24443131.906  
                
  21927091.930   115227678.701    21927102.156    89787842.9574   21927101.809  
                
  20791372.828   111219842.653                                                  
  20791371.426  
  23637050.258   124213504.319    23637060.500    96789792.1874   23637060.797  
                
  22594908.773   118737072.542    22594913.605    92522423.7134                 
                
  22195617.109   116638741.249    22195627.281    90887384.9344   22195627.777  
                
  21458665.672   112766074.885    21458671.715    87869704.6334                 
                
  20226915.898   108314241.337                    84244422.699    20226918.633  
  20226915.020  
  22627667.586   118909223.528    22627677.238    92656593.4664   22627676.734  
                
  24175404.672   127042612.216    24175415.156    98994292.3704   24175415.762  
                
  19584631.820   104838113.538                    81540754.254    19584636.379  
  19584630.133  
 21  8 16 11 30 40.0000000  0 15R 6R21R22G32G31G 1R23G27G22G 8G21R 8
                                G10G 3R 7
  22731217.242   121298147.733                                                  
  22731214.941  
  23057277.273   123384117.271                    95965406.217    23057283.125  
  23057275.387  
  19676283.523   105033350.998                    81692629.691    19676286.297  
  19676281.754  
  20794895.406   109277948.118    20794903.902    85151704.5174   20794904.301  
                
  24436615.008   128415274.628    24436625.141   100063898.5984   24436625.422  
                
  21921675.922   115199217.418    21921686.137    89765665.3344   21921685.801  
                
  20785629.547   111189119.997                                                  
  20785628.133  
  23643846.984   124249221.662    23643857.320    96817623.8534   23643857.598  
                
  22590510.797   118713961.157    22590515.641    92504414.8534                 
                
  22200133.297   116662473.956    22200143.453    90905877.9384   22200143.938  
                
  21455816.750   112751103.716    21455822.770    87858038.7894                 
                
  20223259.297   108294660.414                    84229193.094    20223262.016  
  20223258.402  
  22632306.961   118933603.596    22632316.578    92675590.9014   22632316.109  
                
  24169757.195   127012934.501    24169767.758    98971166.9484   24169768.344  
                
  19587429.430   104853089.348                    81552402.099    19587433.992  
  19587427.742  
 21  8 16 11 30 50.0000000  0 15R 6R21R22G32G31G 1R23G27G22G 8G21R 8
                                G10G 3R 7
  22738128.773   121335029.014                                                  
  22738126.457  
  23065432.500   123427757.946                    95999348.911    23065438.477  
  23065430.637  
  19680093.367   105053688.233                    81708447.534    19680096.129  
  19680091.594  
  20796605.539   109286934.981    20796614.074    85158707.2704   20796614.445  
                
  24430109.055   128381085.580    24430119.117   100037257.8384   24430119.391  
                
  21916265.078   115170783.330    21916275.281    89743508.9224   21916274.949  
                
  20779896.383   111158451.472                                                  
  20779894.949  
  23650646.375   124284952.794    23650656.770    96845466.2674   23650657.043  
                
  22586116.477   118690868.933    22586121.332    92486420.9234                 
                
  22204658.000   116686251.372    22204668.141    90924405.7904   22204668.621  
                
  21452973.969   112736164.834    21452979.965    87846398.1034                 
                
  20219612.734   108275133.253                    84214005.304    20219615.438  
  20219611.828  
  22636949.133   118957998.354    22636958.754    92694599.7974   22636958.270  
                
  24164111.836   126983267.708    24164122.254    98948049.9654   24164122.883  
                
  19590236.492   104868115.798                    81564089.330    19590241.066  
  19590234.816  
 21  8 16 11 31  0.0000000  0 15R 6R21R22G32G31G 1R23G27G22G 8G21R 8
                                G10G 3R 7
  22745041.266   121371915.007                                                  
  22745038.832  
  23073592.141   123471421.954                    96033309.766    23073598.191  
  23073590.266  
  19683917.664   105074102.561                    81724325.351    19683920.410  
  19683915.867  
  20798326.461   109295978.484    20798335.023    85165754.1554   20798335.383  
                
  24423603.578   128346899.629    24423613.707   100010619.4944   24423613.980  
                
  21910859.531   115142376.967    21910869.703    89721374.0994   21910869.406  
                
  20774173.484   111127837.808                                                  
  20774172.059  
  23657448.461   124320698.077    23657458.914    96873319.7084   23657459.211  
                
  22581725.883   118667796.287    22581730.770    92468442.2474                 
                
  22209191.328   116710074.090    22209201.461    90942968.9394   22209201.926  
                
  21450137.438   112721258.747    21450143.430    87834782.9754                 
                
  20215976.266   108255660.121                    84198859.544    20215978.957  
  20215975.348  
  22641594.195   118982408.263    22641603.812    92713620.4944   22641603.324  
                
  24158468.664   126953612.333    24158479.059    98924941.8854   24158479.691  
                
  19593053.070   104883193.186                    81575816.189    19593057.656  
  19593051.422  
 21  8 16 11 31 10.0000000  0 15R 6R21R22G32G31G 1R23G27G22G 8G21R 8
                                G10G 3R 7
  22751954.375   121408805.438                                                  
  22751951.016  
  23081756.148   123515109.112                    96067288.618    23081762.211  
  23081754.219  
  19687756.438   105094594.148                    81740263.226    19687759.164  
  19687754.629  
  20800058.133   109305078.496    20800066.711    85172845.0724   20800067.070  
                
  24417098.711   128312716.798    24417108.922    99983983.5124   24417109.188  
                
  21905459.250   115113998.352    21905469.414    89699260.8924   21905469.141  
                
  20768460.859   111097279.123                                                  
  20768459.449  
  23664253.297   124356457.294    23664263.715    96901184.0114   23664264.027  
                
  22577339.008   118644743.186    22577343.867    92450478.7894                 
                
  22213733.258   116733942.055    22213743.383    90961567.3424   22213743.832  
                
  21447307.133   112706385.422    21447313.109    87823193.3694                 
                
  20212349.922   108236241.253                    84183755.982    20212352.621  
  20212348.996  
  22646242.109   119006833.180    22646251.711    92732652.8924   22646251.234  
                
  24152827.461   126923968.223    24152837.914    98901842.6404   24152838.586  
                
  19595879.094   104898321.087                    81587582.322    19595883.691  
  19595877.473  
 21  8 16 11 31 20.0000000  0 15R 6R21R22G32G31G 1R23G27G22G 8G21R 8
                                G10G 3R 7
  22758868.375   121445700.233                                                  
  22758865.195  
  23089924.453   123558819.227                    96101285.323    23089930.523  
  23089922.539  
  19691609.547   105115162.361                    81756260.717    19691612.281  
  19691607.750  
  20801800.508   109314234.754    20801809.094    85179979.8254   20801809.465  
                
  24410594.398   128278536.942    24410604.680    99957349.8264   24410604.949  
                
  21900064.227   115085647.330    21900074.430    89677169.2054   21900074.133  
                
  20762758.469   111066775.163                                                  
  20762757.043  
  23671060.688   124392230.185    23671071.125    96929058.9604   23671071.426  
                
  22572955.820   118621709.490    22572960.645    92432530.4694                 
                
  22218283.719   116757854.861    22218293.824    90980200.6784   22218294.309  
                
  21444483.031   112691544.689    21444489.004    87811629.1694                 
                
  20208733.617   108216876.146                    84168694.253    20208736.336  
  20208732.680  
  22650892.844   119031272.946    22650902.438    92751696.8574   22650901.957  
                
  24147188.578   126894335.289    24147199.008    98878752.0644   24147199.652  
                
  19598714.531   104913499.385                    81599387.680    19598719.137  
  19598712.934  
 21  8 16 11 31 30.0000000  0 15R 6R21R22G32G31G 1R23G27G22G 8G21R 8
                                G10G 3R 7
  22765783.336   121482599.490                                                  
  22765780.109  
  23098097.188   123602552.222                    96135299.825    23098103.133  
  23098095.176  
  19695477.047   105135807.325                    81772317.918    19695479.762  
  19695475.258  
  20803553.609   109323447.367    20803562.203    85187158.4874   20803562.582  
                
  24404090.812   128244360.618    24404101.141    99930719.0294   24404101.414  
                
  21894674.492   115057324.147    21894684.707    89655099.2064   21894684.391  
                
  20757066.391   111036326.326                                                  
  20757064.941  
  23677870.664   124428016.739    23677881.137    96956944.5704   23677881.418  
                
  22568576.367   118598695.334    22568581.152    92414597.3724                 
                
  22222842.703   116781812.482    22222852.777    90998868.9464   22222853.301  
                
  21441665.164   112676736.727    21441671.125    87800090.5004                 
                
  20205127.414   108197565.149                    84153674.602    20205130.137  
  20205126.461  
  22655546.430   119055727.612    22655556.043    92770752.4364   22655555.555  
                
  24141551.977   126864713.689    24141562.195    98855670.2894   24141562.805  
                
  19601559.352   104928727.882                    81611232.061    19601563.934  
  19601557.793  
 21  8 16 11 31 40.0000000  0 15R 6R21R22G32G31G 1R23G27G22G 8G21R 8
                                G10G 3R 7
  22772699.266   121519503.172                                                  
  22772696.168  
  23106274.195   123646308.055                    96169332.102    23106280.000  
  23106272.062  
  19699358.984   105156529.306                    81788435.014    19699361.676  
  19699357.188  
  20805317.445   109332716.373    20805326.059    85194381.0964   20805326.426  
                
  24397587.875   128210187.690    24397598.246    99904090.8414   24397598.508  
                
  21889290.086   115029028.981    21889300.289    89633051.0244   21889299.992  
                
  20751384.664   111005932.939                                                  
  20751383.211  
  23684683.195   124463817.001    23684693.750    96984840.8474   23684694.016  
                
  22564200.656   118575700.867    22564205.418    92396679.6114                 
                
  22227410.227   116805814.925    22227420.277    91017572.1364   22227420.828  
                
  21438853.578   112661961.737    21438859.516    87788577.5204                 
                
  20201531.359   108178308.443                    84138697.163    20201534.086  
  20201530.391  
  22660202.859   119080197.293    22660212.523    92789819.7174   22660212.027  
                
  24135917.312   126835103.469    24135927.551    98832597.4144   24135928.152  
                
  19604413.617   104944006.948                    81623115.779    19604418.199  
  19604412.066  
 21  8 16 11 31 50.0000000  0 15R 6R21R22G32G31G 1R23G27G22G 8G21R 8
                                G10G 3R 7
  22779615.844   121556411.054                                                  
  22779612.867  
  23114455.406   123690086.694                    96203382.114    23114461.109  
  23114453.207  
  19703255.281   105177328.011                    81804611.766    19703257.957  
  19703253.496  
  20807092.008   109342041.740    20807100.645    85201647.6204   20807101.004  
                
  24391085.609   128176018.358    24391096.055    99877465.4114   24391096.316  
                
  21883911.047   115000761.939    21883921.238    89611024.7604   21883920.969  
                
  20745713.336   110975595.089                                                  
  20745711.895  
  23691498.320   124499630.826    23691508.918    97012747.6964   23691509.160  
                
  22559828.688   118552726.084    22559833.426    92378777.1884                 
                
  22231986.281   116829862.191    22231996.324    91036310.2564   22231996.863  
                
  21436048.289   112647219.820    21436054.211    87777090.3144                 
                
  20197945.414   108159105.904                    84123761.856    20197948.129  
  20197944.457  
  22664862.156   119104681.992    22664871.848    92808898.6754   22664871.332  
                
  24130284.867   126805504.727    24130295.117    98809533.4784   24130295.684  
                
  19607277.250   104959336.188                    81635038.525    19607281.828  
  19607275.711  
 21  8 16 11 32  0.0000000  0 15R 6R21R22G32G31G 1R23G27G22G 8G21R 8
                                G10G 3R 7
  22786533.227   121593323.150                                                  
  22786530.316  
  23122640.820   123733887.933                    96237449.697    23122646.426  
  23122638.504  
  19707165.977   105198203.571                    81820848.305    19707168.660  
  19707164.199  
  20808877.266   109351423.351    20808885.930    85208957.9664   20808886.285  
                
  24384584.039   128141852.797    24384594.520    99850842.9414   24384594.797  
                
  21878537.352   114972523.020    21878547.535    89589020.4204   21878547.250  
                
  20740052.383   110945312.849                                                  
  20740050.953  
  23698316.031   124535458.073    23698326.645    97040664.9864   23698326.875  
                
  22555460.438   118529770.870    22555465.121    92360890.0144                 
                
  22236570.836   116853954.177    22236580.863    91055083.2214   22236581.402  
                
  21433249.273   112632510.978    21433255.172    87765628.8794                 
                
  20194369.586   108139957.557                    84108868.706    20194372.285  
  20194368.617  
  22669524.281   119129181.570    22669533.980    92827989.2544   22669533.473  
                
  24124654.625   126775917.369    24124664.750    98786478.3804   24124665.293  
                
  19610150.289   104974715.817                    81647000.455    19610154.879  
  19610148.746  
 21  8 16 11 32 10.0000000  0 15R 6R21R22G32G31G 1R23G27G22G 8G21R 8
                                G10G 3R 7
  22793451.422   121630239.601                                                  
  22793448.586  
  23130830.352   123777711.973                    96271535.029    23130836.031  
  23130828.117  
  19711091.109   105219156.097                    81837144.705    19711093.785  
  19711089.340  
  20810673.273   109360861.434    20810681.957    85216312.3174   20810682.289  
                
  24378083.281   128107691.382    24378093.770    99824223.7254   24378094.086  
                
  21873169.086   114944312.580    21873179.242    89567038.2684   21873178.973  
                
  20734401.922   110915086.656                                                  
  20734400.492  
  23705136.359   124571298.883    23705146.977    97068592.8624   23705147.176  
                
  22551095.992   118506835.559    22551100.625    92343018.3554                 
                
  22241163.938   116878091.040    22241173.938    91073891.1524   22241174.477  
                
  21430456.625   112617835.481    21430462.492    87754193.4254                 
                
  20190803.906   108120863.555                    84094017.828    20190806.602  
  20190802.922  
  22674189.281   119153696.298    22674198.996    92847091.6294   22674198.488  
                
  24119026.516   126746341.704    24119036.750    98763432.4484   24119037.254  
                
  19613032.773   104990145.947                    81659001.664    19613037.363  
  19613031.223  
 21  8 16 11 32 20.0000000  0 15R 6R21R22G32G31G 1R23G27G22G 8G21R 8
                                G10G 3R 7
  22800370.359   121667160.428                                                  
  22800367.613  
  23139024.133   123821558.478                    96305637.827    23139029.844  
  23139021.953  
  19715030.547   105240185.056                    81853500.543    19715033.188  
  19715028.789  
  20812479.977   109370355.716    20812488.672    85223710.4614   20812489.000  
                
  24371583.250   128073534.006    24371593.770    99797607.6504   24371594.113  
                
  21867806.203   114916130.514    21867816.359    89545078.2234   21867816.090  
                
  20728761.914   110884916.431                                                  
  20728760.492  
  23711959.273   124607152.924    23711969.797    97096531.0624   23711969.977  
                
  22546735.297   118483920.020    22546739.906    92325162.0924                 
                
  22245765.508   116902272.389    22245775.480    91092733.7544   22245776.035  
                
  21427670.273   112603193.132    21427676.109    87742783.8024                 
                
  20187248.367   108101823.827                    84079209.147    20187251.051  
  20187247.363  
  22678857.125   119178225.957    22678866.871    92866205.6314   22678866.352  
                
  24113400.531   126716777.525    24113410.738    98740395.4224   24113411.301  
                
  19615924.547   105005625.811                    81671041.558    19615929.133  
  19615922.984  
 21  8 16 11 32 30.0000000  0 15R 6R21R22G32G31G 1R23G27G22G 8G21R 8
                                G10G 3R 7
  22807290.008   121704084.929                                                  
  22807287.371  
  23147222.102   123865427.051                    96339757.796    23147227.773  
  23147219.910  
  19718984.328   105261290.489                    81869915.889    19718986.992  
  19718982.578  
  20814297.320   109379905.929    20814306.016    85231152.1834   20814306.348  
                
  24365084.023   128039380.539    24365094.535    99770994.6104   24365094.891  
                
  21862448.688   114887976.660    21862458.840    89523140.1644   21862458.570  
                
  20723132.359   110854802.141                                                  
  20723130.945  
  23718784.594   124643019.936    23718795.047    97124479.3654   23718795.230  
                
  22542378.320   118461023.990    22542382.926    92307321.0374                 
                
  22250375.477   116926497.909    22250385.441    91111610.7674   22250385.992  
                
  21424890.211   112588583.821    21424896.016    87731399.9244                 
                
  20183702.914   108082838.085                    84064442.465    20183705.598  
  20183701.906  
  22683527.758   119202770.297    22683537.508    92885331.0734   22683536.996  
                
  24107776.766   126687224.674    24107787.055    98717367.2614   24107787.605  
                
  19618825.641   105021155.670                    81683120.338    19618830.246  
  19618824.059  
 21  8 16 11 32 40.0000000  0 15R 6R21R22G32G31G 1R23G27G22G 8G21R 8
                                G10G 3R 7
  22814210.484   121741013.448                                                  
  22814207.863  
  23155424.219   123909317.909                    96373895.078    23155429.840  
  23155422.012  
  19722952.453   105282472.567                    81886390.832    19722955.121  
  19722950.715  
  20816125.359   109389512.342    20816134.055    85238637.7004   20816134.391  
                
  24358585.703   128005231.394    24358596.156    99744384.9344   24358596.512  
                
  21857096.633   114859851.451    21857106.785    89501224.4214   21857106.527  
                
  20717513.352   110824744.246                                                  
  20717511.953  
  23725612.406   124678900.088    23725622.816    97152437.8984   23725623.000  
                
  22538025.109   118438147.724    22538029.707    92289495.3864                 
                
  22254993.883   116950767.698    22255003.855    91130522.2794   22255004.406  
                
  21422116.516   112574007.957    21422122.293    87720042.0974                 
                
  20180167.609   108063906.714                    84049718.072    20180170.289  
  20180166.602  
  22688201.258   119227329.606    22688210.992    92904468.1904   22688210.484  
                
  24102155.250   126657683.470    24102165.387    98694348.1214   24102166.000  
                
  19621736.039   105036735.252                    81695237.788    19621740.656  
  19621734.449  
 21  8 16 11 32 50.0000000  0 15R 6R21R22G32G31G 1R23G27G22G 8G21R 8
                                G10G 3R 7
  22821131.641   121777945.723                                                  
  22821128.988  
  23163630.500   123953230.895                    96408049.570    23163636.078  
  23163628.238  
  19726934.930   105303731.210                    81902925.317    19726937.547  
  19726933.191  
  20817964.062   109399174.840    20817972.766    85246166.9134   20817973.102  
                
  24352088.031   127971086.599    24352098.602    99717778.6664   24352098.949  
                
  21851750.023   114831754.884    21851760.191    89479330.9974   21851759.922  
                
  20711904.914   110794742.886                                                  
  20711903.535  
  23732442.656   124714793.243    23732453.059    97180406.5644   23732453.258  
                
  22533675.656   118415291.290    22533680.254    92271685.1764                 
                
  22259620.734   116975081.969    22259630.711    91149468.4514   22259631.254  
                
  21419349.156   112559465.448    21419354.922    87708710.2784                 
                
  20176642.453   108045029.700                    84035035.960    20176645.121  
  20176641.426  
  22692877.586   119251903.808    22692887.309    92923616.9054   22692886.824  
                
  24096535.828   126628153.825    24096546.055    98671338.0424   24096546.637  
                
  19624655.758   105052364.783                    81707394.085    19624660.379  
  19624654.168  
 21  8 16 11 33  0.0000000  0 15R 6R21R22G32G31G 1R23G27G22G 8G21R 8
                                G10G 3R 7
  22828053.578   121814882.055                                                  
  22828050.918  
  23171840.805   123997165.987                    96442221.277    23171846.438  
  23171838.645  
  19730931.695   105325066.181                    81919519.192    19730934.285  
  19730929.969  
  20819813.453   109408893.434    20819822.168    85253739.8474   20819822.504  
                
  24345591.312   127936946.381    24345601.934    99691175.9474   24345602.281  
                
  21846408.898   114803687.103    21846419.094    89457460.0054   21846418.801  
                
  20706307.062   110764798.148                                                  
  20706305.684  
  23739275.406   124750699.320    23739285.793    97208385.3054   23739285.984  
                
  22529330.016   118392454.792    22529334.637    92253890.5174                 
                
  22264256.000   116999440.330    22264265.992    91168448.9824   22264266.527  
                
  21416588.195   112544956.470    21416593.961    87697404.5824                 
                
  20173127.438   108026206.959                    84020396.062    20173130.105  
  20173126.402  
  22697556.758   119276492.946    22697566.480    92942777.2584   22697566.012  
                
  24090918.641   126598635.866    24090928.887    98648337.0774   24090929.523  
                
  19627584.805   105068044.126                    81719589.133    19627589.418  
  19627583.219  
 21  8 16 11 33 10.0000000  0 15R 6R21R22G32G31G 1R23G27G22G 8G21R 8
                                G10G 3R 7
  22834976.125   121851821.749                                                  
  22834973.434  
  23180055.141   124041122.655                    96476409.740    23180060.836  
  23180053.066  
  19734942.750   105346477.430                    81936172.365    19734945.344  
  19734941.012  
  20821673.453   109418667.779    20821682.176    85261356.2214   20821682.508  
                
  24339095.500   127902810.577    24339106.113    99664576.6624   24339106.434  
                
  21841073.211   114775647.905    21841083.430    89435611.2864   21841083.121  
                
  20700719.781   110734909.998                                                  
  20700718.375  
  23746110.586   124786617.918    23746120.918    97236373.7994   23746121.117  
                
  22524988.086   118369637.846    22524992.738    92236111.0984                 
                
  22268899.586   117023842.464    22268909.613    91187463.6174   22268910.117  
                
  21413833.570   112530480.804    21413839.355    87686124.8444                 
                
  20169622.523   108007438.374                    84005798.299    20169625.207  
  20169621.457  
  22702238.703   119301096.675    22702248.441    92961948.9834   22702247.961  
                
  24085303.773   126569129.342    24085313.902    98625344.9564   24085314.539  
                
  19630523.062   105083772.848                    81731822.578    19630527.680  
  19630521.480  
 21  8 16 11 33 20.0000000  0 15R 6R21R22G32G31G 1R23G27G22G 8G21R 8
                                G10G 3R 7
  22841899.227   121888764.638                                                  
  22841896.555  
  23188273.531   124085100.680                    96510614.826    23188279.242  
  23188271.422  
  19738968.000   105367964.505                    81952884.526    19738970.598  
  19738966.266  
  20823544.008   109428497.642    20823552.738    85269015.8504   20823553.070  
                
  24332600.531   127868679.139    24332611.105    99637980.7954   24332611.395  
                
  21835742.930   114747637.181    21835753.152    89413784.7564   21835752.828  
                
  20695143.047   110705078.295                                                  
  20695141.633  
  23752948.000   124822548.774    23752958.371    97264371.8504   23752958.578  
                
  22520649.852   118346840.294    22520654.559    92218346.7794                 
                
  22273551.477   117048288.243    22273561.508    91206512.2634   22273562.000  
                
  21411085.242   112516038.300    21411091.055    87674870.9534                 
                
  20166127.688   107988723.771                    83991242.488    20166130.371  
  20166126.609  
  22706923.398   119325714.797    22706933.137    92981131.9284   22706932.660  
                
  24079691.031   126539634.063    24079701.156    98602361.6584   24079701.770  
                
  19633470.453   105099550.529                    81744094.106    19633475.066  
  19633468.883  
 21  8 16 11 33 30.0000000  0 15R 6R21R22G32G31G 1R23G27G22G 8G21R 8
                                G10G 3R 7
  22848823.102   121925711.303                                                  
  22848820.469  
  23196495.797   124129100.366                    96544836.770    23196501.676  
  23196493.824  
  19743007.539   105389527.749                    81969655.928    19743010.125  
  19743005.809  
  20825425.219   109438383.457    20825433.961    85276719.0874   20825434.285  
                
  24326106.586   127834552.739    24326117.051    99611388.8354   24326117.324  
                
  21830418.180   114719655.502    21830428.391    89391980.8544   21830428.066  
                
  20689576.992   110675303.721                                                  
  20689575.570  
  23759787.867   124858492.267    23759798.227    97292379.7354   23759798.449  
                
  22516315.414   118324062.737    22516320.160    92200598.0404                 
                
  22278211.742   117072778.007    22278221.742    91225595.1784   22278222.250  
                
  21408343.336   112501629.487    21408349.180    87663643.3074                 
                
  20162643.031   107970063.630                    83976729.063    20162645.715  
  20162641.953  
  22711610.922   119350347.807    22711620.680    93000326.4674   22711620.199  
                
  24074080.477   126510150.478    24074090.566    98579387.4624   24074091.180  
                
  19636427.148   105115377.936                    81756404.313    19636431.770  
  19636425.578  
 21  8 16 11 33 40.0000000  0 15R 6R21R22G32G31G 1R23G27G22G 8G21R 8
                                G10G 3R 7
  22855747.594   121962661.254                                                  
  22855744.988  
  23204722.141   124173121.529                    96579075.395    23204728.086  
  23204720.211  
  19747061.352   105411167.210                    81986486.611    19747063.961  
  19747059.633  
  20827317.016   109448324.938    20827325.758    85284465.6924   20827326.090  
                
  24319613.547   127800431.145    24319623.895    99584800.6194   24319624.164  
                
  21825098.922   114691702.706    21825109.109    89370199.4674   21825108.781  
                
  20684021.609   110645586.202                                                  
  20684020.172  
  23766630.031   124894448.029    23766640.422    97320397.1874   23766640.645  
                
  22511984.742   118301304.919    22511989.488    92182864.6984                 
                
  22282880.289   117097311.341    22282890.281    91244712.0584   22282890.797  
                
  21405607.812   112487254.234    21405613.680    87652441.8174                 
                
  20159168.492   107951457.664                    83962257.758    20159171.164  
  20159167.418  
  22716301.219   119374995.408    22716311.008    93019532.3824   22716310.496  
                
  24068472.219   126480678.463    24068482.254    98556422.2754   24068482.820  
                
  19639392.992   105131254.344                    81768752.621    19639397.594  
  19639391.410  
 21  8 16 11 33 50.0000000  0 15R 6R21R22G32G31G 1R23G27G22G 8G21R 8
                                G10G 3R 7
  22862672.672   121999614.487                                                  
  22862670.086  
  23212952.484   124217163.836                    96613330.501    23212958.453  
  23212950.602  
  19751129.359   105432882.541                    82003376.313    19751131.984  
  19751127.652  
  20829219.398   109458321.993    20829228.148    85292255.6134   20829228.469  
                
  24313121.445   127766314.469    24313131.668    99558216.2304   24313131.957  
                
  21819785.188   114663778.896    21819795.375    89348440.6574   21819795.031  
                
  20678476.914   110615925.886                                                  
  20678475.473  
  23773474.469   124930415.985    23773484.949    97348424.1334   23773485.156  
                
  22507657.828   118278566.799    22507662.555    92165146.6904                 
                
  22287557.117   117121888.167    22287567.109    91263862.8094   22287567.621  
                
  21402878.680   112472912.536    21402884.574    87641266.4604                 
                
  20155704.070   107932905.840                    83947828.579    20155706.734  
  20155702.996  
  22720994.305   119399657.592    22721004.102    93038749.6654   22721003.574  
                
  24062866.164   126451218.006    24062876.141    98533466.0694   24062876.656  
                
  19642368.016   105147179.873                    81781139.149    19642372.594  
  19642366.430  
 21  8 16 11 34  0.0000000  0 15R 6R21R22G32G31G 1R23G27G22G 8G21R 8
                                G10G 3R 7
  22869598.336   122036571.131                                                  
  22869595.742  
  23221186.875   124261227.519                    96647602.199    23221192.832  
  23221184.965  
  19755211.586   105454673.739                    82020325.018    19755214.238  
  19755209.891  
  20831132.359   109468374.717    20831141.109    85300088.9064   20831141.422  
                
  24306630.258   127732202.983    24306640.410    99531635.8864   24306640.727  
                
  21814477.008   114635884.264    21814487.211    89326704.5914   21814486.836  
                
  20672942.969   110586322.993                                                  
  20672941.523  
  23780321.242   124966396.115    23780331.754    97376460.5684   23780331.953  
                
  22503334.703   118255848.597    22503339.402    92147444.1974                 
                
  22292242.234   117146508.618    22292252.219    91283047.5604   22292252.750  
                
  21400155.961   112458604.588    21400161.875    87630117.4154                 
                
  20152249.812   107914408.452                    83933441.718    20152252.457  
  20152248.742  
  22725690.172   119424334.450    22725700.000    93057978.3704   22725699.461  
                
  24057262.219   126421769.209    24057272.219    98510518.9644   24057272.711  
                
  19645352.203   105163154.485                    81793563.846    19645356.777  
  19645350.621  
 21  8 16 11 34 10.0000000  0 15R 6R21R22G32G31G 1R23G27G22G 8G21R 8
                                G10G 3R 7
  22876524.656   122073531.137                                                  
  22876522.020  
  23229425.234   124305312.423                    96681890.418    23229431.211  
  23229423.305  
  19759308.086   105476541.113                    82037332.963    19759310.727  
  19759306.406  
  20833055.930   109478483.148    20833064.672    85307965.6074   20833064.992  
                
  24300140.125   127698096.905    24300150.227    99505059.7474   24300150.535  
                
  21809174.406   114608018.972    21809184.605    89304991.3854   21809184.215  
                
  20667419.812   110556777.898                                                  
  20667418.336  
  23787170.305   125002388.466    23787180.836    97404506.5194   23787181.047  
                
  22499015.375   118233150.379    22499020.062    92129757.2824                 
                
  22296935.594   117171172.381    22296945.586    91302266.0644   22296946.121  
                
  21397439.711   112444330.596    21397445.645    87618994.8274                 
                
  20148805.703   107895965.435                    83919097.150    20148808.344  
  20148804.625  
  22730388.844   119449026.055    22730398.668    93077218.5734   22730398.129  
                
  24051660.523   126392332.181    24051670.645    98487581.0754   24051671.078  
                
  19648345.602   105179178.339                    81806026.836    19648350.164  
  19648344.035  
 21  8 16 11 34 20.0000000  0 15R 6R21R22G32G31G 1R23G27G22G 8G21R 8
                                G10G 3R 7
  22883451.555   122110494.185                                                  
  22883448.883  
  23237667.422   124349418.114                    96716194.771    23237673.453  
  23237665.531  
  19763418.781   105498484.175                    82054399.788    19763421.398  
  19763417.086  
  20834990.055   109488647.077    20834998.797    85315885.5504   20834999.113  
                
  24293650.977   127663996.294    24293661.133    99478487.9194   24293661.406  
                
  21803877.391   114580182.967    21803887.574    89283300.9974   21803887.180  
                
  20661907.438   110527290.408                                                  
  20661905.965  
  23794021.688   125038392.685    23794032.164    97432561.7344   23794032.422  
                
  22494699.812   118210471.936    22494704.508    92112085.7754                 
                
  22301637.203   117195879.434    22301647.176    91321518.2994   22301647.715  
                
  21394729.906   112430090.456    21394735.855    87607898.6174                 
                
  20145371.734   107877576.712                    83904794.834    20145374.371  
  20145370.660  
  22735090.281   119473732.223    22735100.047    93096470.1424   22735099.535  
                
  24046061.062   126362906.785    24046071.195    98464652.2114   24046071.641  
                
  19651348.141   105195251.091                    81818527.870    19651352.691  
  19651346.590  
 21  8 16 11 34 30.0000000  0 15R 6R21R22G32G31G 1R23G27G22G 8G21R 8
                                G10G 3R 7
  22890379.062   122147460.720                                                  
  22890376.355  
  23245913.578   124393544.952                    96750515.569    23245919.641  
  23245911.672  
  19767543.695   105520503.219                    82071525.709    19767546.340  
  19767542.000  
  20836934.773   109498866.665    20836943.520    85323848.8564   20836943.828  
                
  24287162.930   127629901.353    24287173.062    99451920.5014   24287173.344  
                
  21798585.992   114552376.554    21798596.191    89261633.6634   21798595.785  
                
  20656405.898   110497860.985                                                  
  20656404.441  
  23800875.398   125074408.912    23800885.797    97460626.2934   23800886.098  
                
  22490388.055   118187813.512    22490392.766    92094429.8564                 
                
  22306347.062   117220629.870    22306356.973    91340804.3364   22306357.547  
                
  21392026.578   112415884.418    21392032.551    87596828.9794                 
                
  20141947.945   107859242.543                    83890534.928    20141950.582  
  20141946.859  
  22739794.531   119498453.168    22739804.277    93115733.1954   22739803.781  
                
  24040463.914   126333493.323    24040474.047    98441732.6224   24040474.441  
                
  19654359.797   105211372.740                    81831066.924    19654364.352  
  19654358.258  
 21  8 16 11 34 40.0000000  0 15R 6R21R22G32G31G 1R23G27G22G 8G21R 8
                                G10G 3R 7
  22897306.992   122184429.707                                                  
  22897304.305  
  23254163.602   124437692.257                    96784852.339    23254169.664  
  23254161.680  
  19771682.719   105542597.492                    82088710.126    19771685.348  
  19771681.016  
  20838889.961   109509141.288    20838898.715    85331855.0594   20838899.031  
                
  24280675.789   127595811.581    24280685.957    99425357.1134   24280686.230  
                
  21793300.141   114524599.224    21793310.387    89239989.0054   21793309.961  
                
  20650915.148   110468489.146                                                  
  20650913.707  
  23807731.312   125110436.518    23807741.605    97488699.7254   23807741.941  
                
  22486080.008   118165174.572    22486084.727    92076789.1434                 
                
  22311065.055   117245423.017    22311074.906    91360123.6674   22311075.516  
                
  21389329.656   112401711.965    21389335.656    87585785.5124                 
                
  20138534.234   107840962.311                    83876316.985    20138536.867  
  20138533.141  
  22744501.469   119523188.286    22744511.258    93135007.2884   22744510.742  
                
  24034868.922   126304091.174    24034879.047    98418821.8684   24034879.414  
                
  19657380.492   105227542.709                    81843643.571    19657385.039  
  19657378.949  
 21  8 16 11 34 50.0000000  0 15R 6R21R22G32G31G 1R23G27G22G 8G21R 8
                                G10G 3R 7
  22904235.602   122221401.836                                                  
  22904232.812  
  23262417.562   124481860.542                    96819205.429    23262423.582  
  23262415.617  
  19775835.945   105564767.659                    82105953.583    19775838.582  
  19775834.227  
  20840855.750   109519471.604    20840864.504    85339904.6584   20840864.820  
                
  24274189.828   127561727.849    24274200.020    99398798.4154   24274200.266  
                
  21788019.969   114496851.777    21788030.277    89218367.6284   21788029.816  
                
  20645435.320   110439175.811                                                  
  20645433.879  
  23814589.484   125146476.055    23814599.715    97516782.4484   23814600.055  
                
  22481775.812   118142555.848    22481780.539    92059164.1694                 
                
  22315791.289   117270259.538    22315801.098    91379476.7934   22315801.719  
                
  21386639.250   112387573.821    21386645.270    87574768.7734                 
                
  20135130.742   107822736.837                    83862141.625    20135133.371  
  20135129.660  
  22749211.234   119547938.252    22749221.070    93154292.9634   22749220.531  
                
  24029276.156   126274701.082    24029286.250    98395920.4874   24029286.621  
                
  19660410.328   105243761.669                    81856258.319    19660414.887  
  19660408.770  
 21  8 16 11 35  0.0000000  0 15R 6R21R22G32G31G 1R23G27G22G 8G21R 8
                                G10G 3R 7
  22911164.609   122258377.226                                                  
  22911161.836  
  23270675.359   124526049.415                    96853574.508    23270681.355  
  23270673.398  
  19780003.391   105587013.769                    82123256.116    19780006.074  
  19780001.672  
  20842832.117   109529857.489    20842840.871    85347997.5574   20842841.191  
                
  24267705.070   127527650.231    24267715.266    99372244.4554   24267715.480  
                
  21782745.500   114469134.262    21782755.844    89196769.5774   21782755.371  
                
  20639966.469   110409921.102                                                  
  20639965.027  
  23821450.000   125182527.393    23821460.059    97544874.3824   23821460.395  
                
  22477475.477   118119957.397    22477480.238    92041554.9994                 
                
  22320525.766   117295139.329    22320535.516    91398863.6314   22320536.172  
                
  21383955.398   112373470.033    21383961.434    87563778.8064                 
                
  20131737.461   107804565.981                    83848008.743    20131740.098  
  20131736.375  
  22753923.820   119572702.999    22753933.688    93173590.1484   22753933.141  
                
  24023685.680   126245323.026    24023695.918    98373028.5514   24023696.234  
                
  19663449.273   105260029.427                    81868911.020    19663453.844  
  19663447.699  
 21  8 16 11 35 10.0000000  0 15R 6R21R22G32G31G 1R23G27G22G 8G21R 8
                                G10G 3R 7
  22918093.961   122295354.823                                                  
  22918091.387  
  23278936.898   124570258.439                    96887959.270    23278942.926  
  23278934.945  
  19784184.906   105609334.963                    82140617.037    19784187.590  
  19784183.195  
  20844818.930   109540298.263    20844827.688    85356133.2264   20844828.023  
                
  24261221.383   127493578.183    24261231.543    99345694.8684   24261231.738  
                
  21777476.617   114441446.096    21777486.977    89175194.3784   21777486.492  
                
  20634508.461   110380724.486                                                  
  20634507.008  
  23828312.547   125218589.762    23828322.473    97572974.9174   23828322.820  
                
  22473178.859   118097378.514    22473183.691    92023961.0754                 
                
  22325268.281   117320061.353    22325278.000    91418283.3754   22325278.680  
                
  21381277.953   112359399.996    21381284.016    87552815.1494                 
                
  20128354.227   107786448.954                    83833917.728    20128356.859  
  20128353.137  
  22758639.078   119597481.807    22758648.973    93192898.3024   22758648.426  
                
  24018097.430   126215956.358    24018107.570    98350145.4204   24018107.918  
                
  19666497.172   105276345.068                    81881600.967    19666501.750  
  19666495.590  
 21  8 16 11 35 20.0000000  0 15R 6R21R22G32G31G 1R23G27G22G 8G21R 8
                                G10G 3R 7
  22925023.812   122332334.897                                                  
  22925019.844  
  23287202.227   124614487.511                    96922359.584    23287208.223  
  23287200.215  
  19788380.500   105631731.322                    82158036.418    19788383.203  
  19788378.777  
  20846816.211   109550794.035    20846824.965    85364311.7524   20846825.309  
                
  24254738.836   127459512.120    24254748.973    99319149.9264   24254749.152  
                
  21772213.359   114413787.537    21772223.730    89153642.2674   21772223.234  
                
  20629061.375   110351586.271                                                  
  20629059.922  
  23835177.141   125254663.231    23835187.016    97601084.0874   23835187.371  
                
  22468886.000   118074819.395    22468890.891    92006382.5394                 
                
  22330018.914   117345026.045    22330028.617    91437736.3794   22330029.312  
                
  21378606.992   112345363.959    21378613.066    87541877.9724                 
                
  20124981.117   107768386.167                    83819868.898    20124983.750  
  20124980.008  
  22763357.062   119622274.912    22763366.977    93212217.5974   22763366.418  
                
  24012511.383   126186601.340    24012521.598    98327271.4054   24012521.898  
                
  19669554.070   105292708.912                    81894328.390    19669558.660  
  19669552.484  
 21  8 16 11 35 30.0000000  0 15R 6R21R22G32G31G 1R23G27G22G 8G21R 8
                                G10G 3R 7
  22931954.453   122369317.966                                                  
  22931950.871  
  23295471.281   124658737.035                    96956775.853    23295477.328  
  23295469.336  
  19792590.289   105654203.421                    82175514.701    19792593.031  
  19792588.566  
  20848824.039   109561345.254    20848832.793    85372533.4824   20848833.137  
                
  24248257.477   127425452.633    24248267.621    99292610.1214   24248267.785  
                
  21766955.852   114386159.188    21766966.227    89132113.6884   21766965.730  
                
  20623625.328   110322507.103                                                  
  20623623.863  
  23842043.898   125290748.200    23842053.773    97629202.2084   23842054.117  
                
  22464597.008   118052280.562    22464601.891    91988819.8194                 
                
  22334777.711   117370033.648    22334787.434    91457222.8194   22334788.125  
                
  21375942.602   112331362.456    21375948.699    87530967.7134                 
                
  20121618.250   107750378.187                    83805862.695    20121620.887  
  20121617.117  
  22768077.844   119647082.760    22768087.754    93231548.3814   22768087.203  
                
  24006927.484   126157258.407    24006937.766    98304406.8054   24006938.109  
                
  19672620.062   105309121.403                    81907093.654    19672624.664  
  19672618.492  
 21  8 16 11 35 40.0000000  0 15R 6R21R22G32G31G 1R23G27G22G 8G21R 8
                                G10G 3R 7
  22938885.602   122406303.751                                                  
  22938882.293  
  23303744.094   124703006.776                    96991207.809    23303750.207  
  23303742.234  
  19796814.211   105676750.948                    82193051.658    19796816.922  
  19796812.484  
  20850842.383   109571951.723    20850851.141    85380798.2654   20850851.480  
                
  24241777.383   127391399.684    24241787.520    99266075.4044   24241787.672  
                
  21761704.086   114358560.973    21761714.465    89110608.5914   21761713.953  
                
  20618200.320   110293487.012                                                  
  20618198.855  
  23848912.789   125326844.460    23848922.676    97657329.1564   23848923.031  
                
  22460311.836   118029761.880    22460316.727    91971272.8084                 
                
  22339544.633   117395083.929    22339554.406    91476742.5014   22339555.078  
                
  21373284.766   112317395.440    21373290.887    87520084.3284                 
                
  20118265.555   107732424.693                    83791898.872    20118268.203  
  20118264.414  
  22772801.398   119671905.190    22772811.285    93250890.5224   22772810.758  
                
  24001345.906   126127927.467    24001356.297    98281551.5514   24001356.641  
                
  19675695.086   105325582.196                    81919896.487    19675699.680  
  19675693.539  
 21  8 16 11 35 50.0000000  0 15R 6R21R22G32G31G 1R23G27G22G 8G21R 8
                                G10G 3R 7
  22945817.133   122443291.796                                                  
  22945814.074  
  23312020.648   124747296.335                    97025655.210    23312026.812  
  23312018.820  
  19801052.164   105699373.454                    82210646.935    19801054.898  
  19801050.422  
  20852871.164   109582613.072    20852879.930    85389105.8094   20852880.258  
                
  24235298.477   127357353.043    24235308.633    99239545.6204   24235308.758  
                
  21756458.000   114330992.661    21756468.367    89089126.8024   21756467.871  
                
  20612786.312   110264525.776                                                  
  20612784.848  
  23855783.828   125362951.513    23855793.637    97685464.5024   23855793.977  
                
  22456030.445   118007263.026    22456035.359    91953741.2394                 
                
  22344319.609   117420176.591    22344329.453    91496295.2094   22344330.109  
                
  21370633.445   112303462.659    21370639.594    87509227.6134                 
                
  20114923.000   107714525.509                    83777977.290    20114925.648  
  20114921.871  
  22777527.664   119696741.841    22777537.492    93270243.7524   22777537.000  
                
  23995766.578   126098608.202    23995777.035    98258705.4014   23995777.352  
                
  19678779.062   105342090.929                    81932736.616    19678783.664  
  19678777.535  
 21  8 16 11 36  0.0000000  0 15R 6R21R22G32G31G 1R23G27G22G 8G21R 8
                                G10G 3R 7
  22952749.078   122480282.392                                                  
  22952746.254  
  23320300.898   124791605.815                    97060118.097    23320307.148  
  23320299.113  
  19805304.203   105722071.114                    82228300.655    19805306.945  
  19805302.441  
  20854910.430   109593329.500    20854919.203    85397456.2714   20854919.535  
                
  24228820.875   127323313.002    24228830.980    99213020.9684   24228831.109  
                
  21751217.664   114303454.593    21751228.023    89067668.5714   21751227.531  
                
  20607383.406   110235623.861                                                  
  20607381.938  
  23862656.875   125399069.582    23862666.680    97713608.4254   23862667.023  
                
  22451752.883   117984784.266    22451757.793    91936225.3304                 
                
  22349102.641   117445311.561    22349112.559    91515880.8774   22349113.207  
                
  21367988.688   112289564.359    21367994.859    87498397.7724                 
                
  20111590.633   107696680.872                    83764098.148    20111593.305  
  20111589.512  
  22782256.672   119721592.962    22782266.469    93289608.2504   22782265.996  
                
  23990189.570   126069300.916    23990199.977    98235868.5634   23990200.312  
                
  19681872.023   105358647.767                    81945614.167    19681876.633  
  19681870.496  
 21  8 16 11 36 10.0000000  0 15R 6R21R22G32G31G 1R23G27G22G 8G21R 8
                                G10G 3R 7
  22959681.695   122517275.452                                                  
