     2.11           OBSERVATION DATA    M (MIXED)           RINEX VERSION / TYPE
EFT-CORS.RU                             20210817 145253 UTC PGM / RUN BY / DATE 
MDNG                                                        MARKER NAME         
                                                            MARKER NUMBER       
MDNG                EFT-CORS.RU                             OBSERVER / AGENCY   
0                   TRIMBLE BD970       2.0                 REC # / TYPE / VERS 
0                   UNKNOWN EXT NONE                        ANT # / TYPE        
  3463911.2830  3030468.2400  4402179.3760                  APPROX POSITION XYZ 
        0.0000        0.0000        0.0000                  ANTENNA: DELTA H/E/N
     1     1                                                WAVELENGTH FACT L1/2
     6    C1    L1    P2    L2    C2    P1                  # / TYPES OF OBSERV 
    10.000                                                  INTERVAL            
  2021     8    15    12    30    0.0000000     GPS         TIME OF FIRST OBS   
  2021     8    15    13    30    0.0000000     GPS         TIME OF LAST OBS    
     0                                                      RCV CLOCK OFFS APPL 
                                                            END OF HEADER       
 21  8 15 12 30  0.0000000  0 17G17R23R 8G31G 1G22G21R15R 7R16G32R21
                                R22G 8R 6G 3G10
  24581238.672   129175288.581    24581247.066   100656104.2724   24581246.961  
                
  22739241.688   121639626.402                                                  
  22739240.082  
  22304879.109   119441641.550                    92899059.733    22304883.199  
  22304878.141  
  22451429.961   117983108.343    22451437.082    91934945.9694   22451437.441  
                
  20511956.516   107791110.624    20511966.504    83993124.9844   20511966.051  
                
  21354439.383   112218384.075    21354443.836    87442877.4514                 
                
  20915220.094   109910273.132    20915226.402    85644410.9774                 
                
  23480867.852   125474632.608                    97591386.686    23480873.465  
  23480867.781  
  19604528.062   104944632.527                    81623621.973    19604532.836  
  19604526.461  
  22935007.805   122514698.657                    95289236.329    22935011.023  
  22935007.016  
  21880066.773   114980566.843    21880075.672    89595303.4404   21880075.914  
                
  21341679.258   114203656.349                    88825074.382    21341683.852  
  21341677.383  
  19516384.000   104179836.332                    81028782.830    19516386.590  
  19516382.059  
  24051765.828   126392866.502    24051777.770    98487999.7184   24051778.215  
                
  20666541.242   110280664.303                                                  
  20666538.898  
  22432859.266   117885520.273    22432868.984    91858896.0684   22432869.258  
                
  24304098.883   127718890.712    24304109.703    99521269.2394   24304109.293  
                
 21  8 15 12 30 10.0000000  0 17G17R23R 8G31G 1G22G21R15R 7R16G32R21
                                R22G 8R 6G 3G10
  24577407.234   129155154.454    24577415.648   100640415.3584   24577415.539  
                
  22731900.781   121600357.612                                                  
  22731899.176  
  22299408.359   119412345.933                    92876274.326    22299412.434  
  22299407.410  
  22446378.914   117956564.859    22446386.039    91914262.7434   22446386.375  
                
  20509160.633   107776418.116    20509170.578    83981676.2794   20509170.145  
                
  21351454.953   112202700.800    21351459.398    87430656.7284                 
                
  20914970.273   109908960.314    20914976.570    85643388.0004                 
                
  23482235.070   125481938.628                    97597069.137    23482240.703  
  23482235.008  
  19603697.797   104940188.066                    81620165.184    19603702.570  
  19603696.211  
  22930406.039   122490116.946                    95270117.232    22930409.316  
  22930405.254  
  21884659.445   115004701.417    21884668.371    89614109.5964   21884668.598  
                
  21349044.172   114243067.334                    88855727.352    21349048.746  
  21349042.293  
  19517323.008   104184848.932                    81032681.513    19517325.598  
  19517321.055  
  24058047.062   126425874.597    24058059.000    98513720.2934   24058059.457  
                
  20671360.531   110306380.937                                                  
  20671358.152  
  22428126.992   117860652.084    22428136.711    91839518.2724   22428136.988  
                
  24309485.305   127747196.495    24309496.172    99543325.6684   24309495.758  
                
 21  8 15 12 30 20.0000000  0 17G17R23R 8G31G 1G22G21R15R 7R16G32R21
                                R22G 8R 6G 3G10
  24573584.812   129135067.621    24573593.246   100624763.2994   24573593.164  
                
  22724566.914   121561126.385                                                  
  22724565.301  
  22293943.125   119383079.406                    92853511.477    22293947.066  
  22293942.113  
  22441336.148   117930064.927    22441343.312    91893613.4624   22441343.609  
                
  20506375.188   107761780.520    20506385.094    83970270.3594   20506384.691  
                
  21348475.406   112187043.214    21348479.863    87418456.0214                 
                
  20914729.633   109907695.718    20914735.910    85642402.5954                 
                
  23483617.547   125489326.178                    97602815.023    23483623.199  
  23483617.461  
  19602876.633   104935792.345                    81616746.294    19602881.402  
  19602875.051  
  22925815.250   122465593.781                    95251043.672    22925818.527  
  22925814.488  
  21889258.445   115028869.320    21889267.387    89632941.7294   21889267.613  
                
  21356417.836   114282525.184                    88886416.760    21356422.438  
  21356415.965  
  19518279.383   104189954.137                    81036652.228    19518281.988  
  19518277.422  
  24064330.141   126458892.397    24064342.098    98539448.4274   24064342.582  
                
  20676184.320   110332121.638                                                  
  20676181.930  
  22423398.148   117835801.957    22423407.859    91820154.5654   22423408.168  
                
  24314873.500   127775511.562    24314884.418    99565389.3284   24314884.008  
                
 21  8 15 12 30 30.0000000  0 17G17R23R 8G31G 1G22G21R15R 7R16G32R21
                                R22G 8R 6G 3G10
  24569771.352   129115027.953    24569779.824   100609148.0124   24569779.738  
                
  22717240.047   121521932.709                                                  
  22717238.465  
  22288483.273   119353841.848                    92830771.130    22288487.082  
  22288482.246  
  22436301.641   117903608.449    22436308.863    91872998.0424   22436309.125  
                
  20503600.164   107747197.737    20503610.043    83958907.1574   20503609.660  
                
  21345500.719   112171411.122    21345505.191    87406275.1704                 
                
  20914498.133   109906479.199    20914504.383    85641454.6614                 
                
  23485015.219   125496794.927                    97608624.020    23485020.824  
  23485015.164  
  19602064.508   104931444.961                    81613364.987    19602069.281  
  19602062.930  
  22921235.445   122441129.213                    95232015.674    22921238.672  
  22921234.688  
  21893863.742   115053070.294    21893872.695    89651799.6264   21893872.930  
                
  21363800.234   114322029.668                    88917142.449    21363804.832  
  21363798.359  
  19519253.000   104195151.444                    81040694.578    19519255.613  
  19519251.047  
  24070615.000   126491919.772    24070627.000    98565184.0104   24070627.512  
                
  20681012.578   110357886.143                                                  
  20681010.188  
  22418672.734   117810969.773    22418682.398    91800804.8134   22418682.715  
                
  24320263.445   127803835.709    24320274.359    99587460.0774   24320273.961  
                
 21  8 15 12 30 40.0000000  0 17G17R23R 8G31G 1G22G21R15R 7R16G32R21
                                R22G 8R 6G 3G10
  24565966.953   129095035.750    24565975.414   100593569.6604   24565975.297  
                
  22709920.227   121482776.757                                                  
  22709918.652  
  22283028.789   119324633.106                    92808053.271    22283032.516  
  22283027.773  
  22431275.453   117877195.733    22431282.707    91852416.7224   22431282.965  
                
  20500835.633   107732670.018    20500845.492    83947586.8614   20500845.129  
                
  21342530.930   112155804.760    21342535.418    87394114.3754                 
                
  20914275.820   109905310.915    20914282.043    85640544.3074                 
                
  23486428.156   125504345.139                    97614496.421    23486433.699  
  23486428.152  
  19601261.461   104927146.163                    81610021.480    19601266.227  
  19601259.910  
  22916666.664   122416723.510                    95213033.478    22916669.895  
  22916665.941  
  21898475.359   115077304.453    21898484.320    89670683.3864   21898484.559  
                
  21371191.375   114361580.916                    88947904.512    21371195.953  
  21371189.527  
  19520243.938   104200441.171                    81044808.810    19520246.562  
  19520241.980  
  24076901.680   126524956.930    24076913.773    98590927.1954   24076914.320  
                
  20685845.289   110383674.416                                                  
  20685842.898  
  22413950.773   117786155.742    22413960.383    91781469.2154   22413960.715  
                
  24325655.141   127832169.121    24325666.039    99609538.0524   24325665.637  
                
 21  8 15 12 30 50.0000000  0 17G17R23R 8G31G 1G22G21R15R 7R16G32R21
                                R22G 8R 6G 3G10
  24562171.508   129075090.650    24562179.934   100578028.0684   24562179.789  
                
  22702607.430   121443658.403                                                  
  22702605.828  
  22277579.703   119295453.309                    92785357.876    22277583.371  
  22277578.703  
  22426257.531   117850826.487    22426264.816    91831869.2704   22426265.055  
                
  20498081.516   107718197.048    20498091.363    83936309.2264   20498091.016  
                
  21339565.961   112140223.784    21339570.465    87381973.3604                 
                
  20914062.609   109904190.485    20914068.812    85639671.2454                 
                
  23487856.234   125511976.257                    97620431.727    23487861.703  
  23487856.266  
  19600467.406   104922895.574                    81606715.479    19600472.191  
  19600465.871  
  22912108.805   122392376.344                    95194096.836    22912112.090  
  22912108.074  
  21903093.188   115101571.331    21903102.168    89689592.6314   21903102.391  
                
  21378591.125   114401178.169                    88978702.360    21378595.664  
  21378589.289  
  19521252.117   104205822.921                    81048994.611    19521254.750  
  19521250.148  
  24083190.180   126558003.066    24083202.273    98616677.4024   24083202.820  
                
  20690682.359   110409486.007                                                  
  20690679.957  
  22409232.195   117761359.469    22409241.773    91762147.4454   22409242.094  
                
  24331048.492   127860511.406    24331059.441    99631622.9124   24331059.012  
                
 21  8 15 12 31  0.0000000  0 17G17R23R 8G31G 1G22G21R15R 7R16G32R21
                                R22G 8R 6G 3G10
  24558385.102   129055192.967    24558393.477   100562523.3504   24558393.328  
                
  22695301.719   121404577.874                                                  
  22695300.094  
  22272135.977   119266302.200                    92762684.808    22272139.625  
  22272134.945  
  22421247.922   117824500.922    22421255.270    91811355.8724   22421255.484  
                
  20495337.852   107703779.036    20495347.691    83925074.4194   20495347.363  
                
  21336605.852   112124668.319    21336610.375    87369852.2224                 
                
  20913858.547   109903118.127    20913864.730    85638835.6394                 
                
  23489299.484   125519688.469                    97626430.121    23489304.883  
  23489299.543  
  19599682.352   104918693.161                    81603446.941    19599687.156  
  19599680.816  
  22907561.992   122368088.145                    95175206.052    22907565.312  
  22907561.227  
  21907717.258   115125870.975    21907726.238    89708527.4144   21907726.480  
                
  21385999.508   114440821.615                    89009536.136    21386004.008  
  21385997.660  
  19522277.539   104211296.834                    81053252.088    19522280.191  
  19522275.566  
  24089480.422   126591058.314    24089492.504    98642434.7094   24089493.062  
                
  20695523.820   110435320.971                                                  
  20695521.406  
  22404517.016   117736581.149    22404526.590    91742839.6834   22404526.914  
                
  24336443.562   127888862.674    24336454.574    99653714.7824   24336454.129  
                
 21  8 15 12 31 10.0000000  0 17G17R23R 8G31G 1G22G21R15R 7R16G32R21
                                R22G 8R 6G 3G10
  24554607.727   129035342.752    24554616.090   100547055.6634   24554615.941  
                
  22688003.148   121365535.557                                                  
  22688001.520  
  22266697.648   119237180.194                    92740034.392    22266701.305  
  22266696.578  
  22416246.680   117798219.303    22416254.070    91790876.7024   22416254.230  
                
  20492604.688   107689416.158    20492614.523    83913882.5704   20492614.195  
                
  21333650.625   112109138.483    21333655.156    87357751.0594                 
                
  20913663.672   109902094.016    20913669.840    85638037.6304                 
                
  23490757.953   125527481.969                    97632491.721    23490763.285  
  23490758.051  
  19598906.359   104914539.215                    81600216.092    19598911.168  
  19598904.812  
  22903026.352   122343859.394                    95156361.448    22903029.605  
  22903025.516  
  21912347.570   115150203.421    21912356.551    89727487.7584   21912356.816  
                
  21393416.477   114480511.100                    89040405.719    21393420.980  
  21393414.633  
  19523320.266   104216862.972                    81057581.306    19523322.922  
  19523318.301  
  24095772.477   126624122.953    24095784.512    98668199.3334   24095785.082  
                
  20700369.688   110461179.425                                                  
  20700367.234  
  22399805.297   117711820.868    22399814.863    91723545.9724   22399815.180  
                
  24341840.359   127917223.018    24341851.438    99675813.7124   24341850.980  
                
 21  8 15 12 31 20.0000000  0 17G17R23R 8G31G 1G22G21R15R 7R16G32R21
                                R22G 8R 6G 3G10
  24550839.391   129015540.065    24550847.781   100531625.0174   24550847.629  
                
  22680711.734   121326531.425                                                  
  22680710.078  
  22261264.680   119208087.060                    92717406.406    22261268.344  
  22261263.629  
  22411253.805   117771981.625    22411261.199    91770431.7724   22411261.359  
                
  20489882.016   107675108.433    20489891.852    83902733.6994   20489891.531  
                
  21330700.258   112093634.238    21330704.789    87345669.8414                 
                
  20913477.961   109901118.096    20913484.117    85637277.1714                 
                
  23492231.586   125535356.528                    97638616.383    23492236.895  
  23492231.723  
  19598139.383   104910433.531                    81597022.788    19598144.211  
  19598137.832  
  22898501.664   122319689.591                    95137562.744    22898504.961  
  22898500.793  
  21916984.102   115174568.529    21916993.098    89746473.5564   21916993.352  
                
  21400842.016   114520246.556                    89071311.048    21400846.535  
  21400840.164  
  19524380.281   104222521.403                    81061982.298    19524382.945  
  19524378.316  
  24102066.172   126657196.584    24102078.215    98693970.9654   24102078.809  
                
  20705219.945   110487061.261                                                  
  20705217.480  
  22395097.000   117687078.654    22395106.582    91704266.3344   22395106.898  
                
  24347238.852   127945592.359    24347249.973    99697919.6614   24347249.516  
                
 21  8 15 12 31 30.0000000  0 17G17R23R 8G31G 1G22G21R15R 7R16G32R21
                                R22G 8R 6G 3G10
  24547080.102   128995784.954    24547088.473   100516231.4454   24547088.344  
                
  22673427.484   121287565.701                                                  
  22673425.773  
  22255837.094   119179022.874                    92694800.969    22255840.801  
  22255836.062  
  22406269.336   117745788.141    22406276.711    91750021.2854   22406276.883  
                
  20487169.852   107660855.937    20487179.684    83891627.8624   20487179.371  
                
  21327754.781   112078155.695    21327759.312    87333608.6444                 
                
  20913301.422   109900190.386    20913307.566    85636554.2864                 
                
  23493720.367   125543312.173                    97644804.106    23493725.656  
  23493720.547  
  19597381.383   104906375.952                    81593866.901    19597386.230  
  19597379.828  
  22893988.109   122295579.208                    95118810.262    22893991.461  
  22893987.211  
  21921626.836   115198966.239    21921635.844    89765484.7624   21921636.082  
                
  21408276.086   114560027.705                    89102251.932    21408280.617  
  21408274.246  
  19525457.539   104228271.945                    81066454.937    19525460.223  
  19525455.570  
  24108361.531   126690278.964    24108373.582    98719749.4114   24108374.215  
                
  20710074.531   110512966.286                                                  
  20710072.055  
  22390392.141   117662354.520    22390401.723    91685000.7774   22390402.047  
                
  24352639.055   127973970.712    24352650.215    99720032.6364   24352649.734  
                
 21  8 15 12 31 40.0000000  0 17G17R23R 8G31G 1G22G21R15R 7R16G32R21
                                R22G 8R 6G 3G10
  24543329.938   128976077.653    24543338.312   100500875.1334   24543338.184  
                
  22666150.453   121248638.618                                                  
  22666148.707  
  22250414.953   119149987.748                    92672218.117    22250418.680  
  22250413.871  
  22401293.305   117719638.962    22401300.695    91729645.3034   22401300.844  
                
  20484468.234   107646658.835    20484478.066    83880565.1874   20484477.750  
                
  21324814.219   112062702.930    21324818.754    87321567.5314                 
                
  20913134.078   109899310.975    20913140.215    85635869.0254                 
                
  23495224.359   125551349.014                    97651054.977    23495229.602  
  23495224.598  
  19596632.438   104902366.780                    81590748.665    19596637.301  
  19596630.891  
  22889485.727   122271528.517                    95100104.168    22889489.086  
  22889484.820  
  21926275.781   115223396.557    21926284.762    89784521.3724   21926285.023  
                
  21415718.719   114599854.541                    89133228.345    21415723.250  
  21415716.871  
  19526552.117   104234114.862                    81070999.427    19526554.844  
  19526550.152  
  24114658.664   126723370.467    24114670.734    98745534.9664   24114671.387  
                
  20714933.484   110538894.545                                                  
  20714931.016  
  22385690.742   117637648.539    22385700.297    91665749.3744   22385700.629  
                
  24358040.977   128002358.164    24358052.180    99742152.6974   24358051.668  
                
 21  8 15 12 31 50.0000000  0 17G17R23R 8G31G 1G22G21R15R 7R16G32R21
                                R22G 8R 6G 3G10
  24539588.820   128956417.918    24539597.137   100485555.8664   24539597.023  
                
  22658880.617   121209750.044                                                  
  22658878.852  
  22244998.133   119120981.438                    92649657.694    22245001.945  
  22244997.051  
  22396325.672   117693533.873    22396333.098    91709303.6844   22396333.219  
                
  20481777.102   107632516.870    20481786.941    83869545.4764   20481786.617  
                
  21321878.500   112047275.629    21321883.039    87309546.2624                 
                
  20912975.875   109898479.625    20912982.012    85635221.2204                 
                
  23496743.484   125559466.677                    97657368.731    23496748.707  
  23496743.746  
  19595892.438   104898405.513                    81587667.675    19595897.312  
  19595890.895  
  22884994.477   122247537.264                    95081444.321    22884997.910  
  22884993.570  
  21930930.852   115247859.111    21930939.793    89803583.0914   21930940.082  
                
  21423169.797   114639726.717                    89164240.011    21423174.320  
  21423167.918  
  19527663.898   104240049.597                    81075615.328    19527666.602  
  19527661.934  
  24120957.414   126756470.317    24120969.488    98771327.0114   24120970.137  
                
  20719796.711   110564845.586                                                  
  20719794.238  
  22380992.750   117612960.478    22381002.305    91646511.9364   22381002.637  
                
  24363444.586   128030754.351    24363455.824    99764279.5944   24363455.285  
                
 21  8 15 12 32  0.0000000  0 17G17R23R 8G31G 1G22G21R15R 7R16G32R21
                                R22G 8R 6G 3G10
  24535856.773   128936805.956    24535865.102   100470273.8574   24535865.020  
                
  22651618.039   121170900.349                                                  
  22651616.266  
  22239586.758   119092004.198                    92627119.883    22239590.625  
  22239585.672  
  22391366.469   117667473.191    22391373.934    91688996.6844   22391374.043  
                
  20479096.516   107618430.303    20479106.363    83858568.9374   20479106.035  
                
  21318947.664   112031873.986    21318952.215    87297544.9964                 
                
  20912826.859   109897696.532    20912833.004    85634611.0174                 
                
  23498277.750   125567665.273                    97663745.430    23498282.980  
  23498278.023  
  19595161.430   104894492.387                    81584624.134    19595166.301  
  19595159.895  
  22880514.422   122223605.828                    95062831.018    22880517.945  
  22880513.508  
  21935592.070   115272353.984    21935600.977    89822670.0004   21935601.289  
                
  21430629.320   114679644.140                    89195286.877    21430633.852  
  21430627.402  
  19528792.945   104246076.471                    81080302.894    19528795.598  
  19528790.984  
  24127257.859   126789578.820    24127269.875    98797125.8134   24127270.520  
                
  20724664.258   110590819.720                                                  
  20724661.785  
  22376298.203   117588290.503    22376307.758    91627288.5984   22376308.078  
                
  24368849.922   128059159.458    24368861.176    99786413.4374   24368860.613  
                
 21  8 15 12 32 10.0000000  0 17G17R23R 8G31G 1G22G21R15R 7R16G32R21
                                R22G 8R 6G 3G10
  24532133.836   128917241.813    24532142.168   100455029.0804   24532142.066  
                
  22644362.734   121132089.561                                                  
  22644360.988  
  22234180.836   119063056.057                    92604604.674    22234184.746  
  22234179.766  
  22386415.750   117641457.050    22386423.211    91668724.3744   22386423.320  
                
  20476426.492   107604399.225    20476436.352    83847635.6254   20476436.016  
                
  21316021.711   112016498.052    21316026.262    87285563.7524                 
                
  20912687.016   109896961.634    20912693.168    85634038.3664                 
                
  23499827.148   125575944.782                    97670185.019    23499832.371  
  23499827.441  
  19594439.398   104890627.313                    81581617.974    19594444.281  
  19594437.871  
  22876045.641   122199734.405                    95044264.349    22876049.133  
  22876044.695  
  21940259.422   115296881.085    21940268.312    89841782.0224   21940268.645  
                
  21438097.258   114719606.729                    89226368.867    21438101.812  
  21438095.340  
  19529939.250   104252195.559                    81085062.169    19529941.891  
  19529937.316  
  24133559.922   126822695.655    24133571.789    98822931.1154   24133572.445  
                
  20729536.078   110616816.690                                                  
  20729533.605  
  22371607.102   117563638.676    22371616.625    91608079.3834   22371616.938  
                
  24374256.961   128087573.490    24374268.238    99808554.2264   24374267.656  
                
 21  8 15 12 32 20.0000000  0 17G17R23R 8G31G 1G22G21R15R 7R16G32R21
                                R22G 8R 6G 3G10
  24528420.031   128897725.715    24528428.340   100439821.7294   24528428.266  
                
  22637114.812   121093318.166                                                  
  22637113.082  
  22228780.375   119034137.040                    92582112.160    22228784.309  
  22228779.320  
  22381473.562   117615485.770    22381481.012    91648487.0284   22381481.129  
                
  20473767.070   107590423.872    20473776.945    83836745.7474   20473776.594  
                
  21313100.711   112001148.094    21313105.262    87273602.7564                 
                
  20912556.422   109896275.353    20912562.582    85633503.6014                 
                
  23501391.734   125584305.412                    97676687.744    23501396.922  
  23501392.012  
  19593726.367   104886810.391                    81578649.266    19593731.250  
  19593724.836  
  22871588.117   122175923.198                    95025744.540    22871591.641  
  22871587.176  
  21944932.945   115321440.553    21944941.816    89860919.2694   21944942.168  
                
  21445573.695   114759614.465                    89257485.977    21445578.238  
  21445571.758  
  19531102.828   104258406.864                    81089893.179    19531105.488  
  19531100.910  
  24139863.594   126855820.969    24139875.328    98848743.0294   24139876.012  
                
  20734412.234   110642836.830                                                  
  20734409.762  
  22366919.508   117539005.210    22366928.996    91588884.4914   22366929.320  
                
  24379665.703   128115996.617    24379677.043    99830702.0924   24379676.461  
                
 21  8 15 12 32 30.0000000  0 17G17R23R 8G31G 1G22G21R15R 7R16G32R21
                                R22G 8R 6G 3G10
  24524715.352   128878257.507    24524723.664   100424651.6994   24524723.590  
                
  22629874.203   121054585.888                                                  
  22629872.434  
  22223385.359   119005247.115                    92559642.247    22223389.309  
  22223384.312  
  22376539.891   117589559.166    22376547.293    91628284.5074   22376547.422  
                
  20471118.219   107576504.052    20471128.105    83825899.1334   20471127.738  
                
  21310184.594   111985823.808    21310189.125    87261661.7594                 
                
  20912435.023   109895637.389    20912441.191    85633006.4894                 
                
  23502971.406   125592746.773                    97683253.242    23502976.586  
  23502971.656  
  19593022.289   104883041.388                    81575717.807    19593027.168  
  19593020.770  
  22867141.898   122152172.249                    95007271.631    22867145.473  
  22867140.969  
  21949612.555   115346032.020    21949621.406    89880081.4544   21949621.770  
                
  21453058.539   114799667.079                    89288638.008    21453063.031  
  21453056.578  
  19532283.625   104264710.071                    81094795.663    19532286.305  
  19532281.711  
  24146168.727   126888954.502    24146180.441    98874561.3414   24146181.145  
                
  20739292.664   110668879.701                                                  
  20739290.172  
  22362235.359   117514389.850    22362244.816    91569703.6904   22362245.148  
                
  24385076.125   128144428.565    24385087.516    99852856.8264   24385086.938  
                
 21  8 15 12 32 40.0000000  0 17G17R23R 8G31G 1G22G21R15R 7R16G32R21
                                R22G 8R 6G 3G10
  24521019.828   128858837.415    24521028.148   100409519.1714   24521028.070  
                
  22622640.984   121015893.240                                                  
  22622639.148  
  22217995.797   118976386.330                    92537194.964    22217999.723  
  22217994.793  
  22371614.773   117563677.557    22371622.125    91608117.0304   22371622.285  
                
  20468479.984   107562640.026    20468489.883    83815095.9994   20468489.500  
                
  21307273.398   111970525.381    21307277.898    87249740.9054                 
                
  20912322.852   109895047.935    20912329.020    85632547.1764                 
                
  23504566.258   125601269.167                    97689881.737    23504571.426  
  23504566.531  
  19592327.172   104879320.339                    81572823.671    19592332.043  
  19592325.668  
  22862706.953   122128481.511                    94988845.524    22862710.477  
  22862706.023  
  21954298.281   115370655.629    21954307.129    89899268.6734   21954307.500  
                
  21460551.703   114839764.510                    89319824.881    21460556.172  
  21460549.734  
  19533481.727   104271105.620                    81099769.971    19533484.441  
  19533479.809  
  24152475.359   126922096.349    24152487.168    98900386.1154   24152487.875  
                
  20744177.391   110694945.458                                                  
  20744174.879  
  22357554.688   117489792.795    22357564.145    91550537.1684   22357564.469  
                
  24390488.273   128172869.489    24390499.688    99875018.5674   24390499.117  
                
 21  8 15 12 32 50.0000000  0 17G17R23R 8G31G 1G22G21R15R 7R16G32R21
                                R22G 8R 6G 3G10
  24517333.477   128839465.480    24517341.781   100394424.1624   24517341.703  
                
  22615415.125   120977240.153                                                  
  22615413.281  
  22212611.664   118947554.564                    92514770.279    22212615.555  
  22212610.695  
  22366698.227   117537841.005    22366705.539    91587984.6614   22366705.707  
                
  20465852.359   107548831.800    20465862.266    83804336.3484   20465861.871  
                
  21304367.117   111955252.791    21304371.578    87237840.1974                 
                
  20912219.898   109894506.929    20912226.059    85632125.6074                 
                
  23506176.227   125609872.336                    97696573.093    23506181.406  
  23506176.516  
  19591641.008   104875647.263                    81569966.845    19591645.879  
  19591639.527  
  22858283.375   122104851.572                    94970466.702    22858286.891  
  22858282.457  
  21958990.086   115395311.200    21958998.941    89918480.8044   21958999.332  
                
  21468053.211   114879906.460                    89351046.388    21468057.648  
  21468051.250  
  19534697.062   104277593.189                    81104815.863    19534699.852  
  19534695.164  
  24158783.586   126955246.088    24158795.391    98926217.0504   24158796.082  
                
  20749066.289   110721033.577                                                  
  20749063.805  
  22352877.500   117465214.050    22352886.965    91531384.9094   22352887.281  
                
  24395902.117   128201319.311    24395913.578    99897187.2454   24395912.996  
                
 21  8 15 12 33  0.0000000  0 17G17R23R 8G31G 1G22G21R15R 7R16G32R21
                                R22G 8R 6G 3G10
  24513656.297   128820141.756    24513664.617   100379366.7604   24513664.531  
                
  22608196.727   120938626.962                                                  
  22608194.895  
  22207233.055   118918752.144                    92492368.416    22207236.867  
  22207232.070  
  22361790.289   117512049.623    22361797.574    91567887.4974   22361797.742  
                
  20463235.367   107535079.405    20463245.281    83793620.1934   20463244.875  
                
  21301465.758   111940006.060    21301470.184    87225959.6354                 
                
  20912126.156   109894014.305    20912132.312    85631741.7444                 
                
  23507801.344   125618556.395                    97703327.370    23507806.543  
  23507801.645  
  19590963.789   104872022.089                    81567147.273    19590968.656  
  19590962.320  
  22853871.188   122081282.476                    94952135.207    22853874.676  
  22853870.293  
  21963687.961   115419998.638    21963696.836    89937717.7694   21963697.242  
                
  21475563.047   114920092.864                    89382302.460    21475567.457  
  21475561.086  
  19535929.688   104284172.955                    81109933.441    19535932.535  
  19535927.809  
  24165093.320   126988403.640    24165105.105    98952054.0724   24165105.762  
                
  20753959.445   110747144.366                                                  
  20753956.980  
  22348203.789   117440653.562    22348213.254    91512246.8774   22348213.570  
                
  24401317.672   128229778.019    24401329.164    99919362.8314   24401328.582  
                
 21  8 15 12 33 10.0000000  0 17G17R23R 8G31G 1G22G21R15R 7R16G32R21
                                R22G 8R 6G 3G10
  24509988.281   128800866.120    24509996.562   100364346.7934   24509996.500  
                
  22600985.797   120900053.594                                                  
  22600983.941  
  22201859.812   118889978.729                    92469989.144    22201863.641  
  22201858.855  
  22356890.938   117486303.355    22356898.219    91547825.4904   22356898.379  
                
  20460629.000   107521382.835    20460638.926    83782947.5424   20460638.504  
                
  21298569.320   111924785.172    21298573.727    87214099.1974                 
                
  20912041.617   109893570.084    20912047.762    85631395.5934                 
                
  23509441.555   125627321.100                    97710144.343    23509446.750  
  23509441.883  
  19590295.508   104868444.705                    81564364.857    19590300.371  
  19590294.047  
  22849470.312   122057774.031                    94933850.865    22849473.773  
  22849469.516  
  21968391.875   115444717.799    21968400.770    89956979.4544   21968401.164  
                
  21483081.109   114960323.597                    89413593.003    21483085.535  
  21483079.133  
  19537179.516   104290844.641                    81115122.525    19537182.398  
  19537177.664  
  24171404.578   127021569.053    24171416.320    98977897.2194   24171416.961  
                
  20758856.852   110773277.851                                                  
  20758854.414  
  22343533.547   117416111.279    22343543.000    91493123.0334   22343543.309  
                
  24406734.891   128258245.499    24406746.422    99941545.2534   24406745.809  
                
 21  8 15 12 33 20.0000000  0 17G17R23R 8G31G 1G22G21R15R 7R16G32R21
                                R22G 8R 6G 3G10
  24506329.445   128781638.835    24506337.711   100349364.5194   24506337.668  
                
  22593782.367   120861520.384                                                  
  22593780.551  
  22196492.039   118861234.447                    92447632.478    22196495.836  
  22196491.105  
  22352000.242   117460602.596    22352007.539    91527798.9394   22352007.691  
                
  20458033.289   107507742.271    20458043.227    83772318.5394   20458042.801  
                
  21295677.797   111909590.150    21295682.203    87202258.9354                 
                
  20911966.336   109893174.444    20911972.469    85631087.3014                 
                
  23511096.859   125636166.491                    97717024.124    23511102.102  
  23511097.211  
  19589636.172   104864915.181                    81561619.662    19589641.020  
  19589634.730  
  22845080.883   122034326.450                    94915613.886    22845084.312  
  22845080.090  
  21973101.836   115469468.712    21973110.738    89976265.8704   21973111.121  
                
  21490607.367   115000598.519                    89444917.927    21490611.883  
  21490605.406  
  19538446.586   104297608.306                    81120383.161    19538449.488  
  19538444.762  
  24177717.312   127054742.105    24177729.008    99003746.3304   24177729.637  
                
  20763758.430   110799433.547                                                  
  20763755.984  
  22338866.797   117391587.369    22338876.230    91474013.5014   22338876.527  
                
  24412153.781   128286721.868    24412165.348    99963734.5964   24412164.707  
                
 21  8 15 12 33 30.0000000  0 17G17R23R 8G31G 1G22G21R15R 7R16G32R21
                                R22G 8R 6G 3G10
  24502679.820   128762459.964    24502688.035   100334419.9584   24502688.043  
                
  22586586.492   120823027.468                                                  
  22586584.707  
  22191129.703   118832519.500                    92425298.627    22191133.480  
  22191128.785  
  22347118.180   117434947.224    22347125.488    91507807.7554   22347125.617  
                
  20455448.219   107494157.717    20455458.184    83761733.1754   20455457.742  
                
  21292791.203   111894420.989    21292795.629    87190438.8214                 
                
  20911900.273   109892827.339    20911906.398    85630816.8274                 
                
  23512767.273   125645092.653                    97723966.691    23512772.523  
  23512767.641  
  19588985.711   104861433.248                    81558911.491    19588990.551  
  19588984.289  
  22840702.961   122010940.418                    94897424.783    22840706.402  
  22840702.164  
  21977817.789   115494251.214    21977826.680    89995576.9114   21977827.066  
                
  21498141.891   115040917.389                    89476277.030    21498146.426  
  21498139.945  
  19539730.883   104304464.002                    81125715.355    19539733.820  
  19539729.094  
  24184031.414   127087922.690    24184043.137    99029601.2984   24184043.742  
                
  20768664.219   110825611.755                                                  
  20768661.789  
  22334203.531   117367081.786    22334212.945    91454918.2454   22334213.250  
                
  24417574.320   128315207.026    24417585.906    99985930.7894   24417585.277  
                
 21  8 15 12 33 40.0000000  0 17G17R23R 8G31G 1G22G21R15R 7R16G32R21
                                R22G 8R 6G 3G10
  24499039.453   128743329.775    24499047.664   100319513.3094   24499047.672  
                
  22579398.211   120784575.150                                                  
  22579396.438  
  22185772.859   118803833.956                    92402987.666    22185776.629  
  22185771.934  
  22342244.852   117409337.677    22342252.148    91487852.2744   22342252.266  
                
  20452873.898   107480629.537    20452883.895    83751191.7364   20452883.441  
                
  21289909.594   111879278.057    21289914.047    87178639.1344                 
                
  20911843.523   109892529.044    20911849.641    85630584.3914                 
                
  23514452.836   125654099.722                    97730972.162    23514458.074  
  23514453.199  
  19588344.273   104857999.509                    81556240.816    19588349.098  
  19588342.863  
  22836336.469   121987615.569                    94879283.266    22836339.879  
  22836335.633  
  21982539.805   115519065.534    21982548.664    90014912.7434   21982549.078  
                
  21505684.703   115081280.357                    89507670.433    21505689.234  
  21505682.793  
  19541032.461   104311411.847                    81131119.230    19541035.430  
  19541030.691  
  24190346.922   127121110.864    24190358.691    99055462.1624   24190359.289  
                
  20773574.250   110851812.440                                                  
  20773571.820  
  22329543.812   117342594.821    22329553.227    91435837.5074   22329553.539  
                
  24422996.609   128343701.240    24423008.203   100008134.0574   24423007.574  
                
 21  8 15 12 33 50.0000000  0 17G17R23R 8G31G 1G22G21R15R 7R16G32R21
                                R22G 8R 6G 3G10
  24495408.328   128724248.079    24495416.543   100304644.4844   24495416.535  
                
  22572217.523   120746163.403                                                  
  22572215.793  
  22180421.438   118775177.489                    92380699.350    22180425.219  
  22180420.492  
  22337380.219   117383773.880    22337387.500    91467932.4504   22337387.633  
                
  20450310.242   107467157.474    20450320.273    83740694.0314   20450319.797  
                
  21287032.914   111864161.010    21287037.375    87166859.6224                 
                
  20911795.992   109892279.263    20911802.094    85630389.7564                 
                
  23516153.445   125663187.237                    97738040.219    23516158.684  
  23516153.809  
  19587711.719   104854613.378                    81553607.166    19587716.535  
  19587710.328  
  22831981.469   121964352.195                    94861189.552    22831984.836  
  22831980.621  
  21987267.797   115543911.271    21987276.629    90034273.0654   21987277.070  
                
  21513235.664   115121686.913                    89539097.734    21513240.172  
  21513233.781  
  19542351.281   104318451.715                    81136594.675    19542354.266  
  19542349.523  
  24196663.891   127154306.455    24196675.609    99081328.8404   24196676.203  
                
  20778488.383   110878035.139                                                  
  20778485.977  
  22324887.594   117318126.218    22324897.020    91416771.0734   22324897.320  
                
  24428420.555   128372204.215    24428432.129   100030344.1414   24428431.508  
                
 21  8 15 12 34  0.0000000  0 17G17R23R 8G31G 1G22G21R15R 7R16G32R21
                                R22G 8R 6G 3G10
  24491786.438   128705214.995    24491794.660   100289813.5244   24491794.664  
                
  22565044.461   120707792.317                                                  
  22565042.758  
  22175075.508   118746550.526                    92358433.959    22175079.324  
  22175074.555  
  22332524.305   117358255.894    22332531.547    91448048.3184   22332531.695  
                
  20447757.297   107453741.656    20447767.363    83730240.1524   20447766.871  
                
  21284161.172   111849069.919    21284165.633    87155100.3364                 
                
  20911757.703   109892078.086    20911763.793    85630232.9934                 
                
  23517869.133   125672355.353                    97745170.998    23517874.379  
  23517869.512  
  19587088.070   104851274.937                    81551010.610    19587092.879  
  19587086.680  
  22827638.000   121941150.371                    94843143.731    22827641.410  
  22827637.094  
  21992001.766   115568788.434    21992010.590    90053657.8604   21992011.043  
                
  21520794.797   115162137.164                    89570559.041    21520799.266  
  21520792.906  
  19543687.320   104325583.554                    81142141.666    19543690.359  
  19543685.609  
  24202982.250   127187509.433    24202993.938    99107201.2624   24202994.520  
                
  20783406.680   110904280.137                                                  
  20783404.289  
  22320234.875   117293676.040    22320244.293    91397718.9984   22320244.602  
                
  24433846.164   128400716.002    24433857.707   100052561.0684   24433857.113  
                
 21  8 15 12 34 10.0000000  0 17G17R23R 8G31G 1G22G21R15R 7R16G32R21
                                R22G 8R 6G 3G10
  24488173.828   128686230.685    24488182.082   100275020.5704   24488182.051  
                
  22557879.047   120669462.174                                                  
  22557877.379  
  22169735.031   118717952.828                    92336191.333    22169738.902  
  22169734.074  
  22327677.148   117332783.937    22327684.340    91428200.0564   22327684.523  
                
  20445215.094   107440382.295    20445225.191    83719830.2604   20445224.695  
                
  21281294.406   111834004.980    21281298.859    87143361.4274                 
                
  20911728.703   109891925.647    20911734.777    85630114.2084                 
                
  23519599.922   125681604.127                    97752364.479    23519605.203  
  23519600.293  
  19586473.328   104847984.185                    81548451.145    19586478.129  
  19586471.949  
  22823306.062   121918010.147                    94825145.817    22823309.523  
  22823305.129  
  21996741.719   115593697.038    21996750.559    90073067.1574   21996751.004  
                
  21528362.055   115202631.034                    89602054.248    21528366.516  
  21528360.164  
  19545040.594   104332807.344                    81147760.166    19545043.652  
  19545038.910  
  24209301.891   127220719.543    24209313.652    99133079.2374   24209314.203  
                
  20788329.141   110930547.253                                                  
  20788326.766  
  22315585.688   117269244.445    22315595.105    91378681.3914   22315595.422  
                
  24439273.492   128429236.661    24439284.961   100074784.9554   24439284.391  
                
 21  8 15 12 34 20.0000000  0 17G17R23R 8G31G 1G22G21R15R 7R16G32R21
                                R22G 8R 6G 3G10
  24484570.484   128667295.052    24484578.773   100260265.5634   24484578.699  
                
  22550721.312   120631173.068                                                  
  22550719.641  
  22164399.992   118689384.189                    92313971.302    22164403.914  
  22164399.031  
  22322838.750   117307357.988    22322845.914    91408387.6414   22322846.113  
                
  20442683.609   107427079.260    20442693.738    83709464.2624   20442693.234  
                
  21278432.594   111818966.049    21278437.043    87131642.7824                 
                
  20911708.945   109891821.782    20911714.992    85630033.2684                 
                
  23521345.797   125690933.506                    97759620.661    23521351.082  
  23521346.152  
  19585867.492   104844741.095                    81545928.733    19585872.277  
  19585866.109  
  22818985.727   121894931.948                    94807196.110    22818989.215  
  22818984.840  
  22001487.609   115618636.842    22001496.465    90092500.7664   22001496.910  
                
  21535937.406   115243168.152                    89633583.088    21535941.871  
  21535935.504  
  19546411.094   104340123.087                    81153450.190    19546414.164  
  19546409.434  
  24215622.953   127253936.688    24215634.734    99158962.6984   24215635.262  
                
  20793255.695   110956836.309                                                  
  20793253.289  
  22310940.008   117244831.269    22310949.469    91359658.1554   22310949.754  
                
  24444702.484   128457766.055    24444713.875   100097015.6344   24444713.297  
                
 21  8 15 12 34 30.0000000  0 17G17R23R 8G31G 1G22G21R15R 7R16G32R21
                                R22G 8R 6G 3G10
  24480976.430   128648408.128    24480984.727   100245548.4844   24480984.629  
                
  22543571.273   120592925.081                                                  
  22543569.586  
  22159070.492   118660845.156                    92291774.316    22159074.426  
  22159069.539  
  22318009.141   117281978.171    22318016.281    91388611.1754   22318016.496  
                
  20440162.852   107413832.613    20440172.992    83699142.2074   20440172.480  
                
  21275575.719   111803953.114    21275580.164    87119944.4034                 
                
  20911698.430   109891766.500    20911704.453    85629990.1924                 
                
  23523106.711   125700343.218                    97766939.321    23523111.969  
  23523107.066  
  19585270.477   104841545.271                    81543443.103    19585275.242  
  19585269.090  
  22814677.062   121871915.754                    94789294.656    22814680.508  
  22814676.129  
  22006239.414   115643607.746    22006248.297    90111958.6104   22006248.746  
                
  21543520.781   115283748.306                    89665145.400    21543525.281  
  21543518.902  
  19547798.812   104347530.770                    81159211.715    19547801.844  
  19547797.156  
  24221945.266   127287160.802    24221957.125    99184851.5814   24221957.641  
                
  20798186.344   110983147.234                                                  
  20798183.910  
  22306297.836   117220436.531    22306307.348    91340649.2914   22306307.621  
                
  24450133.125   128486304.144    24450144.445   100119253.0964   24450143.855  
                
 21  8 15 12 34 40.0000000  0 17G17R23R 8G31G 1G22G21R15R 7R16G32R21
                                R22G 8R 6G 3G10
  24477391.664   128629570.093    24477399.996   100230869.5064   24477399.895  
                
  22536428.977   120554718.533                                                  
  22536427.273  
  22153746.453   118632335.288                    92269599.999    22153750.434  
  22153745.512  
  22313188.312   117256644.629    22313195.445    91368870.7724   22313195.680  
                
  20437652.859   107400642.537    20437663.008    83688864.2294   20437662.500  
                
  21272723.836   111788966.423    21272728.281    87108266.4704                 
                
  20911697.195   109891759.995    20911703.188    85629985.1184                 
                
  23524882.680   125709833.474                    97774320.608    23524887.961  
  23524883.027  
  19584682.375   104838397.132                    81540994.555    19584687.125  
  19584680.977  
  22810379.961   121848961.544                    94771441.423    22810383.391  
  22810379.000  
  22010997.148   115668609.792    22011006.074    90131440.7224   22011006.508  
                
  21551112.234   115324371.508                    89696741.204    21551116.711  
  21551110.367  
  19549203.750   104355030.384                    81165044.741    19549206.766  
  19549202.117  
  24228268.914   127320391.806    24228280.785    99210745.8374   24228281.316  
                
  20803121.125   111009480.148                                                  
  20803118.691  
  22301659.211   117196060.402    22301668.734    91321654.9114   22301669.008  
                
  24455565.453   128514851.034    24455576.738   100141497.4184   24455576.141  
                
 21  8 15 12 34 50.0000000  0 17G17R23R 8G31G 1G22G21R15R 7R16G32R21
                                R22G 8R 6G 3G10
  24473816.258   128610781.143    24473824.578   100216228.7704   24473824.449  
                
  22529294.430   120516553.618                                                  
  22529292.727  
  22148427.938   118603854.977                    92247448.658    22148431.906  
  22148427.031  
  22308376.359   117231357.654    22308383.523    91349166.6574   22308383.746  
                
  20435153.672   107387509.222    20435163.828    83678630.4774   20435163.328  
                
  21269876.953   111774005.953    21269881.402    87096608.9614                 
                
  20911705.266   109891802.405    20911711.246    85630018.1674                 
                
  23526673.695   125719404.099                    97781764.436    23526678.996  
  23526674.000  
  19584103.180   104835296.667                    81538583.087    19584107.922  
  19584101.773  
  22806094.570   121826069.805                    94753636.777    22806097.980  
  22806093.559  
  22015760.812   115693643.038    22015769.797    90150947.1314   22015770.195  
                
  21558711.727   115365037.745                    89728370.499    21558716.180  
  21558709.875  
  19550625.906   104362621.899                    81170949.248    19550628.906  
  19550624.301  
  24234593.805   127353629.460    24234605.707    99236645.2854   24234606.258  
                
  20808060.023   111035835.135                                                  
  20808057.605  
  22297024.148   117171703.000    22297033.691    91302675.1234   22297033.945  
                
  24460999.484   128543406.801    24461010.766   100163748.6494   24461010.164  
                
 21  8 15 12 35  0.0000000  0 17G17R23R 8G31G 1G22G21R15R 7R16G32R21
                                R22G 8R 6G 3G10
  24470250.195   128592041.261    24470258.496   100201626.2644   24470258.367  
                
  22522167.672   120478430.446                                                  
  22522165.965  
  22143114.969   118575404.279                    92225320.332    22143118.863  
  22143114.078  
  22303573.289   117206117.283    22303580.469    91329498.8454   22303580.680  
                
  20432665.273   107374432.641    20432675.441    83668440.9404   20432674.941  
                
  21267035.047   111759071.697    21267039.492    87084971.8934                 
                
  20911722.641   109891893.701    20911728.609    85630089.3054                 
                
  23528479.781   125729055.286                    97789270.925    23528485.086  
  23528480.047  
  19583532.875   104832243.794                    81536208.633    19583537.605  
  19583531.453  
  22801820.836   121803240.497                    94735880.666    22801824.266  
  22801819.809  
  22020530.375   115718707.264    22020539.418    90170477.6934   22020539.785  
                
  21566319.195   115405746.831                    89760033.123    21566323.648  
  21566317.340  
  19552065.312   104370305.389                    81176925.286    19552068.305  
  19552063.719  
  24240919.992   127386873.964    24240931.930    99262550.0574   24240932.477  
                
  20813002.984   111062211.822                                                  
  20813000.570  
  22292392.625   117147364.235    22292402.188    91283709.8764   22292402.414  
                
  24466435.180   128571971.356    24466446.473   100186006.7214   24466445.840  
                
 21  8 15 12 35 10.0000000  0 17G17R23R 8G31G 1G22G21R15R 7R16G32R21
                                R22G 8R 6G 3G10
  24466693.461   128573350.482    24466701.770   100187062.0284   24466701.633  
                
  22515048.734   120440349.144                                                  
  22515047.082  
  22137807.500   118546982.977                    92203214.889    22137811.375  
  22137806.629  
  22298779.102   117180923.631    22298786.289    91309867.4464   22298786.496  
                
  20430187.688   107361412.879    20430197.863    83658295.6764   20430197.363  
                
  21264198.148   111744163.702    21264202.582    87073355.2784                 
                
  20911749.312   109892033.844    20911755.270    85630198.5044                 
                
  23530300.898   125738786.857                    97796839.910    23530306.219  
  23530301.098  
  19582971.453   104829238.455                    81533871.143    19582976.164  
  19582970.000  
  22797558.836   121780474.026                    94718173.454    22797562.293  
  22797557.785  
  22025305.836   115743802.454    22025314.906    90190032.3784   22025315.266  
                
  21573934.594   115446498.595                    89791728.934    21573939.105  
  21573932.758  
  19553521.938   104378080.823                    81182972.849    19553524.910  
  19553520.363  
  24247247.414   127420125.048    24247259.391    99288459.9464   24247259.922  
                
  20817950.117   111088610.504                                                  
  20817947.684  
  22287764.672   117123044.193    22287774.203    91264759.2014   22287774.430  
                
  24471872.555   128600544.714    24471883.848   100208271.6454   24471883.195  
                
 21  8 15 12 35 20.0000000  0 17G17R23R 8G31G 1G22G21R15R 7R16G32R21
                                R22G 8R 6G 3G10
  24463146.016   128554708.624    24463154.375   100172535.9394   24463154.230  
                
  22507937.617   120402309.782                                                  
  22507936.023  
  22132505.477   118518590.956                    92181132.240    22132509.359  
  22132504.621  
  22293993.773   117155776.598    22294000.984    91290272.3704   22294001.168  
                
  20427720.883   107348449.747    20427731.070    83648194.5384   20427730.566  
                
  21261366.188   111729281.681    21261370.609    87061758.9094                 
                
  20911785.242   109892222.651    20911791.191    85630345.6244                 
                
  23532137.016   125748598.509                    97804471.216    23532142.379  
  23532137.195  
  19582418.828   104826280.238                    81531570.313    19582423.535  
  19582417.379  
  22793308.523   121757769.897                    94700514.726    22793312.004  
  22793307.438  
  22030087.125   115768928.272    22030096.203    90209610.9344   22030096.582  
                
  21581557.852   115487292.595                    89823457.575    21581562.445  
  21581556.004  
  19554995.727   104385948.012                    81189091.777    19554998.684  
  19554994.168  
  24253576.055   127453382.517    24253588.027    99314374.8384   24253588.586  
                
  20822901.195   111115030.387                                                  
  20822898.789  
