     2.11           OBSERVATION DATA    M (MIXED)           RINEX VERSION / TYPE
EFT-CORS.RU                             20210817 150628 UTC PGM / RUN BY / DATE 
MDNG                                                        MARKER NAME         
                                                            MARKER NUMBER       
MDNG                EFT-CORS.RU                             OBSERVER / AGENCY   
0                   TRIMBLE BD970       2.0                 REC # / TYPE / VERS 
0                   UNKNOWN EXT NONE                        ANT # / TYPE        
  3463911.2830  3030468.2400  4402179.3760                  APPROX POSITION XYZ 
        0.0000        0.0000        0.0000                  ANTENNA: DELTA H/E/N
     1     1                                                WAVELENGTH FACT L1/2
     6    C1    L1    P2    L2    C2    P1                  # / TYPES OF OBSERV 
    10.000                                                  INTERVAL            
  2021     8    14    12    30    0.0000000     GPS         TIME OF FIRST OBS   
  2021     8    14    13    30    0.0000000     GPS         TIME OF LAST OBS    
     0                                                      RCV CLOCK OFFS APPL 
                                                            END OF HEADER       
 21  8 14 12 30  0.0000000  0 17G17R 7R22G 8R14G21G 1R15G22G32G10G 3
                                R 6R21R20R 5G31
  24678716.062   129687535.586    24678723.777   101055252.8164   24678723.797  
                
  22720344.250   121623792.629                    94596287.849    22720350.266  
  22720342.750  
  21986080.961   117363177.003                    91282502.270    21986083.770  
  21986078.820  
  23897308.625   125581196.025    23897319.652    97855515.4054   23897320.066  
                
  23452662.523   125015863.914                    97234566.949    23452667.855  
  23452662.383  
  20924434.602   109958652.692    20924440.578    85682123.7484                 
                
  20583406.125   108166560.830    20583415.902    84285678.1144   20583415.594  
                
  23135102.266   123626983.692                    96154317.740    23135107.766  
  23135102.137  
  21427416.148   112601859.253    21427420.398    87741743.8514                 
                
  21770322.758   114403865.163    21770331.406    89145924.1834   21770331.738  
                
  24172329.070   127026456.114    24172339.375    98981710.6104   24172338.902  
                
  22545279.188   118476266.387    22545288.547    92319216.3634   22545288.801  
                
  19586841.141   104519156.376                                                  
  19586838.684  
  19550364.398   104617970.326                    81369529.991    19550367.680  
  19550362.637  
  21506726.859   115006107.642                    89449250.762    21506733.926  
  21506725.922  
  21107053.062   112829321.360                    87756154.950    21107057.148  
  21107052.965  
  22579125.570   118654126.541    22579132.875    92457810.3374   22579133.176  
                
 21  8 14 12 30 10.0000000  0 17G17R 7R22G 8R14G21G 1R15G22G32G10G 3
                                R 6R21R20R 5G31
  24674668.086   129666263.283    24674675.816   101038677.0024   24674675.824  
                
  22714559.195   121592825.167                    94572202.108    22714565.309  
  22714557.750  
  21979464.047   117327855.868                    91255030.298    21979466.898  
  21979461.961  
  23903538.188   125613932.530    23903549.180    97881024.3354   23903549.621  
                
  23453589.953   125020807.698                    97238412.098    23453595.320  
  23453589.785  
  20923961.062   109956164.258    20923967.055    85680184.7054                 
                
  20580359.977   108150553.208    20580369.746    84273204.6394   20580369.445  
                
  23130471.953   123602240.797                    96135073.298    23130477.461  
  23130471.820  
  21424317.492   112585575.691    21424321.766    87729055.3644                 
                
  21774757.438   114427169.593    21774766.109    89164083.4684   21774766.410  
                
  24177672.789   127054537.246    24177682.992    99003592.0014   24177682.539  
                
  22540468.188   118450984.332    22540477.512    92299516.0534   22540477.766  
                
  19585417.000   104511556.921                                                  
  19585414.547  
  19550175.758   104616960.862                    81368744.839    19550179.035  
  19550174.012  
  21514231.008   115046235.836                    89480461.562    21514238.062  
  21514230.078  
  21112403.016   112857919.820                    87778398.180    21112407.090  
  21112402.910  
  22573876.180   118626540.889    22573883.457    92436315.0344   22573883.766  
                
 21  8 14 12 30 20.0000000  0 17G17R 7R22G 8R14G21G 1R15G22G32G10G 3
                                R 6R21R20R 5G31
  24670628.203   129645033.509    24670635.973   101022134.3444   24670635.945  
                
  22708778.461   121561880.809                    94548134.281    22708784.594  
  22708777.070  
  21972855.773   117292580.819                    91227594.164    21972858.672  
  21972853.734  
  23909769.578   125646678.769    23909780.547    97906540.8594   23909781.012  
                
  23454532.156   125025830.164                    97242318.457    23454537.555  
  23454531.926  
  20923496.000   109953720.305    20923502.008    85678280.3234                 
                
  20577323.375   108134595.760    20577333.145    84260770.2664   20577332.836  
                
  23125851.602   123577551.166                    96115870.246    23125857.109  
  23125851.484  
  21421223.031   112569314.257    21421227.312    87716384.1194                 
                
  21779198.273   114450506.332    21779206.973    89182267.9344   21779207.250  
                
  24183017.766   127082625.077    24183027.906    99025478.6064   24183027.457  
                
  22535659.938   118425716.856    22535669.285    92279827.1184   22535669.516  
                
  19584001.477   104504003.413                                                  
  19583999.023  
  19550004.000   104616041.760                    81368029.990    19550007.277  
  19550002.273  
  21521742.703   115086404.458                    89511703.807    21521749.785  
  21521741.844  
  21117755.984   112886534.547                    87800654.070    21117760.062  
  21117755.898  
  22568633.930   118598992.801    22568641.207    92414849.0104   22568641.523  
                
 21  8 14 12 30 30.0000000  0 17G17R 7R22G 8R14G21G 1R15G22G32G10G 3
                                R 6R21R20R 5G31
  24666597.164   129623850.123    24666604.953   101005627.8364   24666604.883  
                
  22703002.773   121530963.493                    94524087.490    22703008.922  
  22703001.441  
  21966256.836   117257355.522                    91200196.728    21966259.738  
  21966254.805  
  23916003.477   125679437.914    23916014.363    97932067.4504   23916014.859  
                
  23455489.781   125030934.853                    97246288.791    23455495.207  
  23455489.496  
  20923040.109   109951324.597    20923046.141    85676413.5364                 
                
  20574297.039   108118692.217    20574306.809    84248377.8974   20574306.492  
                
  23121241.992   123552918.815                    96096711.778    23121247.512  
  23121241.906  
  21418133.516   112553078.726    21418137.793    87703733.0624                 
                
  21783645.938   114473878.938    21783654.664    89200480.3504   21783654.930  
                
  24188364.711   127110723.197    24188374.793    99047373.2564   24188374.352  
                
  22530855.156   118400467.604    22530864.555    92260152.4004   22530864.762  
                
  19582595.289   104496499.718                                                  
  19582592.840  
  19549849.820   104615216.635                    81367388.219    19549853.105  
  19549848.113  
  21529262.664   115126616.899                    89542980.143    21529269.715  
  21529261.824  
  21123112.695   112915169.168                    87822925.427    21123116.773  
  21123112.590  
  22563399.578   118571486.130    22563406.855    92393415.2624   22563407.191  
                
 21  8 14 12 30 40.0000000  0 17G17R 7R22G 8R14G21G 1R15G22G32G10G 3
                                R 6R21R20R 5G31
  24662574.773   129602712.202    24662582.531   100989156.7424   24662582.465  
                
  22697232.039   121500071.930                    94500060.746    22697238.082  
  22697230.637  
  21959667.195   117222179.434                    91172837.551    21959670.055  
  21959665.148  
  23922239.703   125712209.111    23922250.512    97957603.4294   23922251.016  
                
  23456462.688   125036121.026                    97250322.462    23456468.125  
  23456462.414  
  20922593.219   109948976.141    20922599.270    85674583.5654                 
                
  20571280.789   108102841.693    20571290.574    84236026.8424   20571290.246  
                
  23116642.906   123528342.790                    96077597.127    23116648.441  
  23116642.828  
  21415048.734   112536868.114    21415053.008    87691101.4174                 
                
  21788100.227   114497286.373    21788108.969    89218719.9014   21788109.234  
                
  24193713.406   127138830.643    24193723.426    99069275.1524   24193723.020  
                
  22526053.688   118375235.690    22526063.125    92240491.1664   22526063.332  
                
  19581198.219   104489044.708                                                  
  19581195.730  
  19549713.055   104614484.728                    81366818.962    19549716.332  
  19549711.348  
  21536790.672   115166872.070                    89574289.707    21536797.672  
  21536789.773  
  21128472.914   112943822.587                    87845211.419    21128477.008  
  21128472.809  
  22558172.938   118544019.943    22558180.203    92372013.0544   22558180.555  
                
 21  8 14 12 30 50.0000000  0 17G17R 7R22G 8R14G21G 1R15G22G32G10G 3
                                R 6R21R20R 5G31
  24658561.086   129581620.130    24658568.824   100972721.3744   24658568.758  
                
  22691466.148   121469206.699                    94476054.477    22691472.145  
  22691464.730  
  21953086.789   117187052.868                    91145516.916    21953089.672  
  21953084.758  
  23928478.227   125744992.747    23928489.027    97983149.0874   23928489.539  
                
  23457450.906   125041388.831                    97254419.651    23457456.359  
  23457450.668  
  20922155.375   109946675.329    20922161.445    85672790.7194                 
                
  20568274.695   108087044.630    20568284.500    84223717.4444   20568284.152  
                
  23112054.469   123503823.723                    96058526.762    23112060.012  
  23112054.375  
  21411968.773   112520682.841    21411973.051    87678489.5174                 
                
  21792561.188   114520728.928    21792569.953    89236986.8174   21792570.207  
                
  24199063.922   127166947.727    24199073.930    99091184.5614   24199073.520  
                
  22521255.562   118350021.463    22521265.051    92220843.7314   22521265.234  
                
  19579810.281   104481638.455                                                  
  19579807.801  
  19549593.766   104613846.384                    81366322.478    19549597.035  
  19549592.059  
  21544326.672   115207170.293                    89605632.759    21544333.664  
  21544325.711  
  21133836.742   112972495.300                    87867512.406    21133840.844  
  21133836.617  
  22552954.078   118516594.737    22552961.316    92350642.7654   22552961.672  
                
 21  8 14 12 31  0.0000000  0 17G17R 7R22G 8R14G21G 1R15G22G32G10G 3
                                R 6R21R20R 5G31
  24654556.125   129560573.940    24654563.852   100956321.7614   24654563.812  
                
  22685705.250   121438367.843                    94452068.700    22685711.148  
  22685703.770  
  21946515.656   117151976.000                    91118234.916    21946518.555  
  21946513.641  
  23934719.078   125777788.455    23934729.871    98008704.1684   23934730.383  
                
  23458454.445   125046738.232                    97258580.269    23458459.871  
  23458454.219  
  20921726.617   109944422.168    20921732.715    85671035.0124                 
                
  20565278.789   108071301.015    20565288.621    84211449.6974   20565288.254  
                
  23107476.734   123479361.707                    96039500.786    23107482.285  
  23107476.625  
  21408893.625   112504522.816    21408897.918    87665897.2964                 
                
  21797028.805   114544206.444    21797037.578    89255280.9774   21797037.820  
                
  24204416.234   127195074.392    24204426.273    99113101.4244   24204425.828  
                
  22516460.797   118324824.881    22516470.305    92201210.0454   22516470.465  
                
  19578431.562   104474281.378                                                  
  19578429.086  
  19549491.945   104613301.523                    81365898.702    19549495.230  
  19549490.230  
  21551870.461   115247511.267                    89637009.043    21551877.637  
  21551869.578  
  21139204.102   113001186.960                    87889828.125    21139208.219  
  21139203.953  
  22547743.031   118489210.570    22547750.227    92329304.4684   22547750.590  
                
 21  8 14 12 31 10.0000000  0 17G17R 7R22G 8R14G21G 1R15G22G32G10G 3
                                R 6R21R20R 5G31
  24650559.883   129539573.539    24650567.598   100939957.8234   24650567.562  
                
  22679949.133   121407555.129                    94428103.284    22679955.035  
  22679947.684  
  21939953.898   117116948.826                    91090991.571    21939956.785  
  21939951.855  
  23940962.172   125810596.083    23940972.965    98034268.5334   23940973.496  
                
  23459473.281   125052169.171                    97262804.351    23459478.707  
  23459473.074  
  20921306.922   109942216.597    20921313.035    85669316.3874                 
                
  20562293.055   108055610.875    20562302.898    84199223.6124   20562302.527  
                
  23102909.648   123454956.721                    96020519.133    23102915.215  
  23102909.508  
  21405823.281   112488388.070    21405827.602    87653324.7664                 
                
  21801503.062   114567718.782    21801511.816    89273602.2694   21801512.062  
                
  24209770.367   127223210.584    24209780.426    99135025.7204   24209779.945  
                
  22511669.383   118299645.917    22511678.879    92181590.0784   22511679.062  
                
  19577061.992   104466973.076                                                  
  19577059.520  
  19549407.586   104612850.087                    81365547.575    19549410.879  
  19549405.855  
  21559422.336   115287894.756                    89668418.393    21559429.535  
  21559421.445  
  21144575.016   113029897.503                    87912158.538    21144579.133  
  21144574.855  
  22542539.820   118461867.590    22542546.988    92307998.2524   22542547.328  
                
 21  8 14 12 31 20.0000000  0 17G17R 7R22G 8R14G21G 1R15G22G32G10G 3
                                R 6R21R20R 5G31
  24646572.336   129518618.918    24646580.051   100923629.5584   24646580.027  
                
  22674198.062   121376768.626                    94404158.250    22674203.832  
  22674196.551  
  21933401.422   117081971.433                    91063786.937    21933404.344  
  21933399.402  
  23947207.562   125843415.442    23947218.285    98059842.0364   23947218.855  
                
  23460507.367   125057681.450                    97267091.630    23460512.773  
  23460507.117  
  20920896.250   109940058.515    20920902.391    85667634.7634                 
                
  20559317.484   108039974.147    20559327.348    84187039.1544   20559326.957  
                
  23098353.266   123430608.877                    96001581.934    23098358.844  
  23098353.094  
  21402757.719   112472278.423    21402762.070    87640771.7994                 
                
  21805983.898   114591265.734    21805992.621    89291950.5404   21805992.887  
                
  24215126.250   127251356.149    24215136.344    99156957.3094   24215135.875  
                
  22506881.297   118274484.461    22506890.785    92161983.7654   22506890.965  
                
  19575701.555   104459713.479                                                  
  19575699.098  
  19549340.672   104612492.014                    81365269.088    19549343.977  
  19549338.934  
  21566982.289   115328320.734                    89699860.820    21566989.395  
  21566981.375  
  21149949.391   113058626.596                    87934503.387    21149953.520  
  21149949.234  
  22537344.438   118434565.740    22537351.598    92286724.0974   22537351.918  
                
 21  8 14 12 31 30.0000000  0 17G17R 7R22G 8R14G21G 1R15G22G32G10G 3
                                R 6R21R20R 5G31
  24642593.508   129497710.077    24642601.199   100907336.9574   24642601.172  
                
  22668451.789   121346007.993                    94380233.300    22668457.453  
  22668450.230  
  21926858.312   117047043.977                    91036621.148    21926861.238  
  21926856.285  
  23953455.109   125876246.182    23953465.812    98085424.4044   23953466.387  
                
  23461556.695   125063275.044                    97271442.217    23461562.117  
  23461556.445  
  20920494.586   109937947.770    20920500.750    85665990.0264                 
                
  20556352.062   108024390.743    20556361.949    84174896.2444   20556361.531  
                
  23093807.586   123406318.166                    95982689.175    23093813.137  
  23093807.387  
  21399696.898   112456193.744    21399701.273    87628238.2864                 
                
  21810471.273   114614847.069    21810479.961    89310325.5984   21810480.246  
                
  24220483.875   127279510.902    24220493.988    99178896.0424   24220493.566  
                
  22502096.523   118249340.386    22502105.988    92142390.9744   22502106.164  
                
  19574350.148   104452502.129                                                  
  19574347.680  
  19549291.172   104612227.155                    81365063.072    19549294.480  
  19549289.434  
  21574550.094   115368788.592                    89731335.820    21574557.098  
  21574549.094  
  21155327.242   113087374.287                    87956862.678    21155331.371  
  21155327.098  
  22532156.859   118407304.940    22532164.027    92265481.9284   22532164.344  
                
 21  8 14 12 31 40.0000000  0 17G17R 7R22G 8R14G21G 1R15G22G32G10G 3
                                R 6R21R20R 5G31
  24638623.422   129476847.247    24638631.113   100891080.2164   24638631.078  
                
  22662710.336   121315273.552                    94356328.759    22662716.008  
  22662708.820  
  21920324.609   117012166.597                    91009494.286    21920327.508  
  21920322.566  
  23959704.906   125909088.605    23959715.570    98111015.8824   23959716.121  
                
  23462621.289   125068949.962                    97275856.046    23462626.727  
  23462621.102  
  20920101.992   109935884.662    20920108.180    85664382.4144                 
                
  20553396.844   108008860.963    20553406.746    84162795.1154   20553406.316  
                
  23089272.625   123382084.790                    95963840.998    23089278.188  
  23089272.395  
  21396640.875   112440134.260    21396645.270    87615724.4174                 
                
  21814965.219   114638462.931    21814973.871    89328727.5694   21814974.152  
                
  24225843.312   127307675.064    24225853.465    99200842.1194   24225853.070  
                
  22497315.102   118224213.905    22497324.570    92122811.9114   22497324.750  
                
  19573007.930   104445339.789                                                  
  19573005.473  
  19549259.133   104612055.716                    81364929.723    19549262.441  
  19549257.414  
  21582125.625   115409298.580                    89762843.546    21582132.715  
  21582124.672  
  21160708.586   113116140.563                    87979236.438    21160712.715  
  21160708.438  
  22526977.164   118380085.524    22526984.332    92244272.0004   22526984.652  
                
 21  8 14 12 31 50.0000000  0 17G17R 7R22G 8R14G21G 1R15G22G32G10G 3
                                R 6R21R20R 5G31
  24634662.133   129456030.565    24634669.863   100874859.4234   24634669.777  
                
  22656973.766   121284565.472                    94332444.720    22656979.465  
  22656972.301  
  21913800.336   116977339.527                    90982406.584    21913803.254  
  21913798.289  
  23965956.820   125941942.401    23965967.480    98136616.2304   23965968.012  
                
  23463701.180   125074706.410                    97280333.277    23463706.621  
  23463700.996  
  20919718.477   109933869.215    20919724.688    85662811.9304                 
                
  20550451.844   107993384.873    20550461.762    84150735.8334   20550461.316  
                
  23084748.445   123357908.981                    95945037.618    23084754.008  
  23084748.207  
  21393589.656   112424100.016    21393594.039    87603230.2004                 
                
  21819465.727   114662113.236    21819474.340    89347156.3724   21819474.633  
                
  24231204.578   127335848.560    24231214.766    99222795.4684   24231214.371  
                
  22492537.047   118199105.094    22492546.520    92103246.6074   22492546.688  
                
  19571674.828   104438226.039                                                  
  19571672.375  
  19549244.570   104611977.745                    81364869.084    19549247.883  
  19549242.852  
  21589709.000   115449850.512                    89794383.900    21589716.148  
  21589708.109  
  21166093.359   113144925.173                    88001624.473    21166097.473  
  21166093.230  
  22521805.375   118352907.632    22521812.539    92223094.4314   22521812.863  
                
 21  8 14 12 32  0.0000000  0 17G17R 7R22G 8R14G21G 1R15G22G32G10G 3
                                R 6R21R20R 5G31
  24630709.586   129435259.880    24630717.344   100858674.4954   24630717.254  
                
  22651242.102   121253883.378                    94308580.862    22651247.766  
  22651240.629  
  21907285.453   116942562.748                    90955357.994    21907288.301  
  21907283.426  
  23972210.820   125974807.309    23972221.504    98162225.2264   23972222.008  
                
  23464796.289   125080544.023                    97284873.626    23464801.742  
  23464796.105  
  20919343.977   109931901.193    20919350.203    85661278.4044                 
                
  20547517.039   107977962.371    20547526.973    84138718.2944   20547526.520  
                
  23080235.000   123333790.670                    95926278.950    23080240.566  
  23080234.773  
  21390543.219   112408090.940    21390547.574    87590755.5954                 
                
  21823972.727   114685797.709    21823981.305    89365611.8014   21823981.617  
                
  24236567.586   127364031.228    24236577.797    99244755.9674   24236577.402  
                
  22487762.305   118174013.711    22487771.793    92083694.8964   22487771.961  
                
  19570350.773   104431160.663                                                  
  19570348.320  
  19549247.445   104611993.127                    81364881.041    19549250.758  
  19549245.719  
  21597300.078   115490444.107                    89825956.688    21597307.367  
  21597299.301  
  21171481.586   113173728.315                    88024026.913    21171485.695  
  21171481.453  
  22516641.469   118325771.185    22516648.680    92201949.1604   22516648.973  
                
 21  8 14 12 32 10.0000000  0 17G17R 7R22G 8R14G21G 1R15G22G32G10G 3
                                R 6R21R20R 5G31
  24626765.844   129414535.433    24626773.609   100842525.5754   24626773.527  
                
  22645515.367   121223227.621                    94284737.513    22645521.000  
  22645513.902  
  21900779.969   116907836.349                    90928348.584    21900782.820  
  21900777.992  
  23978466.961   126007683.377    23978477.629    98187842.9254   23978478.117  
                
  23465906.680   125086463.049                    97289477.296    23465912.121  
  23465906.500  
  20918978.562   109929980.905    20918984.805    85659782.0714                 
                
  20544592.477   107962593.707    20544602.430    84126742.7124   20544601.973  
                
  23075732.430   123309730.384                    95907565.403    23075738.012  
  23075732.184  
  21387501.594   112392107.110    21387505.926    87578300.6784                 
                
  21828486.250   114709516.474    21828494.793    89384093.9464   21828495.133  
                
  24241932.375   127392223.285    24241942.625    99266723.7694   24241942.211  
                
  22482990.938   118148940.036    22483000.473    92064156.9894   22483000.633  
                
  19569035.859   104424143.984                                                  
  19569033.410  
  19549267.805   104612102.085                    81364965.777    19549271.121  
  19549266.074  
  21604899.094   115531079.367                    89857561.859    21604906.430  
  21604898.285  
  21176873.227   113202549.713                    88046443.536    21176877.352  
  21176873.105  
  22511485.516   118298676.487    22511492.730    92180836.4154   22511492.996  
                
 21  8 14 12 32 20.0000000  0 17G17R 7R22G 8R14G21G 1R15G22G32G10G 3
                                R 6R21R20R 5G31
  24622830.891   129393857.087    24622838.641   100826412.5974   24622838.555  
                
  22639793.609   121192598.045                    94260914.527    22639799.168  
  22639792.078  
  21894284.047   116873160.703                    90901378.637    21894286.836  
  21894282.090  
  23984725.234   126040570.527    23984735.836    98213469.2594   23984736.324  
                
  23467032.266   125092463.103                    97294143.981    23467037.719  
  23467032.020  
  20918622.195   109928108.127    20918628.449    85658322.7614                 
                
  20541678.141   107947278.759    20541688.109    84114808.9904   20541687.645  
                
  23071240.633   123285727.823                    95888896.761    23071246.270  
  23071240.367  
  21384464.734   112376148.311    21384469.047    87565865.2524                 
                
  21833006.250   114733269.227    21833014.754    89402602.5844   21833015.129  
                
  24247298.930   127420424.478    24247309.195    99288698.7024   24247308.762  
                
  22478222.922   118123883.905    22478232.480    92044632.7224   22478232.641  
                
  19567729.977   104417175.566                                                  
  19567727.527  
  19549305.586   104612304.228                    81365122.995    19549308.906  
  19549303.848  
  21612505.891   115571755.998                    89889199.213    21612513.188  
  21612505.047  
  21182268.227   113231389.017                    88068874.102    21182272.363  
  21182268.098  
  22506337.469   118271623.430    22506344.680    92159756.1274   22506344.957  
                
 21  8 14 12 32 30.0000000  0 17G17R 7R22G 8R14G21G 1R15G22G32G10G 3
                                R 6R21R20R 5G31
  24618904.734   129373225.079    24618912.504   100810335.7294   24618912.402  
                
  22634076.672   121161994.741                    94237111.948    22634082.223  
  22634075.113  
  21887797.664   116838535.893                    90874448.223    21887800.352  
  21887795.754  
  23990985.586   126073468.776    23990996.164    98239104.2374   23990996.672  
                
  23468173.094   125098544.441                    97298873.917    23468178.578  
  23468172.848  
  20918274.898   109926283.064    20918281.156    85656900.6344                 
                
  20538774.055   107932017.716    20538784.039    84102917.2744   20538783.570  
                
  23066759.742   123261783.441                    95870273.401    23066765.414  
  23066759.441  
  21381432.672   112360214.798    21381436.973    87553449.5324                 
                
  21837532.727   114757056.035    21837541.203    89421137.7594   21837541.594  
                
  24252667.234   127448634.914    24252677.520    99310680.8334   24252677.055  
                
  22473458.242   118098845.395    22473467.781    92025122.2024   22473467.965  
                
  19566433.195   104410255.720                                                  
  19566430.770  
  19549360.859   104612599.995                    81365353.041    19549364.168  
  19549359.117  
  21620120.273   115612473.961                    89920868.741    21620127.641  
  21620119.535  
  21187666.641   113260246.616                    88091318.892    21187670.797  
  21187666.508  
  22501197.414   118244612.320    22501204.602    92138708.5194   22501204.891  
                
 21  8 14 12 32 40.0000000  0 17G17R 7R22G 8R14G21G 1R15G22G32G10G 3
                                R 6R21R20R 5G31
  24614987.469   129352639.685    24614995.250   100794295.1674   24614995.125  
                
  22628364.555   121131417.926                    94213330.023    22628370.230  
  22628363.074  
  21881320.812   116803962.347                    90847557.707    21881323.551  
  21881318.965  
  23997247.938   126106377.942    23997258.578    98264747.7234   23997259.109  
                
  23469329.227   125104707.238                    97303667.206    23469334.719  
  23469328.973  
  20917936.742   109924505.993    20917943.008    85655515.9034                 
                
  20535880.305   107916810.938    20535890.289    84091067.8384   20535889.797  
                
  23062289.766   123237897.458                    95851695.421    23062295.477  
  23062289.488  
  21378405.492   112344306.856    21378409.789    87541053.7384                 
                
  21842065.727   114780877.086    21842074.191    89439699.6124   21842074.586  
                
  24258037.359   127476854.870    24258047.645    99332670.3854   24258047.172  
                
  22468696.969   118073824.815    22468706.500    92005625.6694   22468706.695  
                
  19565145.547   104403384.564                                                  
  19565143.129  
  19549433.648   104612989.477                    81365655.956    19549436.949  
  19549431.914  
  21627742.484   115653233.391                    89952570.525    21627749.828  
  21627741.766  
  21193068.461   113289122.422                    88113777.861    21193072.648  
  21193068.336  
  22496065.406   118217643.545    22496072.582    92117693.9044   22496072.879  
                
 21  8 14 12 32 50.0000000  0 17G17R 7R22G 8R14G21G 1R15G22G32G10G 3
                                R 6R21R20R 5G31
  24611079.031   129332100.742    24611086.840   100778290.8114   24611086.707  
                
  22622657.383   121100867.496                    94189568.584    22622663.156  
  22622655.945  
  21874853.586   116769440.087                    90820707.087    21874856.371  
  21874851.758  
  24003512.359   126139297.862    24003523.066    98290399.5764   24003523.598  
                
  23470500.602   125110951.313                    97308523.708    23470506.109  
  23470500.355  
  20917607.695   109922776.786    20917613.969    85654168.4694                 
                
  20532996.859   107901658.308    20533006.840    84079260.5944   20533006.348  
                
  23057830.734   123214070.015                    95833162.986    23057836.512  
  23057830.500  
  21375383.141   112328424.329    21375387.422    87528677.7504                 
                
  21846605.203   114804732.116    21846613.664    89458287.9464   21846614.062  
                
  24263409.203   127505084.130    24263419.504    99354667.1874   24263419.031  
                
  22463939.102   118048822.083    22463948.621    91986143.0184   22463948.828  
                
  19563866.922   104396561.565                                                  
  19563864.512  
  19549523.938   104613472.549                    81366031.679    19549527.223  
  19549522.227  
  21635372.367   115694034.012                    89984304.336    21635379.723  
  21635371.676  
  21198473.695   113318016.456                    88136250.969    21198477.879  
  21198473.559  
  22490941.445   118190717.003    22490948.590    92096712.1944   22490948.883  
                
 21  8 14 12 33  0.0000000  0 17G17R 7R22G 8R14G21G 1R15G22G32G10G 3
                                R 6R21R20R 5G31
  24607179.430   129311608.321    24607187.258   100762322.6884   24607187.113  
                
  22616955.133   121070343.495                    94165827.710    22616961.035  
  22616953.777  
  21868395.992   116734969.050                    90793896.297    21868398.746  
  21868394.129  
  24009778.812   126172228.315    24009789.547    98316059.6464   24009790.059  
                
  23471687.219   125117276.668                    97313443.423    23471692.703  
  23471686.973  
  20917287.742   109921095.385    20917294.016    85652858.2864                 
                
  20530123.695   107886559.772    20530133.656    84067495.5054   20530133.172  
                
  23053382.695   123190301.131                    95814676.073    23053388.465  
  23053382.488  
  21372365.609   112312567.107    21372369.875    87516321.4794                 
                
  21851151.102   114828620.925    21851159.562    89476902.6054   21851159.969  
                
  24268782.797   127533322.641    24268793.141    99376671.1964   24268792.664  
                
  22459184.586   118023837.034    22459194.094    91966674.1674   22459194.320  
                
  19562597.438   104389787.377                                                  
  19562595.008  
  19549631.695   104614049.194                    81366480.181    19549634.984  
  19549630.008  
  21643009.844   115734875.453                    90016069.890    21643017.250  
  21643009.227  
  21203882.234   113346928.264                    88158737.945    21203886.434  
  21203882.086  
  22485825.531   118163832.704    22485832.621    92075763.3964   22485832.910  
                
 21  8 14 12 33 10.0000000  0 17G17R 7R22G 8R14G21G 1R15G22G32G10G 3
                                R 6R21R20R 5G31
  24603288.695   129291162.475    24603296.531   100746390.8824   24603296.387  
                
  22611257.805   121039845.656                    94142107.210    22611263.797  
  22611256.480  
  21861948.125   116700549.359                    90767125.413    21861950.770  
  21861946.223  
  24016047.242   126205169.302    24016057.996    98341727.9194   24016058.504  
                
  23472889.055   125123683.115                    97318426.212    23472894.512  
  23472888.824  
  20916976.875   109919461.770    20916983.148    85651585.3334                 
                
  20527260.852   107871515.417    20527270.785    84055772.6324   20527270.309  
                
  23048945.602   123166590.707                    95796234.650    23048951.359  
  23048945.383  
  21369352.883   112296735.143    21369357.141    87503984.8874                 
                
  21855703.406   114852543.451    21855711.879    89495543.5304   21855712.293  
                
  24274158.141   127561570.338    24274168.531    99398682.3664   24274168.035  
                
  22454433.445   117998869.707    22454442.930    91947219.1164   22454443.176  
                
  19561336.992   104383061.431                                                  
  19561334.543  
  19549756.930   104614719.319                    81367001.382    19549760.215  
  19549755.246  
  21650654.969   115775757.691                    90047867.157    21650662.434  
  21650654.348  
  21209294.148   113375858.014                    88181238.848    21209298.355  
  21209294.012  
  22480717.680   118136990.784    22480724.746    92054847.6274   22480725.047  
                
 21  8 14 12 33 20.0000000  0 17G17R 7R22G 8R14G21G 1R15G22G32G10G 3
                                R 6R21R20R 5G31
  24599406.836   129270763.260    24599414.688   100730495.3944   24599414.555  
                
  22605565.500   121009374.408                    94118407.322    22605571.500  
  22605564.145  
  21855509.820   116666181.270                    90740394.703    21855512.461  
  21855507.914  
  24022317.656   126238120.692    24022328.434    98367404.3014   24022328.934  
                
  23474106.117   125130170.709                    97323472.110    23474111.535  
  23474105.906  
  20916675.102   109917875.898    20916681.371    85650349.5864                 
                
  20524408.328   107856525.302    20524418.234    84044092.0214   20524417.770  
                
  23044519.508   123142939.105                    95777838.981    23044525.250  
  23044519.254  
  21366344.977   112280928.535    21366349.227    87491668.0524                 
                
  21860262.117   114876499.604    21860270.621    89514210.6584   21860271.016  
                
  24279535.242   127589827.150    24279545.648    99420700.6564   24279545.180  
                
  22449685.688   117973920.129    22449695.168    91927777.9004   22449695.414  
                
  19560085.586   104376383.721                                                  
  19560083.133  
  19549899.664   104615483.079                    81367595.414    19549902.973  
  19549897.969  
  21658307.797   115816680.622                    90079696.083    21658315.238  
  21658307.148  
  21214709.383   113404805.534                    88203753.591    21214713.602  
  21214709.250  
  22475617.914   118110191.360    22475624.969    92033964.9764   22475625.281  
                
 21  8 14 12 33 30.0000000  0 17G17R 7R22G 8R14G21G 1R15G22G32G10G 3
                                R 6R21R20R 5G31
  24595533.812   129250410.664    24595541.699   100714636.2564   24595541.574  
                
  22599878.078   120978929.388                    94094727.895    22599884.094  
  22599876.680  
  21849081.188   116631864.930                    90713704.210    21849083.836  
  21849079.285  
  24028590.078   126271082.298    24028600.824    98393088.6544   24028601.316  
                
  23475338.336   125136739.228                    97328580.990    23475343.723  
  23475338.156  
  20916382.414   109916337.821    20916388.684    85649151.0854                 
                
  20521566.117   107841589.440    20521575.992    84032453.6894   20521575.547  
                
  23040104.430   123119346.449                    95759489.127    23040110.148  
  23040104.211  
  21363341.891   112265147.304    21363346.133    87479370.9924                 
                
  21864827.188   114900489.256    21864835.727    89532903.8784   21864836.105  
                
  24284914.039   127618093.024    24284924.461    99442725.9914   24284924.008  
                
  22444941.289   117948988.279    22444950.777    91908350.4854   22444951.020  
                
  19558843.242   104369754.364                                                  
  19558840.773  
  19550059.844   104616340.304                    81368262.134    19550063.160  
  19550058.129  
  21665968.078   115857643.931                    90111556.403    21665975.594  
  21665967.500  
  21220127.883   113433770.523                    88226281.902    21220132.090  
  21220127.742  
  22470526.242   118083434.500    22470533.277    92013115.4814   22470533.605  
                
 21  8 14 12 33 40.0000000  0 17G17R 7R22G 8R14G21G 1R15G22G32G10G 3
                                R 6R21R20R 5G31
  24591669.789   129230105.122    24591677.660   100698813.7434   24591677.535  
                
  22594195.484   120948511.062                    94071069.273    22594201.707  
  22594194.180  
  21842662.289   116597600.629                    90687054.203    21842664.965  
  21842660.395  
  24034864.445   126304054.342    24034875.211    98418781.1474   24034875.715  
                
  23476585.852   125143389.145                    97333753.111    23476591.152  
  23476585.688  
  20916098.867   109914847.760    20916105.141    85647989.9984                 
                
  20518734.312   107826708.174    20518744.156    84020857.8984   20518743.723  
                
  23035700.422   123095812.948                    95741185.340    23035706.133  
  23035700.223  
  21360343.695   112249391.689    21360347.926    87467093.8924                 
                
  21869398.680   114924512.558    21869407.246    89551623.3324   21869407.621  
                
  24290294.641   127646368.264    24290305.082    99464758.6274   24290304.629  
                
  22440200.320   117924074.424    22440209.824    91888937.1134   22440210.055  
                
  19557609.961   104363173.360                                                  
  19557607.484  
  19550237.578   104617291.363                    81369001.847    19550240.906  
  19550235.859  
  21673635.984   115898647.750                    90143448.253    21673643.512  
  21673635.465  
  21225549.703   113462753.296                    88248824.051    21225553.938  
  21225549.555  
  22465442.750   118056720.555    22465449.734    91992299.4314   22465450.086  
                
 21  8 14 12 33 50.0000000  0 17G17R 7R22G 8R14G21G 1R15G22G32G10G 3
                                R 6R21R20R 5G31
  24587814.656   129209846.421    24587822.508   100683027.7704   24587822.375  
                
  22588517.875   120918119.029                    94047431.007    22588524.215  
  22588516.559  
  21836253.086   116563388.416                    90660444.699    21836255.828  
  21836251.246  
  24041140.734   126337036.403    24041151.539    98444481.4314   24041152.027  
                
  23477848.555   125150120.056                    97338988.263    23477853.773  
  23477848.422  
  20915824.430   109913405.558    20915830.707    85646866.2024                 
                
  20515912.859   107811881.342    20515922.676    84009304.5234   20515922.254  
                
  23031307.477   123072338.604                    95722927.540    23031313.164  
  23031307.281  
  21357350.320   112233661.421    21357354.523    87454836.5414                 
                
  21873976.523   114948569.241    21873985.113    89570368.7994   21873985.473  
                
  24295676.977   127674652.593    24295687.430    99486798.3584   24295686.961  
                
  22435462.750   117899178.375    22435472.242    91869537.6004   22435472.477  
                
  19556385.695   104356640.498                                                  
  19556383.211  
  19550432.797   104618336.002                    81369814.337    19550436.125  
  19550431.086  
  21681311.461   115939691.566                    90175371.203    21681318.922  
  21681310.902  
  21230974.828   113491753.644                    88271379.865    21230979.055  
  21230974.695  
  22460367.383   118030049.381    22460374.297    91971516.7174   22460374.680  
                
 21  8 14 12 34  0.0000000  0 17G17R 7R22G 8R14G21G 1R15G22G32G10G 3
                                R 6R21R20R 5G31
  24583968.445   129189634.627    24583976.316   100667278.3514   24583976.203  
                
  22582845.352   120887753.604                    94023813.498    22582851.699  
  22582843.961  
  21829853.742   116529228.356                    90633875.766    21829856.488  
  21829851.891  
  24047418.859   126370028.292    24047429.703    98470189.3744   24047430.172  
                
  23479126.469   125156932.045                    97344286.471    23479131.637  
  23479126.352  
  20915559.148   109912011.496    20915565.426    85645779.9154                 
                
  20513101.797   107797109.090    20513111.574    83997793.6774   20513111.176  
                
  23026925.703   123048923.680                    95704715.939    23026931.352  
  23026925.484  
  21354361.789   112217956.602    21354365.969    87442599.0214                 
                
  21878560.711   114972659.264    21878569.316    89589140.2354   21878569.656  
                
  24301061.031   127702946.071    24301071.492    99508845.2154   24301071.020  
                
  22430728.602   117874300.228    22430738.086    91850152.0414   22430738.328  
                
  19555170.484   104350155.910                                                  
  19555167.992  
  19550645.539   104619474.353                    81370699.708    19550648.867  
  19550643.848  
  21688994.656   115980775.568                    90207325.413    21689001.883  
  21688993.875  
  21236403.227   113520771.540                    88293949.340    21236407.469  
  21236403.082  
  22455300.211   118003421.177    22455307.062    91950767.4704   22455307.469  
                
 21  8 14 12 34 10.0000000  0 17G17R 7R22G 8R14G21G 1R15G22G32G10G 3
                                R 6R21R20R 5G31
  24580131.180   129169469.757    24580139.023   100651565.4634   24580138.938  
                
  22577177.734   120857414.753                    94000216.624    22577184.133  
  22577176.387  
  21823464.297   116495120.695                    90607347.604    21823466.965  
  21823462.398  
  24053698.898   126403030.174    24053709.719    98495905.1214   24053710.207  
                
  23480419.602   125163825.131                    97349647.730    23480424.691  
  23480419.461  
  20915302.992   109910665.385    20915309.266    85644730.9984                 
                
  20510301.125   107782391.466    20510310.867    83986325.4024   20510310.492  
                
  23022555.055   123025568.335                    95686550.683    23022560.691  
  23022554.859  
  21351378.094   112202277.225    21351382.266    87430381.3344                 
                
  21883151.234   114996782.567    21883159.867    89607937.6144   21883160.203  
                
  24306446.844   127731248.691    24306457.328    99530899.1814   24306456.855  
                
  22425997.828   117849439.962    22426007.309    91830780.4124   22426007.562  
                
  19553964.328   104343719.623                                                  
  19553961.812  
  19550875.773   104620706.319                    81371657.917    19550879.105  
  19550874.098  
  21696685.328   116021899.535                    90239310.702    21696692.348  
  21696684.344  
  21241834.852   113549806.699                    88316532.218    21241839.094  
  21241834.707  
  22450241.234   117976836.085    22450248.043    91930051.8184   22450248.457  
                
 21  8 14 12 34 20.0000000  0 17G17R 7R22G 8R14G21G 1R15G22G32G10G 3
                                R 6R21R20R 5G31
  24576302.859   129149351.908    24576310.699   100635889.2494   24576310.625  
                
  22571515.297   120827102.316                    93976640.288    22571521.449  
  22571513.766  
  21817084.695   116461065.579                    90580860.304    21817087.301  
  21817082.762  
  24059980.773   126436041.613    24059991.559    98521628.3044   24059992.098  
                
  23481727.906   125170799.119                    97355071.930    23481732.984  
  23481727.715  
  20915055.969   109909367.237    20915062.223    85643719.4464                 
                
  20507510.859   107767728.504    20507520.559    83974899.7134   20507520.199  
                
  23018195.547   123002272.544                    95668431.758    23018201.156  
  23018195.383  
  21348399.258   112186623.305    21348403.422    87418183.4834                 
                
  21887748.055   115020939.007    21887756.703    89626760.8104   21887757.047  
                
  24311834.391   127759560.370    24311844.902    99552960.1844   24311844.426  
                
  22421270.461   117824597.529    22421279.922    91811422.6964   22421280.188  
                
  19552767.211   104337331.534                                                  
  19552764.695  
  19551123.500   104622031.944                    81372688.953    19551126.840  
  19551121.832  
  21704383.328   116063063.251                    90271326.907    21704390.223  
  21704382.258  
  21247269.727   113578859.210                    88339128.620    21247273.945  
  21247269.578  
  22445190.508   117950294.277    22445197.305    91909369.8954   22445197.715  
                
 21  8 14 12 34 30.0000000  0 17G17R 7R22G 8R14G21G 1R15G22G32G10G 3
                                R 6R21R20R 5G31
  24572483.461   129129281.055    24572491.305   100620249.6244   24572491.246  
                
  22565857.680   120796816.293                    93953084.500    22565863.711  
  22565856.094  
  21810714.875   116427063.003                    90554413.866    21810717.445  
  21810712.949  
  24066264.406   126469062.607    24066275.227    98547358.9264   24066275.789  
                
  23483051.375   125177853.970                    97360559.061    23483056.434  
  23483051.172  
  20914818.031   109908116.908    20914824.262    85642745.1584                 
                
  20504730.977   107753120.195    20504740.645    83963516.6174   20504740.309  
                
  23013847.211   122979036.451                    95650359.265    23013852.852  
  23013847.055  
  21345425.234   112170994.745    21345429.414    87406005.3884                 
                
  21892351.148   115045128.425    21892359.801    89645609.7104   21892360.156  
                
  24317223.648   127787881.006    24317234.191    99575028.2004   24317233.691  
                
  22416546.492   117799772.979    22416555.895    91792078.8814   22416556.184  
                
  19551579.055   104330991.341                                                  
  19551576.543  
  19551388.688   104623451.089                    81373792.744    19551392.051  
  19551387.012  
  21712088.617   116104266.614                    90303373.946    21712095.492  
  21712087.551  
  21252707.812   113607928.929                    88361738.395    21252712.012  
  21252707.656  
  22440147.961   117923795.591    22440154.797    91888721.5794   22440155.172  
                
 21  8 14 12 34 40.0000000  0 17G17R 7R22G 8R14G21G 1R15G22G32G10G 3
                                R 6R21R20R 5G31
  24568673.086   129109257.516    24568680.934   100604646.8804   24568680.902  
                
  22560205.047   120766556.871                    93929549.406    22560210.961  
  22560203.391  
  21804354.961   116393113.353                    90528008.591    21804357.473  
  21804353.047  
  24072549.875   126502093.367    24072560.770    98573097.1464   24072561.359  
                
  23484390.078   125184989.974                    97366109.250    23484395.133  
  23484389.863  
  20914589.273   109906914.762    20914595.488    85641808.4174                 
                
  20501961.570   107738566.856    20501971.211    83952176.3524   20501970.891  
                
  23009510.133   122955860.528                    95632333.589    23009515.805  
  23009509.961  
  21342456.102   112155391.846    21342460.301    87393847.2924                 
                
  21896960.555   115069351.007    21896969.207    89664484.4464   21896969.566  
                
  24322614.688   127816210.872    24322625.191    99597103.4014   24322624.711  
                
  22411825.977   117774966.511    22411835.324    91772749.1804   22411835.637  
                
  19550399.984   104324699.593                                                  
  19550397.480  
  19551671.445   104624964.137                    81374969.533    19551674.832  
  19551669.754  
  21719801.367   116145509.511                    90335451.730    21719808.133  
  21719800.246  
  21258149.141   113637015.881                    88384361.572    21258153.316  
  21258148.984  
  22435113.711   117897340.401    22435120.598    91868107.1644   22435120.941  
                
 21  8 14 12 34 50.0000000  0 17G17R 7R22G 8R14G21G 1R15G22G32G10G 3
                                R 6R21R20R 5G31
  24564871.688   129089281.233    24564879.512   100589080.9464   24564879.449  
                
  22554557.406   120736324.239                    93906035.150    22554563.203  
  22554555.719  
  21798004.969   116359216.633                    90501644.479    21798007.496  
  21798003.039  
  24078837.180   126535133.525    24078848.121    98598842.6914   24078848.727  
                
  23485743.953   125192206.818                    97371722.360    23485749.023  
  23485743.746  
  20914369.664   109905760.661    20914375.848    85640909.1164                 
                
  20499202.602   107724068.390    20499212.227    83940878.8494   20499211.926  
                
  23005184.281   122932744.496                    95614354.440    23005189.906  
  23005184.121  
  21339491.828   112139814.474    21339496.051    87381709.0784                 
                
  21901576.234   115093606.495    21901584.898    89683384.8234   21901585.234  
                
  24328007.422   127844549.760    24328017.898    99619185.6184   24328017.430  
                
  22407108.883   117750178.042    22407118.207    91753433.4934   22407118.504  
                
  19549229.891   104318455.778                                                  
  19549227.387  
  19551971.695   104626570.851                    81376219.198    19551975.098  
  19551970.004  
  21727521.359   116186791.776                    90367560.145    21727528.133  
  21727520.270  
  21263593.680   113666120.007                    88406998.107    21263597.844  
  21263593.539  
  22430087.734   117870928.710    22430094.637    91847526.6384   22430094.961  
                
 21  8 14 12 35  0.0000000  0 17G17R 7R22G 8R14G21G 1R15G22G32G10G 3
                                R 6R21R20R 5G31
  24561079.320   129069352.257    24561087.109   100573551.8794   24561087.016  
                
  22548914.711   120706118.043                    93882541.420    22548920.359  
  22548912.984  
  21791664.906   116325373.052                    90475321.718    21791667.426  
  21791662.988  
  24085126.273   126568182.897    24085137.250    98624595.4154   24085137.840  
                
  23487113.000   125199504.612                    97377398.431    23487118.066  
  23487112.824  
  20914159.195   109904654.651    20914165.363    85640047.2884                 
                
  20496454.078   107709624.825    20496463.691    83929624.1294   20496463.406  
                
  23000869.656   122909688.677                    95596422.203    23000875.289  
  23000869.523  
  21336532.414   112124262.668    21336536.660    87369590.7864                 
                
  21906198.125   115117894.758    21906206.785    89702310.7334   21906207.137  
                
  24333401.883   127872897.581    24333412.352    99641274.8104   24333411.898  
                
  22402395.180   117725407.460    22402404.492    91734131.7544   22402404.805  
                
  19548068.789   104312259.958                                                  
  19548066.293  
  19552289.453   104628271.213                    81377541.690    19552292.863  
  19552287.809  
  21735248.609   116228113.210                    90399699.030    21735255.418  
  21735247.559  
  21269041.391   113695241.106                    88429647.845    21269045.539  
  21269041.246  
  22425070.031   117844560.684    22425076.965    91826980.1354   22425077.273  
                
 21  8 14 12 35 10.0000000  0 17G17R 7R22G 8R14G21G 1R15G22G32G10G 3
                                R 6R21R20R 5G31
  24557295.992   129049470.758    24557303.777   100558059.7984   24557303.660  
                
  22543276.977   120675938.689                    93859068.605    22543282.566  
  22543275.238  
  21785334.953   116291582.824                    90449040.434    21785337.379  
  21785332.934  
  24091417.227   126601241.471    24091428.121    98650355.3234   24091428.703  
                
  23488497.211   125206883.213                    97383137.341    23488502.227  
  23488497.027  
  20913957.891   109903596.797    20913964.039    85639222.9824                 
                
  20493716.039   107695236.341    20493725.652    83918412.3264   20493725.371  
                
  22996566.344   122886693.254                    95578536.891    22996572.004  
  22996566.219  
  21333577.891   112108736.524    21333582.148    87357492.5044                 
                
  21910826.281   115142215.828    21910834.934    89721262.2194   21910835.297  
                
  24338798.055   127901254.482    24338808.559    99663371.0694   24338808.102  
                
  22397684.938   117700654.974    22397694.230    91714844.1074   22397694.566  
                
  19546916.688   104306112.161                                                  
  19546914.188  
  19552624.734   104630065.317                    81378937.102    19552628.145  
  19552623.125  
  21742983.250   116269473.910                    90431868.448    21742990.051  
  21742982.160  
  21274492.266   113724379.086                    88452310.713    21274496.402  
  21274492.148  
  22420060.695   117818236.521    22420067.688    91806467.8284   22420067.957  
                
 21  8 14 12 35 20.0000000  0 17G17R 7R22G 8R14G21G 1R15G22G32G10G 3
                                R 6R21R20R 5G31
  24553521.695   129029636.757    24553529.484   100542604.7404   24553529.375  
                
  22537644.211   120645786.016                    93835616.542    22537649.750  
  22537642.488  
  21779014.891   116257845.880                    90422800.600    21779017.309  
  21779012.859  
  24097709.766   126634308.925    24097720.625    98676122.1484   24097721.230  
                
  23489896.578   125214342.588                    97388939.084    23489901.559  
  23489896.434  
  20913765.750   109902587.073    20913771.883    85638436.1804                 
                
  20490988.484   107680902.960    20490998.098    83907243.4524   20490997.812  
                
  22992274.367   122863758.181                    95560698.507    22992280.012  
  22992274.273  
  21330628.234   112093236.001    21330632.500    87345414.1764                 
                
  21915460.648   115166569.550    21915469.309    89740239.1384   21915469.660  
                
  24344195.922   127929620.364    24344206.453    99685474.3084   24344205.977  
                
  22392978.125   117675920.505    22392987.410    91695570.4944   22392987.734  
                
  19545773.562   104300012.243                                                  
  19545771.062  
  19552977.555   104631953.224                    81380405.481    19552980.965  
  19552975.965  
  21750725.070   116310873.519                    90464068.132    21750732.000  
  21750724.105  
