     2.11           OBSERVATION DATA    M (MIXED)           RINEX VERSION / TYPE
EFT-CORS.RU                             20210817 145323 UTC PGM / RUN BY / DATE 
MDNG                                                        MARKER NAME         
                                                            MARKER NUMBER       
MDNG                EFT-CORS.RU                             OBSERVER / AGENCY   
0                   TRIMBLE BD970       2.0                 REC # / TYPE / VERS 
0                   UNKNOWN EXT NONE                        ANT # / TYPE        
  3463911.2830  3030468.2400  4402179.3760                  APPROX POSITION XYZ 
        0.0000        0.0000        0.0000                  ANTENNA: DELTA H/E/N
     1     1                                                WAVELENGTH FACT L1/2
     6    C1    L1    P2    L2    C2    P1                  # / TYPES OF OBSERV 
    10.000                                                  INTERVAL            
  2021     8    15    15    30    0.0000000     GPS         TIME OF FIRST OBS   
  2021     8    15    16    30    0.0000000     GPS         TIME OF LAST OBS    
     0                                                      RCV CLOCK OFFS APPL 
                                                            END OF HEADER       
 21  8 15 15 30  0.0000000  0 18G16R 1G 4R17R23R 8G31G 1G22G 7R10R 7
                                G 6G26R24G 9G 3R 9
  23837988.641   125269488.320    23837996.648    97612619.2304                 
                
  20525374.242   109719914.353                    85337728.406    20525380.004  
  20525373.453  
  20469592.484   107568490.392    20469600.164    83819665.5484   20469599.902  
                
  22951741.180   122819417.116                    95526208.020    22951745.484  
  22951739.340  
  22784167.141   121879935.725                                                  
  22784165.340  
  19813327.625   106099524.245                    82521864.104    19813330.242  
  19813326.766  
  23782423.492   124977530.301    23782430.617    97385145.6584   23782431.012  
                
  23926620.734   125735262.468    23926632.770    97975573.0534   23926632.484  
                
  21916108.664   115169970.495    21916113.660    89742813.3674                 
                
  24628251.305   129422324.739    24628260.648   100848610.0824   24628260.453  
                
  20053769.320   106897901.337                                                  
  20053768.316  
  22509431.312   120494788.825                    93718182.915    22509437.840  
  22509430.055  
  23178444.242   121803540.796    23178454.371    94911906.5844   23178454.562  
                
  22987489.578   120800113.359    22987499.922    94129993.4164   22987499.801  
                
  21785347.398   116496053.871                    90608036.139    21785352.922  
  21785346.676  
  22158351.438   116442951.873    22158360.348    90734818.9164   22158360.172  
                
  20634318.547   108434135.404    20634327.547    84494182.9324   20634328.008  
                
  21993962.023   117446568.804                    91347335.902    21993965.281  
  21993961.266  
 21  8 15 15 30 10.0000000  0 18G16R 1G 4R17R23R 8G31G 1G22G 7R10R 7
                                G 6G26R24G 9G 3R 9
  23832364.203   125239931.441    23832372.141    97589587.9174                 
                
  20521399.719   109698668.273                    85321203.684    20521405.480  
  20521398.922  
  20468728.492   107563950.064    20468736.152    83816127.6294   20468735.898  
                
  22948268.055   122800831.962                    95511752.944    22948272.375  
  22948266.184  
  22791382.023   121918529.554                                                  
  22791380.125  
  19814377.836   106105148.125                    82526238.233    19814380.473  
  19814376.973  
  23789009.117   125012137.891    23789016.242    97412112.6024   23789016.617  
                
  23933838.961   125773194.948    23933851.145    98005130.8034   23933850.828  
                
  21920679.906   115193992.474    21920684.926    89761531.7824                 
                
  24621758.320   129388204.062    24621767.641   100822022.5714   24621767.465  
                
  20052211.836   106889599.142                                                  
  20052210.812  
  22514661.945   120522788.702                    93739960.578    22514668.457  
  22514660.625  
  23174995.000   121785414.918    23175005.086    94897782.5234   23175005.297  
                
  22985721.445   120790821.781    22985731.812    94122753.2434   22985731.680  
                
  21788334.477   116512027.150                    90620459.788    21788340.039  
  21788333.754  
  22153946.117   116419801.773    22153955.039    90716779.8894   22153954.859  
                
  20636988.938   108448168.355    20636998.012    84505117.6954   20636998.422  
                
  21999108.188   117474049.082                    91368709.433    21999111.473  
  21999107.414  
 21  8 15 15 30 20.0000000  0 18G16R 1G 4R17R23R 8G31G 1G22G 7R10R 7
                                G 6G26R24G 9G 3R 9
  23826744.961   125210402.041    23826752.801    97566577.9984                 
                
  20517429.625   109677445.897                    85304697.395    20517435.395  
  20517428.824  
  20467871.180   107559444.898    20467878.832    83812617.1184   20467878.578  
                
  22944809.625   122782325.545                    95497359.065    22944813.977  
  22944807.672  
  22798602.297   121957152.905                                                  
  22798600.363  
  19815435.055   106110809.516                    82530641.534    19815437.703  
  19815434.180  
  23795599.055   125046768.219    23795606.184    97439097.2804   23795606.559  
                
  23941058.469   125811133.463    23941070.684    98034693.2434   23941070.332  
                
  21925258.156   115218051.285    21925263.152    89780278.8944                 
                
  24615267.195   129354093.335    24615276.551   100795442.8184   24615276.367  
                
  20050671.578   106881388.756                                                  
  20050670.527  
  22519896.242   120550808.164                    93761753.478    22519902.785  
  22519894.879  
  23171556.680   121767346.403    23171566.719    94883703.1784   23171566.941  
                
  22983964.609   120781589.626    22983975.020    94115559.3664   22983974.855  
                
  21791336.297   116528079.259                    90632944.747    21791341.871  
  21791335.574  
  22149545.156   116396674.605    22149554.078    90698758.7324   22149553.906  
                
  20639668.711   108462250.621    20639677.863    84516090.8874   20639678.223  
                
  22004266.617   117501594.916                    91390133.951    22004269.957  
  22004265.832  
 21  8 15 15 30 30.0000000  0 18G16R 1G 4R17R23R 8G31G 1G22G 7R10R 7
                                G 6G26R24G 9G 3R 9
  23821130.969   125180900.168    23821138.707    97543589.5374                 
                
  20513464.016   109656247.447                    85288209.729    20513469.789  
  20513463.215  
  20467020.562   107554974.876    20467028.203    83809133.9854   20467027.953  
                
  22941365.961   122763898.116                    95483026.593    22941370.379  
  22941363.980  
  22805827.812   121995805.407                                                  
  22805826.023  
  19816499.258   106116508.315                    82535073.928    19816501.918  
  19816498.375  
  23802193.305   125081421.120    23802200.430    97466099.5444   23802200.809  
                
  23948279.180   125849077.864    23948291.328    98064260.2974   23948290.949  
                
  21929843.391   115242146.818    21929848.375    89799054.6384                 
                
  24608777.984   129319992.523    24608787.352   100768870.8004   24608787.184  
                
  20049148.477   106873269.850                                                  
  20049147.414  
  22525134.195   120578847.483                    93783561.796    22525140.797  
  22525132.797  
  23168129.266   121749335.263    23168139.258    94869668.5284   23168139.484  
                
  22982219.094   120772416.938    22982229.535    94108411.8194   22982229.352  
                
  21794352.844   116544210.185                    90645491.018    21794358.469  
  21794352.062  
  22145148.555   116373570.354    22145157.453    90680755.4254   22145157.305  
                
  20642357.852   108476382.151    20642367.078    84527102.4724   20642367.395  
                
  22009437.297   117529206.054                    91411609.254    22009440.672  
  22009436.469  
 21  8 15 15 30 40.0000000  0 18G16R 1G 4R17R23R 8G31G 1G22G 7R10R 7
                                G 6G26R24G 9G 3R 9
  23815522.211   125151425.985    23815529.910    97520622.6534                 
                
  20509502.930   109635073.196                    85271740.871    20509508.711  
  20509502.121  
  20466176.648   107550540.062    20466184.285    83805678.2834   20466184.039  
                
  22937937.117   122745549.694                    95468755.628    22937941.562  
  22937935.184  
  22813058.977   122034487.235                                                  
  22813057.156  
  19817570.445   106122244.538                    82539535.434    19817573.113  
  19817569.551  
  23808791.844   125116096.583    23808798.984    97493119.3804   23808799.355  
                
  23955501.016   125887028.166    23955513.102    98093831.9464   23955512.684  
                
  21934435.648   115266279.228    21934440.668    89817859.1054                 
                
  24602290.680   129285901.845    24602300.102   100742306.6874   24602299.941  
                
  20047642.672   106865243.098                                                  
  20047641.617  
  22530375.859   120606906.385                    93805385.350    22530382.441  
  22530374.449  
  23164712.812   121731381.681    23164722.738    94855678.7204   23164722.988  
                
  22980484.914   120763303.819    22980495.312    94101310.7034   22980495.137  
                
  21797384.172   116560420.151                    90658098.739    21797389.840  
  21797383.363  
  22140756.328   116350489.105    22140765.223    90662770.0504   22140765.078  
                
  20645056.391   108490563.049    20645065.684    84538152.5124   20645065.957  
                
  22014620.211   117556882.476                    91433135.369    22014623.609  
  22014619.379  
 21  8 15 15 30 50.0000000  0 18G16R 1G 4R17R23R 8G31G 1G22G 7R10R 7
                                G 6G26R24G 9G 3R 9
  23809918.812   125121979.871    23809926.492    97497677.6494                 
                
  20505546.375   109613923.153                    85255290.843    20505552.160  
  20505545.570  
  20465339.484   107546140.736    20465347.121    83802250.2404   20465346.867  
                
  22934523.117   122727280.556                    95454546.265    22934527.520  
  22934521.215  
  22820295.656   122073198.343                                                  
  22820293.789  
  19818648.719   106128018.646                    82544026.404    19818651.383  
  19818647.824  
  23815394.703   125150794.747    23815401.883    97520156.8884   23815402.254  
                
  23962724.031   125924984.532    23962735.988    98123408.3224   23962735.574  
                
  21939034.961   115290448.720    21939040.023    89836692.4634                 
                
  24595805.375   129251821.679    24595814.867   100715750.7534   24595814.691  
                
  20046154.086   106857308.130                                                  
  20046153.027  
  22535621.273   120634985.570                    93827224.725    22535627.887  
  22535619.883  
  23161307.391   121713485.985    23161317.266    94841734.0244   23161317.527  
                
  22978762.148   120754250.645    22978772.480    94094256.2814   22978772.348  
                
  21800430.305   116576709.087                    90670767.898    21800435.953  
  21800429.488  
  22136368.555   116327431.201    22136377.461    90644802.8594   22136377.305  
                
  20647764.383   108504793.560    20647773.723    84549241.2134   20647773.961  
                
  22019815.375   117584624.283                    91454712.337    22019818.785  
  22019814.543  
 21  8 15 15 31  0.0000000  0 18G16R 1G 4R17R23R 8G31G 1G22G 7R10R 7
                                G 6G26R24G 9G 3R 9
  23804320.734   125092561.858    23804328.363    97474754.5314                 
                
  20501594.398   109592797.606                    85238859.862    20501600.184  
  20501593.590  
  20464509.047   107541776.786    20464516.680    83798849.7604   20464516.434  
                
  22931123.977   122709090.974                    95440398.845    22931128.336  
  22931122.098  
  22827537.688   122111938.459                                                  
  22827535.871  
  19819734.039   106133830.511                    82548546.743    19819736.691  
  19819733.141  
  23822001.820   125185515.469    23822009.047    97547211.9634   23822009.414  
                
  23969948.094   125962946.776    23969959.984    98152989.2764   23969959.594  
                
  21943641.289   115314655.104    21943646.363    89855554.5804                 
                
  24589322.070   129217752.004    24589331.594   100689202.9844   24589331.438  
                
  20044682.773   106849465.262                                                  
  20044681.695  
  22540870.367   120663084.649                    93849079.542    22540877.016  
  22540868.945  
  23157912.961   121695648.136    23157922.781    94827834.4044   23157923.070  
                
  22977050.766   120745257.360    22977061.051    94087248.5404   22977060.941  
                
  21803491.148   116593076.692                    90683498.262    21803496.770  
  21803490.320  
  22131985.180   116304396.520    22131994.105    90626853.7624   22131993.930  
                
  20650481.781   108519073.592    20650491.145    84560368.4994   20650491.379  
                
  22025022.742   117612431.298                    91476340.000    22025026.129  
  22025021.918  
 21  8 15 15 31 10.0000000  0 18G16R 1G 4R17R23R 8G31G 1G22G 7R10R 7
                                G 6G26R24G 9G 3R 9
  23798728.031   125063172.186    23798735.676    97451853.5294                 
                
  20497647.000   109571696.512                    85222447.908    20497652.793  
  20497646.203  
  20463685.375   107537448.334    20463693.008    83795476.9414   20463692.766  
                
  22927739.680   122690980.922                    95426313.292    22927744.031  
  22927737.824  
  22834785.164   122150707.434                                                  
  22834783.367  
  19820826.406   106139680.071                    82553096.401    19820829.059  
  19820825.508  
  23828613.242   125220258.790    23828620.473    97574284.6534   23828620.871  
                
  23977173.250   126000914.932    23977185.129    98182574.8364   23977184.746  
                
  21948254.656   115338898.472    21948259.730    89874445.4974                 
                
  24582840.773   129183692.936    24582850.367   100662663.4994   24582850.219  
                
  20043228.812   106841714.861                                                  
  20043227.727  
  22546123.203   120691203.759                    93870949.975    22546129.887  
  22546121.766  
  23154529.586   121677868.374    23154539.352    94813980.0394   23154539.676  
                
  22975350.828   120736324.161    22975361.078    94080287.6234   22975360.980  
                
  21806566.734   116609523.322                    90696290.054    21806572.359  
  21806565.902  
  22127606.266   116281385.217    22127615.211    90608922.8834   22127615.016  
                
  20653208.641   108533403.250    20653218.004    84571534.4554   20653218.234  
                
  22030242.305   117640303.518                    91498018.393    22030245.707  
  22030241.496  
 21  8 15 15 31 20.0000000  0 18G16R 1G 4R17R23R 8G31G 1G22G 7R10R 7
                                G 6G26R24G 9G 3R 9
  23793140.703   125033810.625    23793148.348    97428974.4044                 
                
  20493704.125   109550619.630                    85206054.785    20493709.922  
  20493703.328  
  20462868.375   107533154.999    20462876.008    83792131.4894   20462875.773  
                
  22924370.219   122672950.346                    95412289.526    22924374.605  
  22924368.293  
  22842037.992   122189504.932                                                  
  22842036.207  
  19821925.812   106145567.382                    82557675.421    19821928.469  
  19821924.914  
  23835228.867   125255024.168    23835236.090    97601374.5604   23835236.484  
                
  23984399.414   126038888.491    23984411.312    98212164.5944   23984410.918  
                
  21952874.984   115363178.472    21952880.059    89893364.9644                 
                
  24576361.477   129149644.181    24576371.082   100636132.0314   24576370.930  
                
  20041792.078   106834056.280                                                  
  20041790.977  
  22551379.773   120719342.605                    93892835.713    22551386.438  
  22551378.309  
  23151157.188   121660146.337    23151166.934    94800170.6714   23151167.289  
                
  22973662.250   120727450.729    22973672.465    94073373.2794   22973672.379  
                
  21809656.961   116626048.143                    90709142.686    21809662.547  
  21809656.188  
  22123231.734   116258396.939    22123240.707    90591009.9584   22123240.520  
                
  20655944.859   108547782.156    20655954.215    84582738.7934   20655954.465  
                
  22035474.016   117668240.536                    91519747.172    22035477.434  
  22035473.207  
 21  8 15 15 31 30.0000000  0 18G16R 1G 4R17R23R 8G31G 1G22G 7R10R 7
                                G 6G26R24G 9G 3R 9
  23787558.781   125004477.441    23787566.453    97406117.4064                 
                
  20489765.836   109529567.226                    85189680.699    20489771.641  
  20489765.047  
  20462058.094   107528896.953    20462065.723    83788813.5344   20462065.496  
                
  22921015.594   122654999.350                    95398327.633    22921020.035  
  22921013.590  
  22849296.070   122228330.839                                                  
  22849294.359  
  19823032.242   106151492.246                    82562283.652    19823034.887  
  19823031.320  
  23841848.719   125289811.741    23841855.914    97628481.7474   23841856.340  
                
  23991626.617   126076867.551    23991638.539    98241758.6344   23991638.137  
                
  21957502.320   115387495.265    21957507.438    89912313.1094                 
                
  24569884.188   129115605.965    24569893.777   100609608.7834   24569893.633  
                
  20040372.617   106826489.785                                                  
  20040371.512  
  22556640.047   120747501.203                    93914736.840    22556646.723  
  22556638.578  
  23147795.844   121642482.321    23147805.602    94786406.5064   23147805.957  
                
  22971985.125   120718637.334    22971995.250    94066505.6894   22971995.191  
                
  21812761.883   116642651.456                    90722056.377    21812767.426  
  21812761.113  
  22118861.617   116235431.886    22118870.621    90573115.1234   22118870.414  
                
  20658690.477   108562210.449    20658699.828    84593981.6174   20658700.078  
                
  22040717.852   117696242.277                    91541526.303    22040721.273  
  22040717.059  
 21  8 15 15 31 40.0000000  0 18G16R 1G 4R17R23R 8G31G 1G22G 7R10R 7
                                G 6G26R24G 9G 3R 9
  23781982.312   124975172.854    23781989.980    97383282.6574                 
                
  20485832.133   109508539.312                    85173325.661    20485837.934  
  20485831.355  
  20461254.531   107524674.211    20461262.156    83785523.0854   20461261.938  
                
  22917675.898   122637128.132                    95384427.742    22917680.379  
  22917673.828  
  22856559.477   122267184.988                                                  
  22856557.730  
  19824145.719   106157454.921                    82566921.277    19824148.363  
  19824144.777  
  23848472.766   125324621.338    23848479.926    97655606.1074   23848480.391  
                
  23998854.781   126114852.008    23998866.758    98271356.8854   23998866.363  
                
  21962136.656   115411848.851    21962141.816    89931289.9224                 
                
  24563408.945   129081578.399    24563418.504   100583093.8284   24563418.371  
                
  20038970.422   106819015.376                                                  
  20038969.316  
  22561904.031   120775679.681                    93936653.404    22561910.707  
  22561902.566  
  23144445.547   121624876.380    23144455.312    94772687.5924   23144455.648  
                
  22970319.414   120709883.987    22970329.445    94059684.9064   22970329.410  
                
  21815881.453   116659333.212                    90735031.080    21815886.969  
  21815880.711  
  22114495.930   116212490.095    22114504.949    90555238.4124   22114504.738  
                
  20661445.500   108576688.183    20661454.844    84605262.9634   20661455.094  
                
  22045973.789   117724308.679                    91563355.713    22045977.227  
  22045973.016  
 21  8 15 15 31 50.0000000  0 18G16R 1G 4R17R23R 8G31G 1G22G 7R10R 7
                                G 6G26R24G 9G 3R 9
  23776411.305   124945896.946    23776418.969    97360470.2754                 
                
  20481903.000   109487535.885                    85156989.664    20481908.793  
  20481902.238  
  20460457.672   107520486.684    20460465.281    83782260.0854   20460465.082  
                
  22914351.117   122619336.522                    95370589.840    22914355.633  
  22914349.137  
  22863828.070   122306067.104                                                  
  22863826.332  
  19825266.234   106163455.252                    82571588.205    19825268.891  
  19825265.293  
  23855100.977   125359452.845    23855108.074    97682747.5354   23855108.598  
                
  24006084.016   126152841.704    24006095.969    98300959.2234   24006095.598  
                
  21966777.984   115436239.197    21966783.152    89950295.3644                 
                
  24556935.828   129047561.540    24556945.305   100556587.2194   24556945.180  
                
  20037585.531   106811633.161                                                  
  20037584.441  
  22567171.750   120803877.970                    93958585.389    22567178.406  
  22567170.281  
  23141106.305   121607328.541    23141116.059    94759013.9524   23141116.430  
                
  22968665.148   120701190.751    22968675.105    94052910.9454   22968675.109  
                
  21819015.617   116676092.982                    90748066.450    21819021.121  
  21819014.867  
  22110134.664   116189571.493    22110143.664    90537379.7754   22110143.461  
                
  20664209.914   108591215.235    20664219.258    84616582.7444   20664219.504  
                
  22051241.820   117752439.643                    91585235.343    22051245.297  
  22051241.070  
 21  8 15 15 32  0.0000000  0 18G16R 1G 4R17R23R 8G31G 1G22G 7R10R 7
                                G 6G26R24G 9G 3R 9
  23770845.773   124916649.867    23770853.430    97337680.3814                 
                
  20477978.438   109466556.839                    85140672.638    20477984.242  
  20477977.680  
  20459667.516   107516334.370    20459675.102    83779024.5174   20459674.914  
                
  22911041.266   122601624.701                    95356813.991    22911045.762  
  22911039.406  
  22871101.875   122344977.187                                                  
  22871100.191  
  19826393.820   106169493.417                    82576284.549    19826396.473  
  19826392.895  
  23861733.328   125394306.118    23861740.402    97709905.9304   23861740.938  
                
  24013314.305   126190836.496    24013326.137    98330565.5434   24013325.797  
                
  21971426.250   115460665.985    21971431.441    89969329.2224                 
                
  24550464.734   129013555.383    24550474.129   100530088.9514   24550474.000  
                
  20036217.945   106804343.181                                                  
  20036216.867  
  22572443.141   120832096.018                    93980532.755    22572449.781  
  22572441.695  
  23137778.133   121589838.823    23137787.883    94745385.6054   23137788.277  
                
  22967022.328   120692557.628    22967032.270    94046183.8454   22967032.258  
                
  21822164.383   116692930.883                    90761162.575    21822169.875  
  21822163.633  
  22105777.805   116166676.110    22105786.781    90519539.2244   22105786.602  
                
  20666983.719   108605791.621    20666993.055    84627940.9624   20666993.289  
                
  22056521.914   117780634.955                    91607165.040    22056525.410  
  22056521.188  
 21  8 15 15 32 10.0000000  0 18G16R 1G 4R17R23R 8G31G 1G22G 7R10R 7
                                G 6G26R24G 9G 3R 9
  23765285.750   124887431.709    23765293.398    97314912.9984                 
                
  20474058.469   109445602.429                    85124374.773    20474064.270  
  20474057.703  
  20458884.055   107512217.262    20458891.625    83775816.3824   20458891.449  
                
  22907746.352   122583992.777                    95343100.277    22907750.793  
  22907744.520  
  22878380.922   122383914.852                                                  
  22878379.207  
  19827528.484   106175569.487                    82581010.370    19827531.121  
  19827527.570  
  23868369.805   125429181.072    23868376.887    97737081.2194   23868377.395  
                
  24020545.500   126228836.311    24020557.258    98360175.7744   24020556.934  
                
  21976081.453   115485129.213    21976086.648    89988391.4764                 
                
  24543995.617   128979560.034    24544005.016   100503599.1084   24544004.898  
                
  20034867.641   106797145.300                                                  
  20034866.566  
  22577718.211   120860333.843                    94002495.493    22577724.832  
  22577716.789  
  23134461.031   121572407.329    23134470.801    94731802.6254   23134471.207  
                
  22965390.945   120683984.688    22965400.879    94039503.6304   22965400.863  
                
  21825327.727   116709846.811                    90774319.389    21825333.219  
  21825326.945  
  22101425.375   116143803.968    22101434.340    90501716.7884   22101434.172  
                
  20669766.898   108620417.303    20669776.223    84639337.5894   20669776.445  
                
  22061814.000   117808894.399                    91629144.596    22061817.508  
  22061813.270  
 21  8 15 15 32 20.0000000  0 18G16R 1G 4R17R23R 8G31G 1G22G 7R10R 7
                                G 6G26R24G 9G 3R 9
  23759731.234   124858242.561    23759738.891    97292168.2004                 
                
  20470143.102   109424672.588                    85108096.015    20470148.902  
  20470142.348  
  20458107.289   107508135.349    20458114.844    83772635.6734   20458114.676  
                
  22904466.328   122566440.766                    95329448.747    22904470.746  
  22904464.461  
  22885665.070   122422879.998                                                  
  22885663.379  
  19828670.156   106181683.075                    82585765.391    19828672.793  
  19828669.262  
  23875010.391   125464077.656    23875017.480    97764273.3464   23875017.980  
                
  24027777.617   126266841.055    24027789.312    98389789.8414   24027788.988  
                
  21980743.586   115509628.941    21980748.758    90007482.1614                 
                
  24537528.539   128945575.514    24537537.945   100477117.7024   24537537.836  
                
  20033534.672   106790039.879                                                  
  20033533.594  
  22582996.945   120888591.430                    94024473.589    22583003.609  
  22582995.523  
  23131155.016   121555034.129    23131164.824    94718265.0664   23131165.199  
                
  22963771.016   120675471.977    22963780.953    94032870.3554   22963780.961  
                
  21828505.641   116726840.570                    90787536.726    21828511.137  
  21828504.875  
  22097077.367   116120955.101    22097086.309    90483912.4824   22097086.129  
                
  20672559.453   108635092.295    20672568.766    84650772.6434   20672568.984  
                
  22067118.078   117837217.858                    91651173.919    22067121.609  
  22067117.324  
 21  8 15 15 32 30.0000000  0 18G16R 1G 4R17R23R 8G31G 1G22G 7R10R 7
                                G 6G26R24G 9G 3R 9
  23754182.289   124829082.558    23754189.922    97269446.1454                 
                
  20466232.344   109403767.370                    85091836.411    20466238.121  
  20466231.609  
  20457337.227   107504088.637    20457344.770    83769482.3924   20457344.617  
                
  22901201.258   122548968.874                    95315859.499    22901205.715  
  22901199.301  
  22892954.336   122461872.519                                                  
  22892952.668  
  19829818.906   106187834.528                    82590549.847    19829821.543  
  19829818.039  
  23881655.078   125498995.796    23881662.184    97791482.2564   23881662.672  
                
  24035010.672   126304850.624    24035022.297    98419407.6674   24035021.980  
                
  21985412.664   115534165.095    21985417.789    90026601.2324                 
                
  24531063.586   128911601.893    24531072.906   100450644.7814   24531072.828  
                
  20032219.023   106783026.695                                                  
  20032217.945  
  22588279.375   120916868.561                    94046466.906    22588286.070  
  22588277.965  
  23127860.125   121537719.283    23127869.969    94704772.9804   23127870.324  
                
  22962162.578   120667019.593    22962172.527    94026284.0834   22962172.520  
                
  21831698.125   116743912.034                    90800814.528    21831703.625  
  21831697.441  
  22092733.805   116098129.510    22092742.727    90466126.3114   22092742.566  
                
  20675361.406   108649816.590    20675370.711    84662246.1114   20675370.914  
                
  22072434.133   117865605.199                    91673252.981    22072437.676  
  22072433.375  
 21  8 15 15 32 40.0000000  0 18G16R 1G 4R17R23R 8G31G 1G22G 7R10R 7
                                G 6G26R24G 9G 3R 9
  23748638.961   124799952.060    23748646.543    97246747.0774                 
                
  20462326.281   109382887.246                    85075596.317    20462332.023  
  20462325.566  
  20456573.898   107500077.320    20456581.453    83766356.6994   20456581.297  
                
  22897951.211   122531577.421                    95302332.793    22897955.656  
  22897949.195  
  22900248.711   122500892.351                                                  
  22900247.070  
  19830974.766   106194024.083                    82595363.949    19830977.406  
  19830973.914  
  23888303.883   125533935.582    23888311.012    97818708.0404   23888311.488  
                
  24042244.570   126342865.139    24042256.207    98449029.3584   24042255.887  
                
  21990088.719   115558737.891    21990093.801    90045748.8694                 
                
  24524600.734   128877639.455    24524609.973   100424180.5674   24524609.910  
                
  20030920.742   106776106.155                                                  
  20030919.668  
  22593565.586   120945165.876                    94068475.928    22593572.273  
  22593564.160  
  23124576.375   121520463.061    23124586.234    94691326.5844   23124586.547  
                
  22960565.664   120658627.783    22960575.656    94019745.0244   22960575.621  
                
  21834905.133   116761061.270                    90814152.816    21834910.648  
  21834904.469  
  22088394.711   116075327.445    22088403.617    90448358.4834   22088403.461  
                
  20678172.766   108664590.373    20678182.043    84673758.1494   20678182.250  
                
  22077762.195   117894056.734                    91695381.957    22077765.715  
  22077761.449  
 21  8 15 15 32 50.0000000  0 18G16R 1G 4R17R23R 8G31G 1G22G 7R10R 7
                                G 6G26R24G 9G 3R 9
  23743101.188   124770850.879    23743108.730    97224070.8414                 
                
  20458424.789   109362031.556                    85059375.222    20458430.477  
  20458424.082  
  20455817.227   107496101.012    20455824.793    83763258.2714   20455824.637  
                
  22894716.156   122514265.951                    95288868.336    22894720.590  
  22894714.172  
  22907548.000   122539938.930                                                  
  22907546.453  
  19832137.680   106200251.392                    82600207.407    19832140.320  
  19832136.875  
  23894956.695   125568896.520    23894963.844    97845950.3074   23894964.324  
                
  24049479.289   126380884.093    24049490.977    98478654.4844   24049490.645  
                
  21994771.680   115583347.027    21994776.730    90064924.8134                 
                
  24518139.891   128843687.985    24518149.125   100397724.9074   24518149.051  
                
  20029639.758   106769277.844                                                  
  20029638.695  
  22598855.414   120973482.700                    94090500.097    22598862.082  
  22598853.984  
  23121303.727   121503265.167    23121313.613    94677925.6214   23121313.895  
                
  22958980.211   120650296.228    22958990.270    94013252.9154   22958990.211  
                
  21838126.602   116778287.875                    90827551.267    21838132.160  
  21838125.949  
  22084060.016   116052548.505    22084068.922    90430608.6744   22084068.766  
                
  20680993.469   108679413.258    20681002.707    84685308.4414   20681002.941  
                
  22083102.133   117922571.666                    91717560.230    22083105.629  
  22083101.371  
 21  8 15 15 33  0.0000000  0 18G16R 1G 4R17R23R 8G31G 1G22G 7R10R 7
                                G 6G26R24G 9G 3R 9
  23737569.070   124741779.489    23737576.594    97201417.8074                 
                
  20454528.016   109341201.073                    85043173.758    20454533.672  
  20454527.301  
  20455067.297   107492160.111    20455074.883    83760187.4464   20455074.719  
                
  22891496.180   122497035.095                    95275466.562    22891500.602  
  22891494.242  
  22914852.391   122579012.611                                                  
  22914850.844  
  19833307.703   106206516.765                    82605080.471    19833310.355  
  19833306.926  
  23901613.609   125603878.911    23901620.770    97873209.3004   23901621.234  
                
  24056714.938   126418907.786    24056726.645    98508283.3254   24056726.289  
                
  21999461.609   115607992.739    21999466.605    90084129.2514                 
                
  24511681.266   128809747.759    24511690.441   100371278.0124   24511690.348  
                
  20028376.117   106762541.946                                                  
  20028375.070  
  22604149.016   121001819.477                    94112539.827    22604155.652  
  22604147.629  
  23118042.273   121486126.065    23118052.184    94664570.4744   23118052.445  
                
  22957406.312   120642025.393    22957416.441    94006808.1134   22957416.371  
                
  21841362.562   116795591.953                    90841009.994    21841368.125  
  21841361.938  
  22079729.820   116029793.168    22079738.727    90412877.2494   22079738.562  
                
  20683823.586   108694285.632    20683832.781    84696897.2994   20683833.043  
                
  22088454.008   117951150.325                    91739788.062    22088457.500  
  22088453.258  
 21  8 15 15 33 10.0000000  0 18G16R 1G 4R17R23R 8G31G 1G22G 7R10R 7
                                G 6G26R24G 9G 3R 9
  23732042.531   124712737.609    23732050.078    97178787.7964                 
                
  20450635.867   109320395.291                    85026991.478    20450641.504  
  20450635.184  
  20454324.047   107488254.287    20454331.652    83757143.9464   20454331.477  
                
  22888291.203   122479884.532                    95262127.235    22888295.656  
  22888289.273  
  22922161.750   122618112.843                                                  
  22922160.219  
  19834484.766   106212819.850                    82609982.867    19834487.426  
  19834484.012  
  23908274.547   125638882.368    23908281.707    97900484.7074   23908282.164  
                
  24063951.438   126456935.805    24063963.152    98537915.5314   24063962.785  
                
  22004158.422   115632674.602    22004163.352    90103361.8684                 
                
  24505224.703   128775818.590    24505233.879   100344839.7254   24505233.777  
                
  20027129.836   106755898.551                                                  
  20027128.805  
  22609446.258   121030175.801                    94134594.719    22609452.898  
  22609444.883  
  23114791.945   121469045.475    23114801.879    94651260.9194   23114802.133  
                
  22955843.914   120633814.983    22955854.109    94000410.4074   22955854.035  
                
  21844613.008   116812973.384                    90854528.883    21844618.582  
  21844612.453  
  22075404.047   116007061.071    22075412.938    90395163.9324   22075412.777  
                
  20686663.062   108709207.167    20686672.219    84708524.4694   20686672.512  
                
  22093817.742   117979792.304                    91762065.163    22093821.227  
  22093817.000  
 21  8 15 15 33 20.0000000  0 18G16R 1G 4R17R23R 8G31G 1G22G 7R10R 7
                                G 6G26R24G 9G 3R 9
  23726521.703   124683725.773    23726529.285    97156181.1704                 
                
  20446748.398   109299614.579                    85010828.713    20446754.020  
  20446747.711  
  20453587.516   107484383.803    20453595.137    83754127.9864   20453594.945  
                
  22885101.305   122462814.750                    95248850.722    22885105.816  
  22885099.367  
  22929475.992   122657239.588                                                  
  22929474.555  
  19835668.961   106219161.102                    82614914.947    19835671.629  
  19835668.223  
  23914939.531   125673907.104    23914946.672    97927776.6994   23914947.121  
                
  24071188.766   126494968.310    24071200.512    98567551.2314   24071200.133  
                
  22008862.156   115657392.880    22008867.047    90122622.8594                 
                
  24498770.305   128741900.825    24498779.461   100318410.3234   24498779.352  
                
  20025900.930   106749347.780                                                  
  20025899.918  
  22614747.203   121058552.100                    94156665.163    22614753.863  
  22614745.828  
  23111552.812   121452023.755    23111562.801    94637997.2404   23111563.012  
                
  22954293.094   120625665.360    22954303.309    93994060.0494   22954303.219  
                
  21847877.938   116830432.193                    90868107.943    21847883.496  
  21847877.430  
  22071082.758   115984352.543    22071091.621    90377468.9824   22071091.484  
                
  20689511.945   108724178.109    20689521.062    84720190.1304   20689521.371  
                
  22099193.383   118008497.832                    91784391.681    22099196.852  
  22099192.617  
 21  8 15 15 33 30.0000000  0 18G16R 1G 4R17R23R 8G31G 1G22G 7R10R 7
                                G 6G26R24G 9G 3R 9
  23721006.695   124654744.567    23721014.297    97133598.4374                 
                
  20442865.719   109278859.487                    84994685.864    20442871.344  
  20442865.023  
  20452857.797   107480549.124    20452865.434    83751139.9324   20452865.234  
                
  22881926.523   122445826.025                    95235637.277    22881931.078  
  22881924.488  
  22936795.359   122696393.407                                                  
  22936793.961  
  19836860.391   106225541.122                    82619877.180    19836863.074  
  19836859.648  
  23921608.609   125708953.402    23921615.707    97955085.5034   23921616.199  
                
  24078427.016   126533005.681    24078438.793    98597190.7344   24078438.422  
                
  22013572.914   115682148.032    22013577.824    90141912.5824                 
                
  24492318.172   128707995.088    24492327.383   100291990.3024   24492327.242  
                
  20024689.484   106742890.098                                                  
  20024688.504  
  22620051.930   121086948.640                    94178751.351    22620058.590  
  22620050.578  
  23108324.992   121435061.446    23108335.043    94624779.8644   23108335.230  
                
  22952753.930   120617577.038    22952764.152    93987757.4554   22952764.066  
                
  21851157.359   116847968.660                    90881747.408    21851162.918  
  21851156.875  
  22066766.031   115961668.055    22066774.879    90359792.7684   22066774.754  
                
  20692370.312   108739198.941    20692379.414    84731894.6694   20692379.715  
                
  22104580.930   118037267.106                    91806767.769    22104584.426  
  22104580.172  
 21  8 15 15 33 40.0000000  0 18G16R 1G 4R17R23R 8G31G 1G22G 7R10R 7
                                G 6G26R24G 9G 3R 9
  23715497.344   124625792.905    23715504.926    97111038.7194                 
                
  20438987.617   109258128.847                    84978562.037    20438993.246  
  20438986.930  
  20452134.656   107476749.014    20452142.301    83748178.8084   20452142.105  
                
  22878766.734   122428917.513                    95222486.234    22878771.324  
  22878764.609  
  22944119.609   122735572.671                                                  
  22944118.160  
  19838058.781   106231958.385                    82624868.389    19838061.477  
  19838058.062  
  23928281.539   125744019.946    23928288.602    97982410.0674   23928289.152  
                
  24085665.875   126571046.582    24085677.742    98626832.9794   24085677.387  
                
  22018290.453   115706938.837    22018295.379    90161230.0864                 
                
  24485868.148   128674100.157    24485877.371   100265578.6984   24485877.223  
                
  20023495.305   106736524.456                                                  
  20023494.348  
  22625360.250   121115364.320                    94200852.416    22625366.895  
  22625358.883  
  23105108.250   121418157.368    23105118.355    94611607.8534   23105118.527  
                
  22951226.203   120609548.828    22951236.410    93981501.7184   22951236.344  
                
  21854451.055   116865581.493                    90895446.269    21854456.590  
  21854450.559  
  22062453.641   115939006.378    22062462.480    90342134.3314   22062462.348  
                
  20695237.938   108754268.400    20695247.027    84743637.0974   20695247.340  
                
  22109980.203   118066098.862                    91829192.450    22109983.723  
  22109979.445  
 21  8 15 15 33 50.0000000  0 18G16R 1G 4R17R23R 8G31G 1G22G 7R10R 7
                                G 6G26R24G 9G 3R 9
  23709993.750   124596871.434    23710001.301    97088502.5394                 
                
  20435114.211   109237423.271                    84962457.714    20435119.816  
  20435113.512  
  20451418.188   107472983.967    20451425.836    83745245.0104   20451425.633  
                
  22875622.039   122412089.602                    95209397.846    22875626.609  
  22875619.938  
  22951448.742   122774777.798                                                  
  22951447.227  
  19839264.211   106238413.368                    82629888.927    19839266.918  
  19839263.508  
  23934958.422   125779107.205    23934965.457    98009750.7824   23934966.066  
                
  24092905.492   126609091.434    24092917.457    98656478.2844   24092917.117  
                
  22023014.859   115731765.777    22023019.750    90180575.7384                 
                
  24479420.391   128640216.599    24479429.449   100239175.9384   24479429.336  
                
  20022318.484   106730251.340                                                  
  20022317.547  
  22630672.156   121143799.480                    94222968.630    22630678.840  
  22630670.812  
  23101902.711   121401312.117    23101912.840    94598481.6754   23101912.984  
                
  22949710.023   120601581.309    22949720.230    93975293.2774   22949720.184  
                
  21857759.086   116883271.026                    90909204.792    21857764.609  
  21857758.598  
  22058145.711   115916368.083    22058154.520    90324494.1094   22058154.402  
                
  20698114.914   108769386.979    20698124.000    84755417.8034   20698124.316  
                
  22115391.211   118094993.308                    91851665.897    22115394.734  
  22115390.438  
 21  8 15 15 34  0.0000000  0 18G16R 1G 4R17R23R 8G31G 1G22G 7R10R 7
                                G 6G26R24G 9G 3R 9
  23704495.938   124567980.245    23704503.430    97065989.9214                 
                
  20431245.469   109216742.689                    84946372.829    20431251.074  
  20431244.750  
  20450708.398   107469254.016    20450716.055    83742338.5554   20450715.848  
                
  22872492.461   122395342.434                    95196372.294    22872496.977  
  22872490.461  
  22958782.570   122814008.551                                                  
  22958781.020  
  19840476.727   106244906.333                    82634939.008    19840479.461  
  19840476.055  
  23941639.250   125814215.073    23941646.285    98037107.5454   23941646.875  
                
  24100145.914   126647140.128    24100157.922    98686126.5944   24100157.602  
                
  22027746.141   115756628.758    22027751.012    90199949.4854                 
                
  24472974.820   128606344.455    24472983.688   100212782.0734   24472983.602  
                
  20021159.008   106724070.652                                                  
  20021158.090  
  22635987.805   121172254.421                    94245100.249    22635994.488  
  22635986.473  
  23098708.359   121384525.731    23098718.523    94585401.3904   23098718.656  
                
  22948205.414   120593674.575    22948215.617    93969132.1784   22948215.570  
                
  21861081.500   116901037.414                    90923023.070    21861086.988  
  21861081.000  
  22053842.227   115893753.175    22053851.035    90306872.1184   22053850.934  
                
  20701001.234   108784554.704    20701010.316    84767236.7964   20701010.633  
                
  22120813.969   118123950.408                    91874188.077    22120817.465  
  22120813.191  
 21  8 15 15 34 10.0000000  0 18G16R 1G 4R17R23R 8G31G 1G22G 7R10R 7
                                G 6G26R24G 9G 3R 9
  23699003.891   124539119.506    23699011.363    97043501.0574                 
                
  20427381.430   109196087.209                    84930307.453    20427387.008  
  20427380.691  
  20450005.305   107465559.205    20450012.973    83739459.4834   20450012.762  
                
  22869378.008   122378676.201                    95183409.679    22869382.484  
  22869376.074  
  22966121.094   122853264.952                                                  
  22966119.559  
  19841696.391   106251437.539                    82640018.838    19841699.129  
  19841695.723  
  23948324.000   125849343.487    23948331.012    98064480.3184   23948331.602  
                
  24107387.125   126685192.647    24107399.113    98715777.8734   24107398.812  
                
  22032484.289   115781527.880    22032489.164    90219351.3904                 
                
  24466531.398   128572483.889    24466540.145   100186397.2234   24466540.059  
                
  20020016.938   106717982.779                                                  
  20020016.016  
  22641307.070   121200729.000                    94267247.123    22641313.805  
  22641305.758  
  23095525.242   121367798.404    23095535.418    94572367.1124   23095535.562  
                
  22946712.398   120585828.713    22946722.582    93963018.5264   22946722.555  
                
  21864418.211   116918880.310                    90936900.879    21864423.664  
  21864417.691  
  22049543.211   115871161.759    22049552.039    90289268.4304   22049551.926  
                
  20703896.914   108799771.613    20703905.992    84779094.1304   20703906.312  
                
  22126248.461   118152970.229                    91896759.040    22126251.961  
  22126247.688  
 21  8 15 15 34 20.0000000  0 18G16R 1G 4R17R23R 8G31G 1G22G 7R10R 7
                                G 6G26R24G 9G 3R 9
  23693517.711   124510289.288    23693525.059    97021035.9594                 
                
  20423522.141   109175457.125                    84914261.836    20423527.680  
  20423521.406  
  20449308.875   107461899.484    20449316.555    83736607.7584   20449316.332  
                
  22866278.648   122362090.883                    95170509.995    22866283.109  
  22866276.684  
  22973464.477   122892546.841                                                  
  22973462.883  
  19842923.109   106258006.561                    82645128.081    19842925.844  
  19842922.457  
  23955012.641   125884492.362    23955019.645    98091869.0544   23955020.234  
                
  24114629.000   126723248.841    24114640.977    98745432.0264   24114640.703  
                
  22037229.297   115806463.014    22037234.160    90238781.3604                 
                
  24460090.102   128538634.905    24460098.832   100160021.4054   24460098.711  
                
  20018892.227   106711987.448                                                  
  20018891.320  
  22646630.016   121229223.165                    94289409.241    22646636.781  
  22646628.723  
  23092353.367   121351130.126    23092363.547    94559378.8524   23092363.711  
                
  22945230.961   120578043.756    22945241.133    93956952.3304   22945241.109  
                
  21867769.234   116936799.724                    90950838.208    21867774.699  
  21867768.730  
  22045248.664   115848593.802    22045257.496    90271683.0154   22045257.387  
                
  20706801.953   108815037.663    20706811.027    84790989.7494   20706811.348  
                
  22131694.641   118182052.502                    91919378.583    22131698.121  
  22131693.875  
 21  8 15 15 34 30.0000000  0 18G16R 1G 4R17R23R 8G31G 1G22G 7R10R 7
                                G 6G26R24G 9G 3R 9
  23688037.344   124481490.000    23688044.656    96998594.9544                 
                
  20419667.633   109154852.574                    84898236.076    20419673.168  
  20419666.887  
  20448619.180   107458275.076    20448626.867    83733783.5434   20448626.629  
                
  22863194.461   122345586.921                    95157673.576    22863198.973  
  22863192.449  
  22980812.586   122931854.114                                                  
  22980811.004  
  19844156.992   106264613.867                    82650267.092    19844159.734  
  19844156.348  
  23961705.203   125919661.841    23961712.215    98119273.8384   23961712.785  
                
  24121871.586   126761308.834    24121883.562    98775089.1334   24121883.309  
                
  22041981.203   115831434.380    22041986.066    90258239.5574                 
                
  24453651.039   128504797.819    24453659.820   100133654.8704   24453659.664  
                
  20017784.969   106706085.114                                                  
  20017784.082  
  22651956.727   121257737.276                    94311586.875    22651963.480  
  22651955.453  
  23089192.789   121334521.196    23089202.957    94546436.8374   23089203.125  
                
  22943761.172   120570319.995    22943771.348    93950933.8224   22943771.320  
                
  21871134.578   116954795.627                    90964834.992    21871140.020  
  21871134.078  
  22040958.625   115826049.545    22040967.434    90254116.0724   22040967.320  
                
  20709716.375   108830353.052    20709725.434    84802923.8124   20709725.770  
                
  22137152.531   118211197.363                    91942046.807    22137155.988  
  22137151.789  
 21  8 15 15 34 40.0000000  0 18G16R 1G 4R17R23R 8G31G 1G22G 7R10R 7
                                G 6G26R24G 9G 3R 9
  23682562.828   124452721.489    23682570.137    96976177.9644                 
                
  20415817.828   109134273.231                    84882229.928    20415823.375  
  20415817.086  
  20447936.133   107454685.694    20447943.824    83730986.6254   20447943.578  
                
  22860125.414   122329164.018                    95144900.155    22860129.922  
  22860123.391  
  22988165.398   122971186.363                                                  
  22988163.758  
  19845397.953   106271259.171                    82655435.654    19845400.699  
  19845397.305  
  23968401.594   125954851.498    23968408.621    98146694.3534   23968409.176  
                
  24129114.766   126799372.235    24129126.766    98804748.8964   24129126.539  
                
  22046739.945   115856441.735    22046744.824    90277725.8004                 
                
  24447214.188   128470972.410    24447223.051   100107297.4454   24447222.863  
                
  20016695.062   106700275.296                                                  
  20016694.191  
  22657287.047   121286270.863                    94333779.673    22657293.789  
  22657285.754  
  23086043.469   121317971.428    23086053.605    94533540.8894   23086053.781  
                
  22942302.984   120562657.180    22942313.180    93944962.8054   22942313.156  
                
  21874514.188   116972867.748                    90978891.080    21874519.625  
  21874513.711  
  22036673.055   115803528.760    22036681.824    90236567.4084   22036681.715  
                
  20712640.133   108845717.502    20712649.180    84814896.1074   20712649.543  
                
  22142622.070   118240404.348                    91964763.333    22142625.473  
  22142621.270  
 21  8 15 15 34 50.0000000  0 18G16R 1G 4R17R23R 8G31G 1G22G 7R10R 7
                                G 6G26R24G 9G 3R 9
  23677094.273   124423984.097    23677101.543    96953785.1804                 
                
  20411972.805   109113719.420                    84866243.634    20411978.355  
  20411972.070  
  20447259.805   107451131.564    20447267.492    83728217.1754   20447267.250  
                
  22857071.586   122312822.447                    95132190.023    22857076.102  
  22857069.586  
  22995522.789   123010543.573                                                  
  22995521.156  
  19846646.055   106277942.690                    82660633.940    19846648.793  
  19846645.414  
  23975101.844   125990061.456    23975108.867    98174130.6734   23975109.402  
                
  24136358.625   126837439.200    24136370.668    98834411.4414   24136370.449  
                
  22051505.602   115881485.339    22051510.492    90297240.2944                 
                
  24440779.555   128437159.012    24440788.586   100080949.3764   24440788.367  
                
  20015622.570   106694558.328                                                  
  20015621.703  
  22662621.039   121314824.244                    94355987.829    22662627.832  
  22662619.738  
  23082905.438   121301481.035    23082915.535    94520691.2374   23082915.754  
                
  22940856.445   120555055.606    22940866.652    93939039.5064   22940866.621  
                
  21877908.039   116991016.118                    90993006.453    21877913.484  
  21877907.582  
  22032391.977   115781031.645    22032400.723    90219037.1944   22032400.629  
                
  20715573.266   108861131.211    20715582.309    84826906.7864   20715582.676  
                
  22148103.266   118269673.573                    91987528.283    22148106.641  
  22148102.426  
 21  8 15 15 35  0.0000000  0 18G16R 1G 4R17R23R 8G31G 1G22G 7R10R 7
                                G 6G26R24G 9G 3R 9
  23671631.695   124395277.891    23671638.898    96931416.7274                 
                
  20408132.531   109093191.006                    84850277.099    20408138.074  
  20408131.797  
  20446590.164   107447612.557    20446597.840    83725475.0904   20446597.605  
                
  22854032.984   122296562.222                    95119543.191    22854037.430  
  22854030.973  
  23002884.875   123049925.611                                                  
  23002883.223  
  19847901.289   106284664.356                    82665861.902    19847904.031  
  19847900.625  
  23981805.930   126025291.467    23981812.922    98201582.6304   23981813.469  
                
  24143603.148   126875509.480    24143615.238    98864076.5744   24143615.000  
                
  22056278.086   115906564.837    22056282.973    90316782.7494                 
                
  24434347.328   128403357.707    24434356.441   100054610.7194   24434356.207  
                
  20014567.531   106688934.268                                                  
  20014566.660  
  22667958.750   121343397.328                    94378211.335    22667965.547  
  22667957.410  
  23079778.719   121285050.032    23079788.789    94507887.8604   23079789.027  
                
  22939421.562   120547515.207    22939431.773    93933163.8714   22939431.730  
                
  21881316.141   117009240.630                    91007181.063    21881321.613  
  21881315.641  
  22028115.406   115758558.122    22028124.152    90201525.3674   22028124.066  
                
  20718515.758   108876594.075    20718524.797    84838955.7584   20718525.180  
                
  22153596.086   118299004.800                    92010341.452    22153599.465  
  22153595.227  
 21  8 15 15 35 10.0000000  0 18G16R 1G 4R17R23R 8G31G 1G22G 7R10R 7
                                G 6G26R24G 9G 3R 9
  23666174.992   124366602.771    23666182.191    96909072.5114                 
                
  20404297.008   109072687.977                    84834330.300    20404302.566  
