     2.11           OBSERVATION DATA    M (MIXED)           RINEX VERSION / TYPE
EFT-CORS.RU                             20210817 144842 UTC PGM / RUN BY / DATE 
MDNG                                                        MARKER NAME         
                                                            MARKER NUMBER       
MDNG                EFT-CORS.RU                             OBSERVER / AGENCY   
0                   TRIMBLE BD970       2.0                 REC # / TYPE / VERS 
0                   UNKNOWN EXT NONE                        ANT # / TYPE        
  3463911.2830  3030468.2400  4402179.3760                  APPROX POSITION XYZ 
        0.0000        0.0000        0.0000                  ANTENNA: DELTA H/E/N
     1     1                                                WAVELENGTH FACT L1/2
     6    C1    L1    P2    L2    C2    P1                  # / TYPES OF OBSERV 
    10.000                                                  INTERVAL            
  2021     8    16    10    30    0.0000000     GPS         TIME OF FIRST OBS   
  2021     8    16    11    30    0.0000000     GPS         TIME OF LAST OBS    
     0                                                      RCV CLOCK OFFS APPL 
                                                            END OF HEADER       
 21  8 16 10 30  0.0000000  0 14R 6R21R22G32G 1R23G27G22G 8G21R 8G10
                                G23R 7
  20416913.344   108948591.832                                                  
  20416911.078  
  20544795.008   109939350.692                    85508373.642    20544799.078  
  20544793.281  
  19284007.594   102939361.092                    80063972.329    19284010.082  
  19284005.758  
  20935190.883   110015200.547    20935199.977    85726185.6534   20935200.230  
                
  24126093.633   126783490.344    24126104.895    98792366.8034   24126104.434  
                
  23333513.688   124818563.316                                                  
  23333512.141  
  21511639.414   113044416.109    21511648.340    88086612.0264   21511648.480  
                
  24414861.359   128300965.785    24414867.465    99974802.9514                 
                
  21246518.367   111651203.251    21246528.207    87000994.1054   21246528.617  
                
  22818929.062   119914301.154    22818935.539    93439749.6794                 
                
  22174081.789   118741207.506                    92354280.339    22174085.781  
  22174080.789  
  21179533.305   111299235.040    21179542.672    86726734.5844   21179542.086  
                
  23449265.672   123226739.758    23449273.801    96020867.1674   23449273.746  
                
  19318470.625   103413328.980                    80432587.904    19318474.918  
  19318468.988  
 21  8 16 10 30 10.0000000  0 14R 6R21R22G32G 1R23G27G22G 8G21R 8G10
                                G23R 7
  20422275.312   108977204.351                                                  
  20422273.066  
  20550045.219   109967445.531                    85530225.162    20550049.285  
  20550043.523  
  19282430.875   102930944.429                    80057426.036    19282433.375  
  19282429.027  
  20932686.930   110002042.190    20932696.027    85715932.3934   20932696.281  
                
  24119673.836   126749754.720    24119685.301    98766079.3214   24119685.047  
                
  23325814.578   124777378.616                                                  
  23325813.078  
  21516129.281   113068010.489    21516138.207    88104997.2484   21516138.336  
                
  24409300.195   128271741.631    24409306.188    99952030.8864                 
                
  21247001.422   111653741.728    21247011.250    87002972.1254   21247011.668  
                
  22814507.617   119891066.348    22814514.117    93421644.6514                 
                
  22167223.008   118704480.057                    92325714.573    22167227.160  
  22167222.094  
  21182729.680   111316032.073    21182739.027    86739823.1734   21182738.445  
                
  23454952.828   123256625.812    23454960.906    96044154.9704   23454960.863  
                
  19316891.500   103404875.860                    80426013.260    19316895.809  
  19316889.824  
 21  8 16 10 30 20.0000000  0 14R 6R21R22G32G 1R23G27G22G 8G21R 8G10
                                G23R 7
  20427645.570   109005860.955                                                  
  20427643.312  
  20555306.414   109995599.144                    85552122.422    20555310.508  
  20555304.742  
  19280867.695   102922599.877                    80050935.828    19280870.180  
  19280865.836  
  20930194.320   109988943.427    20930203.438    85705725.5744   20930203.672  
                
  24113254.789   126716022.801    24113266.328    98739794.7514   24113266.383  
                
  23318116.547   124736199.697                                                  
  23318115.020  
  21520628.906   113091656.103    21520637.816    88123422.3964   21520637.957  
                
  24403741.688   128242531.461    24403747.629    99929269.7384                 
                
  21247497.039   111656346.214    21247506.840    87005001.5864   21247507.262  
                
  22810088.812   119867845.382    22810095.324    93403550.4054                 
                
  22160371.219   118667789.067                    92297177.162    22160375.355  
  22160370.277  
  21185931.375   111332857.077    21185940.699    86752933.5534   21185940.137  
                
  23460641.469   123286519.778    23460649.523    96067448.9484   23460649.488  
                
  19315326.078   103396496.097                    80419495.665    19315330.398  
  19315324.383  
 21  8 16 10 30 30.0000000  0 14R 6R21R22G32G 1R23G27G22G 8G21R 8G10
                                G23R 7
  20433023.859   109034560.435                                                  
  20433021.594  
  20560578.477   110023810.996                    85574064.952    20560582.578  
  20560576.805  
  19279317.828   102914326.729                    80044501.148    19279320.348  
  19279316.027  
  20927712.945   109975903.672    20927722.066    85695564.7334   20927722.293  
                
  24106836.391   126682294.016    24106848.156    98713512.6254   24106847.965  
                
  23310419.555   124695026.161                                                  
  23310417.906  
  21525138.141   113115352.251    21525147.043    88141886.9154   21525147.191  
                
  24398185.672   128213334.713    24398191.578    99906519.0214                 
                
  21248005.102   111659016.106    21248014.883    87007082.0204   21248015.312  
                
  22805672.547   119844637.722    22805679.070    93385466.5144                 
                
  22153526.047   118631133.735                    92268667.492    22153530.188  
  22153525.125  
  21189138.266   111349709.358    21189147.570    86766065.2004   21189147.012  
                
  23466331.500   123316420.970    23466339.535    96090748.5634   23466339.500  
                
  19313774.250   103388189.093                    80413034.666    19313778.598  
  19313772.547  
 21  8 16 10 30 40.0000000  0 14R 6R21R22G32G 1R23G27G22G 8G21R 8G10
                                G23R 7
  20438410.133   109063302.537                                                  
  20438407.859  
  20565861.391   110052080.856                    85596052.610    20565865.496  
  20565859.734  
  19277781.359   102906125.019                    80038122.046    19277783.922  
  19277779.566  
  20925242.766   109962922.811    20925251.902    85685449.7864   20925252.125  
                
  24100418.617   126648568.278    24100430.324    98687232.8314   24100430.066  
                
  23302723.570   124653857.878                                                  
  23302721.820  
  21529656.945   113139098.672    21529665.863    88160390.6124   21529666.008  
                
  24392632.102   128184151.110    24392638.043    99883778.5954                 
                
  21248525.609   111661751.377    21248535.367    87009213.3944   21248535.789  
                
  22801258.781   119821443.230    22801265.324    93367392.8874                 
                
  22146687.609   118594514.291                    92240185.716    22146691.754  
  22146686.684  
  21192350.312   111366588.736    21192359.590    86779217.9544   21192359.047  
                
  23472022.859   123346329.222    23472030.891    96114053.6814   23472030.840  
                
  19312235.922   103379954.402                    80406629.914    19312240.305  
  19312234.230  
 21  8 16 10 30 50.0000000  0 14R 6R21R22G32G 1R23G27G22G 8G21R 8G10
                                G23R 7
  20443804.680   109092088.796                                                  
  20443802.363  
  20571155.406   110080410.134                    85618086.476    20571159.512  
  20571153.750  
  19276258.648   102897996.251                    80031799.675    19276261.168  
  19276256.785  
  20922784.078   109950002.295    20922793.227    85675381.8574   20922793.441  
                
  24094001.672   126614847.058    24094013.352    98660956.5744   24094013.082  
                
  23295028.938   124612696.509                                                  
  23295027.152  
  21534185.578   113162896.735    21534194.539    88178934.5494   21534194.652  
                
  24387081.398   128154982.192    24387087.344    99861049.5464                 
                
  21249058.805   111664553.304    21249068.551    87011396.7204   21249068.969  
                
  22796847.805   119798263.386    22796854.348    93349330.6804                 
                
  22139856.125   118557932.071                    92211732.899    22139860.277  
  22139855.199  
  21195567.781   111383496.600    21195577.035    86792392.9104   21195576.500  
                
  23477715.828   123376245.894    23477723.867    96137365.3544   23477723.793  
                
  19310711.453   103371793.806                    80400282.790    19310715.887  
  19310709.746  
 21  8 16 10 31  0.0000000  0 14R 6R21R22G32G 1R23G27G22G 8G21R 8G10
                                G23R 7
  20449207.375   109120918.619                                                  
  20449205.043  
  20576460.430   110108798.310                    85640166.154    20576464.535  
  20576458.770  
  19274749.422   102889940.108                    80025533.786    19274751.891  
  19274747.570  
  20920336.812   109937141.822    20920345.957    85665360.7204   20920346.160  
                
  24087585.570   126581130.055    24087597.180    98634683.5834   24087596.895  
                
  23287335.539   124571541.747                                                  
  23287333.766  
  21538723.945   113186745.995    21538732.906    88197518.3744   21538733.020  
                
  24381533.430   128125827.554    24381539.309    99838331.6654                 
                
  21249604.602   111667421.475    21249614.344    87013631.6514   21249614.773  
                
  22792439.547   119775097.849    22792446.066    93331279.6184                 
                
  22133031.555   118521386.875                    92183308.894    22133035.707  
  22133030.633  
  21198790.586   111400432.516    21198799.832    86805589.7284   21198799.293  
                
  23483410.320   123406170.611    23483418.379    96160683.2904   23483418.309  
                
  19309200.727   103363706.856                    80393992.946    19309205.219  
  19309199.000  
 21  8 16 10 31 10.0000000  0 14R 6R21R22G32G 1R23G27G22G 8G21R 8G10
                                G23R 7
  20454618.156   109149791.574                                                  
  20454615.832  
  20581776.414   110137245.125                    85662291.451    20581780.527  
  20581774.754  
  19273253.820   102881956.487                    80019324.309    19273256.273  
  19273251.961  
  20917900.930   109924341.144    20917910.051    85655386.1684   20917910.262  
                
  24081170.219   126547417.013    24081181.754    98608413.6714   24081181.469  
                
  23279643.320   124530393.335                                                  
  23279641.574  
  21543271.984   113210646.057    21543280.930    88216141.7924   21543281.062  
                
  24375988.180   128096687.014    24375994.023    99815624.7544                 
                
  21250162.984   111670355.750    21250172.730    87015918.0974   21250173.148  
                
  22788033.984   119751946.485    22788040.500    93313239.5934                 
                
  22126213.922   118484878.467                    92154913.484    22126218.000  
  22126212.941  
  21202018.680   111417396.187    21202027.918    86818808.1724   21202027.371  
                
  23489106.281   123436103.032    23489114.371    96184007.2284   23489114.316  
                
  19307703.680   103355693.100                    80387760.036    19307708.219  
  19307701.941  
 21  8 16 10 31 20.0000000  0 14R 6R21R22G32G 1R23G27G22G 8G21R 8G10
                                G23R 7
  20460036.930   109178707.104                                                  
  20460034.621  
  20587103.266   110165750.134                    85684461.999    20587107.367  
  20587101.617  
  19271771.734   102874045.052                    80013170.968    19271774.184  
  19271769.859  
  20915476.359   109911599.940    20915485.465    85645457.9634   20915485.688  
                
  24074755.523   126513707.598    24074767.031    98582146.6144   24074766.734  
                
  23271952.227   124489251.132                                                  
  23271950.477  
  21547829.617   113234596.525    21547838.586    88234804.4814   21547838.719  
                
  24370445.438   128067560.151    24370451.320    99792928.5274                 
                
  21250733.867   111673355.754    21250743.629    87018255.7614   21250744.020  
                
  22783631.047   119728808.936    22783637.570    93295210.3384                 
                
  22119403.086   118448406.482                    92126546.423    22119407.086  
  22119402.004  
  21205251.969   111434387.201    21205261.199    86832047.9224   21205260.645  
                
  23494803.648   123466042.744    23494811.801    96207336.8564   23494811.715  
                
  19306220.281   103347752.410                    80381583.943    19306224.867  
  19306218.527  
 21  8 16 10 31 30.0000000  0 14R 6R21R22G32G 1R23G27G22G 8G21R 8G10
                                G23R 7
  20465463.766   109207665.675                                                  
  20465461.465  
  20592441.055   110194313.666                    85706678.061    20592445.156  
  20592439.379  
  19270303.273   102866206.382                    80007074.215    19270305.711  
  19270301.402  
  20913063.188   109898918.647    20913072.293    85635576.4464   20913072.512  
                
  24068341.641   126480002.316    24068353.078    98555882.7604   24068352.777  
                
  23264262.352   124448115.479                                                  
  23264260.562  
  21552396.891   113258597.674    21552405.875    88253506.6604   21552405.996  
                
  24364905.375   128038447.417    24364911.324    99770243.3074                 
                
  21251317.336   111676421.826    21251327.117    87020644.9074   21251327.508  
                
  22779230.820   119705685.601    22779237.348    93277192.1674                 
                
  22112599.031   118411971.554                    92098208.163    22112603.121  
  22112597.980  
  21208490.547   111451405.917    21208499.770    86845309.2604   21208499.207  
                
  23500502.492   123495990.137    23500510.703    96230672.4794   23500510.578  
                
  19304750.547   103339884.868                    80375464.753    19304755.184  
  19304748.781  
 21  8 16 10 31 40.0000000  0 14R 6R21R22G32G 1R23G27G22G 8G21R 8G10
                                G23R 7
  20470898.555   109236666.717                                                  
  20470896.242  
  20597789.680   110222935.333                    85728939.356    20597793.789  
  20597787.988  
  19268848.328   102858439.991                    80001033.696    19268850.816  
  19268846.496  
  20910661.359   109886296.988    20910670.465    85625741.3944   20910670.680  
                
  24061928.430   126446300.842    24061939.883    98529621.8954   24061939.570  
                
  23256573.664   124406986.345                                                  
  23256571.824  
  21556973.727   113282649.092    21556982.719    88272248.0224   21556982.840  
                
  24359368.055   128009348.486    24359373.957    99747568.8174                 
                
  21251913.305   111679553.674    21251923.105    87023085.3054   21251923.500  
                
  22774833.211   119682576.113    22774839.730    93259184.7834                 
                
  22105801.883   118375573.404                    92069898.515    22105806.035  
  22105800.887  
  21211734.305   111468451.981    21211743.531    86858591.8944   21211742.957  
                
  23506202.703   123525944.845    23506210.961    96254013.7884   23506210.816  
                
  19303294.430   103332090.257                    80369402.279    19303299.109  
  19303292.656  
 21  8 16 10 31 50.0000000  0 14R 6R21R22G32G 1R23G27G22G 8G21R 8G10
                                G23R 7
  20476341.359   109265710.601                                                  
  20476339.051  
  20603149.219   110251615.216                    85751245.922    20603153.309  
  20603147.539  
  19267407.062   102850746.410                    79995049.784    19267409.551  
  19267405.242  
  20908270.938   109873735.240    20908280.043    85615953.0224   20908280.258  
                
  24055516.016   126412603.513    24055527.465    98503364.2414   24055527.105  
                
  23248886.250   124365863.939                                                  
  23248884.379  
  21561560.172   113306750.997    21561569.164    88291028.7164   21561569.277  
                
  24353833.312   127980263.582    24353839.285    99724905.2924                 
                
  21252521.805   111682751.339    21252531.621    87025576.9914   21252532.008  
                
  22770438.336   119659480.938    22770444.836    93241188.5454                 
                
  22099011.828   118339212.437                    92041617.785    22099015.898  
  22099010.766  
  21214983.312   111485525.568    21214992.535    86871895.9884   21214991.961  
                
  23511904.352   123555907.074    23511912.637    96277360.9654   23511912.488  
                
  19301852.016   103324368.938                    80363396.809    19301856.723  
  19301850.230  
 21  8 16 10 32  0.0000000  0 14R 6R21R22G32G 1R23G27G22G 8G21R 8G10
                                G23R 7
  20481792.086   109294796.736                                                  
  20481789.770  
  20608519.617   110280353.267                    85773597.735    20608523.695  
  20608517.918  
  19265979.430   102843125.547                    79989122.450    19265981.926  
  19265977.590  
  20905891.906   109861233.354    20905901.012    85606211.2914   20905901.215  
                
  24049104.406   126378910.280    24049115.809    98477109.7784   24049115.406  
                
  23241200.133   124324748.432                                                  
  23241198.250  
  21566156.188   113330903.156    21566165.188    88309848.5684   21566165.305  
                
  24348301.281   127951192.734    24348307.316    99702252.7364                 
                
  21253142.836   111686014.887    21253152.656    87028120.0094   21253153.035  
                
  22766046.180   119636399.955    22766052.676    93223203.3704                 
                
  22092228.680   118302888.389                    92013365.769    22092232.633  
  22092227.555  
  21218237.531   111502626.568    21218246.738    86885221.4334   21218246.176  
                
  23517607.414   123585876.699    23517615.719    96300713.9074   23517615.551  
                
  19300423.266   103316720.718                    80357448.204    19300428.004  
  19300421.488  
 21  8 16 10 32 10.0000000  0 14R 6R21R22G32G 1R23G27G22G 8G21R 8G10
                                G23R 7
  20487250.688   109323924.787                                                  
  20487248.375  
  20613900.828   110309149.240                    85795994.601    20613904.910  
  20613899.090  
  19264565.406   102835577.405                    79983251.671    19264567.914  
  19264563.574  
  20903524.234   109848791.168    20903533.328    85596516.0904   20903533.535  
                
  24042693.570   126345221.031    24042704.926    98450858.4334   24042704.512  
                
  23233515.242   124283639.660                                                  
  23233513.344  
  21570761.711   113355105.325    21570770.711    88328707.3914   21570770.824  
                
  24342772.000   127922135.876    24342777.992    99679611.0514                 
                
  21253776.391   111689344.220    21253786.219    87030714.2924   21253786.613  
                
  22761656.688   119613333.032    22761663.176    93205229.1574                 
                
  22085452.422   118266601.241                    91985142.455    22085456.238  
  22085451.230  
  21221496.914   111519754.739    21221506.109    86898568.0564   21221505.570  
                
  23523311.828   123615853.504    23523320.109    96324072.4404   23523319.926  
                
  19299008.117   103309145.360                    80351556.272    19299012.875  
  19299006.352  
 21  8 16 10 32 20.0000000  0 14R 6R21R22G32G 1R23G27G22G 8G21R 8G10
                                G23R 7
  20492717.117   109353094.757                                                  
  20492714.812  
  20619292.805   110338002.774                    85818436.213    20619296.887  
  20619291.031  
  19263164.953   102828101.691                    79977437.220    19263167.453  
  19263163.121  
  20901167.891   109836408.520    20901176.953    85586867.2824   20901177.168  
                
  24036283.375   126311535.533    24036294.801    98424610.0264   24036294.367  
                
  23225831.570   124242537.513                                                  
  23225829.711  
  21575376.695   113379357.202    21575385.691    88347604.9504   21575385.797  
                
  24337245.328   127893092.749    24337251.250    99656980.0524                 
                
  21254422.398   111692738.997    21254432.234    87033359.5614   21254432.645  
                
  22757269.859   119590280.088    22757276.320    93187265.8254                 
                
  22078683.023   118230351.096                    91956947.912    22078686.762  
  22078681.793  
  21224761.422   111536909.838    21224770.625    86911935.6614   21224770.109  
                
  23529017.562   123645837.240    23529025.789    96347436.3924   23529025.605  
                
  19297606.555   103301642.696                    80345720.862    19297611.332  
  19297604.805  
 21  8 16 10 32 30.0000000  0 14R 6R21R22G32G 1R23G27G22G 8G21R 8G10
                                G23R 7
  20498191.438   109382306.768                                                  
  20498189.172  
  20624695.656   110366914.485                    85840923.086    20624699.727  
  20624693.855  
  19261778.172   102820698.925                    79971679.512    19261780.633  
  19261776.340  
  20898822.961   109824085.928    20898831.996    85577265.2664   20898832.246  
                
  24029873.938   126277854.305    24029885.480    98398364.9384   24029885.039  
                
  23218149.305   124201442.590                                                  
  23218147.430  
  21580001.211   113403659.177    21580010.188    88366541.5474   21580010.289  
                
  24331721.398   127864063.895    24331727.258    99634360.1794                 
                
  21255080.945   111696199.725    21255090.793    87036056.2254   21255091.191  
                
  22752885.750   119567241.565    22752892.180    93169313.7254                 
                
  22071920.461   118194138.272                    91928782.419    22071924.242  
  22071919.289  
  21228031.133   111554092.294    21228040.371    86925324.5774   21228039.863  
                
  23534724.672   123675828.344    23534732.867    96370806.0594   23534732.688  
                
  19296218.609   103294212.966                    80339942.183    19296223.398  
  19296216.891  
 21  8 16 10 32 40.0000000  0 14R 6R21R22G32G 1R23G27G22G 8G21R 8G10
                                G23R 7
  20503673.672   109411560.986                                                  
  20503671.422  
  20630109.383   110395884.410                    85863455.249    20630113.445  
  20630107.582  
  19260405.172   102813369.874                    79965979.140    19260407.609  
  19260403.379  
  20896489.547   109811823.776    20896498.562    85567710.3514   20896498.832  
                
  24023465.477   126244177.872    24023477.066    98372123.6024   24023476.617  
                
  23210468.508   124160355.485                                                  
  23210466.617  
  21584635.320   113428011.523    21584644.281    88385517.4004   21584644.391  
                
  24326200.164   127835049.438    24326205.949    99611751.5124                 
                
  21255752.062   111699726.472    21255761.930    87038804.3414   21255762.312  
                
  22748504.461   119544217.759    22748510.883    93151373.1294                 
                
  22065164.930   118157963.211                    91900646.287    22065168.797  
  22065163.840  
  21231306.117   111571302.409    21231315.410    86938735.0514   21231314.891  
                
  23540433.234   123705827.097    23540441.418    96394181.7044   23540441.230  
                
  19294844.422   103286856.817                    80334220.748    19294849.219  
  19294842.715  
 21  8 16 10 32 50.0000000  0 14R 6R21R22G32G 1R23G27G22G 8G21R 8G10
                                G23R 7
  20509163.672   109440856.643                                                  
  20509161.371  
  20635533.875   110424911.896                    85886032.160    20635537.941  
  20635532.055  
  19259045.836   102806113.663                    79960335.420    19259048.273  
  19259044.047  
  20894167.500   109799621.410    20894176.504    85558202.0174   20894176.777  
                
  24017057.820   126210505.531    24017069.406    98345885.4394   24017068.949  
                
  23202788.953   124119275.354                                                  
  23202787.082  
  21589278.867   113452413.474    21589287.809    88404531.8954   21589287.930  
                
  24320681.477   127806048.851    24320687.328    99589153.7124                 
                
  21256435.680   111703318.885    21256445.555    87041603.6174   21256445.941  
                
  22744125.883   119521208.152    22744132.316    93133443.5684                 
                
  22058416.445   118121825.496                    91872539.192    22058420.316  
  22058415.375  
  21234586.227   111588539.481    21234595.582    86952166.5244   21234595.039  
                
  23546143.117   123735832.844    23546151.297    96417562.7764   23546151.090  
                
  19293483.828   103279573.413                    80328555.881    19293488.637  
  19293482.145  
 21  8 16 10 33  0.0000000  0 14R 6R21R22G32G 1R23G27G22G 8G21R 8G10
                                G23R 7
  20514661.414   109470193.693                                                  
  20514659.070  
  20640969.055   110453996.541                    85908653.527    20640973.137  
  20640967.230  
  19257700.156   102798930.175                    79954748.257    19257702.562  
  19257698.340  
  20891856.797   109787478.614    20891865.797    85548740.1094   20891866.082  
                
  24010650.984   126176837.070    24010662.410    98319650.2794   24010661.973  
                
  23195110.727   124078202.339                                                  
  23195108.910  
  21593931.789   113476864.669    21593940.707    88423584.7734   21593940.844  
                
  24315165.484   127777061.919    24315171.285    99566566.5054                 
                
  21257131.727   111706976.561    21257141.598    87044453.7544   21257141.992  
                
  22739749.961   119498212.520    22739756.398    93115524.8904                 
                
  22051674.789   118085724.838                    91844460.923    22051678.734  
  22051673.801  
  21237871.406   111605803.173    21237880.820    86965618.7504   21237880.254  
                
  23551854.273   123765845.230    23551862.418    96440949.0294   23551862.238  
                
  19292136.758   103272362.432                    80322947.344    19292141.566  
  19292135.078  
 21  8 16 10 33 10.0000000  0 14R 6R21R22G32G 1R23G27G22G 8G21R 8G10
                                G23R 7
  20520167.000   109499572.651                                                  
  20520164.664  
  20646415.141   110483139.530                    85931320.291    20646419.215  
  20646413.336  
  19256368.266   102791820.493                    79949218.512    19256370.645  
  19256366.469  
  20889557.648   109775396.535    20889566.656    85539325.5034   20889566.938  
                
  24004245.102   126143173.654    24004256.430    98293419.0604   24004256.000  
                
  23187434.023   124037137.478                                                  
  23187432.293  
  21598594.266   113501366.134    21598603.188    88442676.8154   21598603.320  
                
  24309652.336   127748089.765    24309658.086    99543990.8264                 
                
  21257840.414   111710700.695    21257850.285    87047355.6754   21257850.684  
                
  22735376.898   119475231.955    22735383.312    93097617.9554                 
                
  22044940.328   118049662.377                    91816412.361    22044944.312  
  22044939.375  
  21241161.859   111623094.549    21241171.328    86979092.5464   21241170.742  
                
  23557566.898   123795865.291    23557574.988    96464341.2754   23557574.859  
                
  19290803.445   103265225.100                    80317396.087    19290808.258  
  19290801.777  
 21  8 16 10 33 20.0000000  0 14R 6R21R22G32G 1R23G27G22G 8G21R 8G10
                                G23R 7
  20525680.359   109528993.051                                                  
  20525677.996  
  20651871.969   110512340.046                    85954031.790    20651876.078  
  20651870.180  
  19255050.086   102784784.065                    79943745.727    19255052.520  
  19255048.305  
  20887269.906   109763374.455    20887278.930    85529957.6584   20887279.199  
                
  23997840.016   126109514.576    23997851.316    98267191.2454   23997850.891  
                
  23179758.766   123996080.226                                                  
  23179757.070  
  21603266.148   113525917.042    21603275.098    88461807.3824   21603275.211  
                
  24304141.742   127719131.649    24304147.555    99521426.0854                 
                
  21258561.562   111714490.383    21258571.438    87050308.6744   21258571.824  
                
  22731006.594   119452265.836    22731012.996    93079722.2904                 
                
  22038212.883   118013637.551                    91788393.086    22038216.926  
  22038211.965  
  21244457.430   111640412.868    21244466.949    86992587.3344   21244466.348  
                
  23563280.867   123825892.339    23563288.922    96487738.9644   23563288.824  
                
  19289483.727   103258160.551                    80311901.442    19289488.539  
  19289482.078  
 21  8 16 10 33 30.0000000  0 14R 6R21R22G32G 1R23G27G22G 8G21R 8G10
                                G23R 7
  20531201.484   109558454.799                                                  
  20531199.113  
  20657339.547   110541598.085                    85976788.010    20657343.680  
  20657337.793  
  19253745.680   102777821.131                    79938330.109    19253748.141  
  19253743.902  
  20884993.625   109751412.618    20885002.660    85520636.7554   20885002.922  
                
  23991435.852   126075860.120    23991447.055    98240966.9774   23991446.648  
                
  23172084.969   123955030.799                                                  
  23172083.332  
  21607947.469   113550517.513    21607956.430    88480976.5664   21607956.527  
                
  24298633.914   127690187.807    24298639.734    99498872.4584                 
                
  21259295.242   111718345.882    21259305.121    87053312.9564   21259305.492  
                
  22726639.070   119429314.378    22726645.473    93061838.0464                 
                
  22031492.453   117977650.460                    91760403.148    22031496.570  
  22031491.625  
  21247758.148   111657758.245    21247767.703    87006103.2044   21247767.074  
                
  23568996.180   123855926.481    23569004.258    96511142.1524   23569004.148  
                
  19288177.648   103251169.015                    80306463.585    19288182.453  
  19288176.027  
 21  8 16 10 33 40.0000000  0 14R 6R21R22G32G 1R23G27G22G 8G21R 8G10
                                G23R 7
  20536730.312   109587957.638                                                  
  20536727.918  
  20662817.867   110570913.565                    85999588.921    20662822.008  
  20662816.133  
  19252455.062   102770931.703                    79932971.668    19252457.512  
  19252453.270  
  20882728.812   109739510.942    20882737.844    85511362.7264   20882738.117  
                
  23985032.531   126042210.186    23985043.688    98214746.2644   23985043.309  
                
  23164412.688   123913989.344                                                  
  23164411.117  
  21612638.180   113575167.339    21612647.141    88500184.2194   21612647.250  
                
  24293128.781   127661258.107    24293134.605    99476329.8554                 
                
  21260041.453   111722267.191    21260051.328    87056368.5274   21260051.699  
                
  22722274.312   119406377.488    22722280.727    93043965.1534                 
                
  22024779.062   117941701.039                    91732442.520    22024783.250  
  22024778.281  
  21251063.992   111675130.528    21251073.570    87019640.0474   21251072.938  
                
  23574712.828   123885967.585    23574720.922    96534550.7864   23574720.828  
                
  19286885.188   103244250.344                    80301082.412    19286889.984  
  19286883.582  
 21  8 16 10 33 50.0000000  0 14R 6R21R22G32G 1R23G27G22G 8G21R 8G10
                                G23R 7
  20542266.844   109617501.739                                                  
  20542264.465  
  20668306.930   110600286.533                    86022434.548    20668311.070  
  20668305.211  
  19251178.250   102764115.989                    79927670.549    19251180.699  
  19251176.465  
  20880475.492   109727669.773    20880484.520    85502135.8434   20880484.793  
                
  23978630.086   126008565.137    23978641.262    98188529.3684   23978640.875  
                
  23156741.953   123872956.105                                                  
  23156740.379  
  21617338.320   113599866.731    21617347.285    88519430.4884   21617347.391  
                
  24287626.359   127632342.836    24287632.203    99453798.4764                 
                
  21260800.219   111726254.495    21260810.086    87059475.5114   21260810.461  
                
  22717912.383   119383455.466    22717918.812    93026103.8474                 
                
  22018072.930   117905789.991                    91704511.729    22018077.090  
  22018072.082  
  21254375.008   111692529.991    21254384.598    87033198.0614   21254383.953  
                
  23580430.867   123916015.894    23580438.945    96557965.0404   23580438.855  
                
  19285606.398   103237404.881                    80295758.163    19285611.184  
  19285604.824  
 21  8 16 10 34  0.0000000  0 14R 6R21R22G32G 1R23G27G22G 8G21R 8G10
                                G23R 7
  20547811.016   109647086.528                                                  
  20547808.629  
  20673806.727   110629716.925                    86045324.833    20673810.863  
  20673805.035  
  19249915.234   102757373.990                    79922426.775    19249917.711  
  19249913.457  
  20878233.633   109715888.753    20878242.672    85492955.8294   20878242.949  
                
  23972228.469   125974924.654    23972239.688    98162316.0114   23972239.285  
                
  23149072.688   123831930.845                                                  
  23149071.113  
  21622047.820   113624615.254    21622056.773    88538715.0424   21622056.871  
                
  24282126.617   127603441.708    24282132.438    99431278.1324                 
                
  21261571.445   111730307.316    21261581.301    87062633.5424   21261581.680  
                
  22713553.250   119360548.064    22713559.676    93008253.9284                 
                
  22011373.922   117869916.770                    91676610.331    22011377.965  
  22011372.992  
  21257691.109   111709956.218    21257700.703    87046776.9274   21257700.062  
                
  23586150.172   123946071.026    23586158.246    96581384.5914   23586158.156  
                
  19284341.195   103230632.162                    80290490.490    19284345.977  
  19284339.633  
 21  8 16 10 34 10.0000000  0 14R 6R21R22G32G 1R23G27G22G 8G21R 8G10
                                G23R 7
  20553362.820   109676712.019                                                  
  20553360.453  
  20679317.195   110659204.404                    86068259.528    20679321.324  
  20679315.520  
  19248666.039   102750705.686                    79917240.315    19248668.559  
  19248664.285  
  20876003.242   109704168.019    20876012.301    85483822.8044   20876012.566  
                
  23965827.805   125941288.889    23965839.043    98136106.3614   23965838.645  
                
  23141405.000   123790913.890                                                  
  23141403.406  
  21626766.656   113649412.870    21626775.586    88558037.8574   21626775.703  
                
  24276629.586   127574554.793    24276635.406    99408768.8634                 
                
  21262355.188   111734425.884    21262365.031    87065842.8164   21262365.430  
                
  22709196.906   119337655.383    22709203.332    92990415.4934                 
                
  22004681.977   117834081.508                    91648738.478    22004685.984  
  22004681.012  
  21261012.312   111727409.237    21261021.898    87060376.6804   21261021.262  
                
  23591870.781   123976133.015    23591878.871    96604809.5094   23591878.781  
                
  19283089.617   103223932.283                    80285279.481    19283094.391  
  19283088.074  
 21  8 16 10 34 20.0000000  0 14R 6R21R22G32G 1R23G27G22G 8G21R 8G10
                                G23R 7
  20558922.250   109706378.095                                                  
  20558919.895  
  20684838.352   110688749.067                    86091238.698    20684842.461  
  20684836.691  
  19247430.664   102744111.047                    79912111.152    19247433.164  
  19247428.914  
  20873784.328   109692507.559    20873793.406    85474736.7374   20873793.660  
                
  23959428.078   125907657.846    23959439.316    98109900.3664   23959438.910  
                
  23133738.820   123749905.259                                                  
  23133737.242  
  21631494.820   113674259.490    21631503.746    88577398.8484   21631503.879  
                
  24271135.281   127545682.165    24271141.035    99386270.7194                 
                
  21263151.398   111738610.017    21263161.223    87069103.1654   21263161.641  
                
  22704843.375   119314777.483    22704849.805    92972588.5584                 
                
  21997997.141   117798284.546                    91620896.431    21998001.160  
  21997996.184  
  21264338.602   111744888.985    21264348.164    87073997.2544   21264347.531  
                
  23597592.695   124006201.773    23597600.777    96628239.7024   23597600.695  
                
  19281851.594   103217305.054                    80280124.971    19281856.344  
  19281850.070  
 21  8 16 10 34 30.0000000  0 14R 6R21R22G32G 1R23G27G22G 8G21R 8G10
                                G23R 7
  20564489.258   109736084.633                                                  
  20564486.887  
  20690370.148   110718350.755                    86114262.218    20690374.266  
  20690368.484  
  19246209.133   102737590.324                    79907039.476    19246211.629  
  19246207.402  
  20871576.891   109680907.424    20871585.996    85465697.6754   20871586.234  
                
  23953029.227   125874031.594    23953040.477    98083698.1044   23953040.066  
                
  23126074.281   123708905.054                                                  
  23126072.684  
  21636232.297   113699155.037    21636241.223    88596797.9674   21636241.352  
                
  24265643.719   127516823.850    24265649.441    99363783.7394                 
                
  21263960.125   111742859.856    21263969.930    87072414.7194   21263970.367  
                
  22700492.656   119291914.363    22700499.105    92954773.1574                 
                
  21991319.469   117762525.650                    91593083.977    21991323.449  
  21991318.438  
  21267669.977   111762395.435    21267679.516    87087638.6364   21267678.883  
                
  23603315.891   124036277.302    23603324.008    96651675.1644   23603323.914  
                
  19280627.188   103210750.666                    80275027.117    19280631.926  
  19280625.688  
 21  8 16 10 34 40.0000000  0 14R 6R21R22G32G 1R23G27G22G 8G21R 8G10
                                G23R 7
  20570063.805   109765831.562                                                  
  20570061.391  
  20695912.633   110748009.659                    86137330.236    20695916.727  
  20695911.004  
  19245001.477   102731143.747                    79902025.462    19245003.953  
  19244999.746  
  20869380.977   109669367.846    20869390.102    85456705.8014   20869390.336  
                
  23946631.273   125840410.362    23946642.605    98057499.7464   23946642.199  
                
  23118411.406   123667913.606                                                  
  23118409.797  
  21640979.094   113724099.578    21640988.035    88616235.2634   21640988.160  
                
  24260154.836   127487979.960    24260160.609    99341308.0004                 
                
  21264781.328   111747175.333    21264791.133    87075777.4304   21264791.570  
                
  22696144.797   119269066.228    22696151.258    92936969.4304                 
                
  21984648.883   117726805.201                    91565301.432    21984652.926  
  21984647.887  
  21271006.461   111779928.715    21271015.965    87101300.9284   21271015.340  
                
  23609040.383   124066359.757    23609048.535    96675115.9944   23609048.438  
                
  19279416.375   103204269.069                    80269985.886    19279421.109  
  19279414.891  
 21  8 16 10 34 50.0000000  0 14R 6R21R22G32G 1R23G27G22G 8G21R 8G10
                                G23R 7
  20575645.961   109795618.998                                                  
  20575643.512  
  20701465.781   110777725.622                    86160442.628    20701469.871  
  20701464.188  
  19243807.703   102724771.280                    79897069.107    19243810.156  
  19243805.988  
  20867196.609   109657888.899    20867205.746    85447761.1694   20867205.977  
                
  23940234.203   125806794.208    23940245.707    98031305.4214   23940245.301  
                
  23110750.148   123626931.076                                                  
  23110748.594  
  21645735.203   113749093.121    21645744.164    88635710.7414   21645744.277  
                
  24254668.789   127459150.608    24254674.539    99318843.5794                 
                
  21265615.078   111751556.692    21265624.887    87079191.4694   21265625.316  
                
  22691799.805   119246233.215    22691806.277    92919177.4694                 
                
  21977985.477   117691123.390                    91537548.943    21977989.621  
  21977984.523  
  21274348.047   111797488.852    21274357.504    87114984.1464   21274356.879  
                
  23614766.211   124096449.121    23614774.383    96698562.2354   23614774.273  
                
  19278219.195   103197860.487                    80265001.436    19278223.922  
  19278217.711  
 21  8 16 10 35  0.0000000  0 14R 6R21R22G32G 1R23G27G22G 8G21R 8G10
                                G23R 7
  20581235.633   109825446.526                                                  
  20581233.188  
  20707029.594   110807498.529                    86183599.298    20707033.660  
  20707028.020  
  19242627.844   102718473.052                    79892170.478    19242630.348  
  19242626.133  
  20865023.750   109646470.431    20865032.875    85438863.6594   20865033.117  
                
  23933838.148   125773183.065    23933849.688    98005114.8904   23933849.230  
                
  23103090.516   123585957.374                                                  
  23103089.023  
  21650500.602   113774135.364    21650509.578    88655224.1684   21650509.695  
                
  24249185.445   127430335.629    24249191.211    99296390.3634                 
                
  21266461.336   111756003.774    21266471.137    87082656.7224   21266471.578  
                
  22687457.680   119223415.197    22687464.156    92901397.2144                 
                
  21971329.180   117655479.973                    91509826.313    21971333.500  
  21971328.285  
  21277694.711   111815075.595    21277704.125    87128688.0934   21277703.523  
                
  23620493.344   124126545.157    23620501.512    96722013.6754   23620501.418  
                
  19277035.617   103191524.681                    80260073.591    19277040.336  
  19277034.141  
 21  8 16 10 35 10.0000000  0 14R 6R21R22G32G 1R23G27G22G 8G21R 8G10
                                G23R 7
  20586832.766   109855313.935                                                  
  20586830.305  
  20712603.992   110837328.208                    86206800.155    20712608.062  
  20712602.445  
  19241461.812   102712248.767                    79887329.365    19241464.359  
  19241460.113  
  20862862.375   109635112.366    20862871.492    85430013.2304   20862871.742  
                
  23927443.016   125739576.838    23927454.621    97978928.2794   23927454.137  
                
  23095432.516   123544992.493                                                  
  23095431.039  
  21655275.219   113799226.119    21655284.238    88674775.3974   21655284.332  
                
  24243704.836   127401534.905    24243710.582    99273948.2824                 
                
  21267320.055   111760516.324    21267329.840    87086172.9844   21267330.273  
                
  22683118.391   119200612.124    22683124.855    92883628.5864                 
                
  21964680.008   117619874.903                    91482133.530    21964684.508  
  21964679.152  
  21281046.406   111832688.819    21281055.781    87142412.6744   21281055.188  
                
  23626221.695   124156647.762    23626229.918    96745470.2354   23626229.809  
                
  19275865.625   103185261.592                    80255202.296    19275870.320  
  19275864.152  
 21  8 16 10 35 20.0000000  0 14R 6R21R22G32G 1R23G27G22G 8G21R 8G10
                                G23R 7
  20592437.359   109885221.116                                                  
  20592434.902  
  20718189.000   110867214.562                    86230045.071    20718193.051  
  20718187.461  
  19240309.719   102706098.748                    79882546.018    19240312.266  
  19240308.008  
  20860712.523   109623814.811    20860721.629    85421209.9414   20860721.895  
                
  23921048.867   125705975.668    23921060.543    97952745.5894   23921060.039  
                
  23087776.180   123504036.596                                                  
  23087774.660  
  21660059.062   113824365.372    21660068.133    88694364.4094   21660068.195  
                
  24238227.055   127372748.585    24238232.707    99251517.3954                 
                
  21268191.242   111765094.430    21268201.004    87089740.3394   21268201.438  
                
  22678781.969   119177824.098    22678788.414    92865871.6894                 
                
  21958038.078   117584308.360                    91454470.673    21958042.668  
  21958037.246  
  21284403.141   111850328.523    21284412.500    87156157.9004   21284411.918  
                
  23631951.305   124186756.961    23631959.578    96768931.9244   23631959.430  
                
  19274709.172   103179071.048                    80250387.436    19274713.863  
  19274707.699  
 21  8 16 10 35 30.0000000  0 14R 6R21R22G32G 1R23G27G22G 8G21R 8G10
                                G23R 7
  20598049.461   109915168.372                                                  
  20598046.996  
  20723784.602   110897157.653                    86253334.138    20723788.660  
  20723783.062  
  19239171.523   102700022.994                    79877820.444    19239174.066  
  19239169.805  
  20858574.203   109612577.848    20858583.309    85412453.8714   20858583.582  
                
  23914655.742   125672379.691    23914667.426    97926566.9054   23914666.848  
                
  23080121.570   123463089.811                                                  
  23080120.004  
  21664852.141   113849553.071    21664861.246    88713991.1834   21664861.289  
                
  24232751.922   127343976.730    24232757.547    99229097.7964                 
                
  21269074.922   111769738.188    21269084.672    87093358.8484   21269085.102  
                
  22674448.445   119155051.296    22674454.859    92848126.6584                 
                
  21951403.453   117548780.737                    91426838.091    21951408.070  
  21951402.648  
  21287764.922   111867994.760    21287774.270    87169923.7984   21287773.695  
                
  23637682.180   124216872.767    23637690.469    96792398.7784   23637690.281  
                
  19273566.320   103172953.265                    80245629.161    19273571.012  
  19273564.852  
 21  8 16 10 35 40.0000000  0 14R 6R21R22G32G 1R23G27G22G 8G21R 8G10
                                G23R 7
  20603668.977   109945155.111                                                  
  20603666.500  
  20729390.789   110927157.376                    86276667.224    20729394.863  
  20729389.258  
  19238047.336   102694021.866                    79873152.888    19238049.840  
  19238045.602  
  20856447.430   109601401.557    20856456.531    85403745.0724   20856456.809  
                
  23908263.594   125638788.953    23908275.301    97900392.3484   23908274.688  
                
  23072468.719   123422152.389                                                  
  23072467.129  
  21669654.422   113874789.186    21669663.559    88733655.6794   21669663.594  
                
  24227279.508   127315219.322    24227285.145    99206689.4554                 
                
  21269971.078   111774447.499    21269980.805    87097028.4344   21269981.234  
                
  22670117.836   119132293.749    22670124.234    92830393.5124                 
                
  21944776.156   117513291.875                    91399235.661    21944780.719  
  21944775.301  
  21291131.758   111885687.495    21291141.090    87183710.3394   21291140.520  
                
  23643414.312   124246995.193    23643422.543    96815870.7894   23643422.383  
                
  19272437.070   103166908.309                    80240927.530    19272441.754  
  19272435.598  
 21  8 16 10 35 50.0000000  0 14R 6R21R22G32G 1R23G27G22G 8G21R 8G10
                                G23R 7
  20609295.867   109975181.356                                                  
  20609293.367  
  20735007.500   110957213.512                    86300044.219    20735011.582  
  20735005.969  
  19236937.047   102688095.164                    79868543.239    19236939.508  
  19236935.320  
  20854332.156   109590285.781    20854341.250    85395083.4324   20854341.539  
                
  23901872.508   125605203.367    23901884.062    97874221.7304   23901883.441  
                
  23064817.633   123381224.350                                                  
  23064816.031  
  21674465.859   113900073.460    21674475.027    88753357.6974   21674475.055  
                
  24221809.797   127286476.226    24221815.457    99184292.2504                 
                
  21270879.656   111779222.120    21270889.363    87100748.9104   21270889.797  
                
  22665790.062   119109551.285    22665796.461    92812672.1184                 
                
  21938156.078   117477841.666                    91371663.282    21938160.555  
  21938155.211  
  21294503.586   111903406.527    21294512.910    87197517.3784   21294512.355  
                
  23649147.656   124277124.014    23649155.867    96839347.7694   23649155.730  
                
  19271321.336   103160935.736                    80236282.189    19271326.012  
  19271319.859  
 21  8 16 10 36  0.0000000  0 14R 6R21R22G32G 1R23G27G22G 8G21R 8G10
                                G23R 7
  20614930.117   110005246.839                                                  
  20614927.633  
  20740634.758   110987326.094                    86323465.108    20740638.871  
  20740633.184  
  19235840.719   102682242.810                    79863991.404    19235843.156  
  19235838.992  
  20852228.430   109579230.616    20852237.512    85386469.0244   20852237.805  
                
  23895482.391   125571623.013    23895493.848    97848055.2214   23895493.238  
                
  23057168.344   123340305.693                                                  
  23057166.750  
  21679286.461   113925405.828    21679295.656    88773097.1964   21679295.672  
                
  24216342.992   127257747.510    24216348.527    99161906.2764                 
                
  21271800.703   111784062.244    21271810.391    87104520.4334   21271810.820  
                
  22661465.188   119086823.947    22661471.582    92794962.5204                 
                
  21931543.266   117442430.373                    91344121.180    21931547.684  
  21931542.438  
  21297880.422   111921151.861    21297889.750    87211344.9004   21297889.195  
                
  23654882.195   124307259.249    23654890.469    96862829.7384   23654890.305  
                
  19270219.172   103155035.764                    80231693.328    19270223.832  
  19270217.699  
 21  8 16 10 36 10.0000000  0 14R 6R21R22G32G 1R23G27G22G 8G21R 8G10
                                G23R 7
  20620571.703   110035351.425                                                  
  20620569.219  
  20746272.555   111017495.111                    86346929.868    20746276.688  
  20746270.953  
  19234758.398   102676465.258                    79859497.760    19234760.852  
  19234756.676  
  20850136.266   109568236.167    20850145.332    85377901.9214   20850145.629  
                
  23889093.273   125538048.037    23889104.730    97821892.9244   23889104.121  
                
  23049520.828   123299396.662                                                  
  23049519.250  
  21684116.227   113950786.323    21684125.422    88792874.1944   21684125.441  
                
  24210878.883   127229033.363    24210884.410    99139531.6194                 
                
  21272734.234   111788967.933    21272743.918    87108343.0424   21272744.336  
                
  22657143.250   119064111.985    22657149.652    92777264.8904                 
                
  21924937.789   117407058.100                    91316609.421    21924942.102  
  21924936.922  
  21301262.266   111938923.536    21301271.617    87225192.9564   21301271.047  
                
  23660617.984   124337400.955    23660626.285    96886316.7614   23660626.125  
                
  19269130.555   103149208.318                    80227160.874    19269135.219  
  19269129.070  
 21  8 16 10 36 20.0000000  0 14R 6R21R22G32G 1R23G27G22G 8G21R 8G10
                                G23R 7
  20626220.633   110065495.207                                                  
  20626218.184  
  20751920.828   111047720.190                    86370438.260    20751924.988  
  20751919.223  
  19233690.016   102670762.150                    79855062.001    19233692.477  
  19233688.312  
  20848055.609   109557302.258    20848064.656    85369381.9964   20848064.957  
                
  23882705.125   125504478.276    23882716.590    97795734.6844   23882715.984  
                
  23041875.070   123258497.213                                                  
  23041873.492  
  21688955.086   113976214.612    21688964.281    88812688.4384   21688964.305  
                
  24205417.562   127200333.577    24205423.012    99117168.1624                 
                
  21273680.188   111793938.941    21273689.875    87112216.5474   21273690.289  
                
  22652824.164   119041415.138    22652830.562    92759579.0434                 
                
  21918339.594   117371724.808                    91289127.987    21918343.816  
  21918338.688  
  21304649.078   111956721.309    21304658.453    87239061.3414   21304657.859  
                
  23666354.961   124367548.871    23666363.258    96909808.6314   23666363.125  
                
  19268055.461   103143453.305                    80222684.760    19268060.125  
  19268053.957  
 21  8 16 10 36 30.0000000  0 14R 6R21R22G32G 1R23G27G22G 8G21R 8G10
                                G23R 7
  20631876.914   110095678.086                                                  
  20631874.480  
  20757579.617   111078001.562                    86393990.432    20757583.801  
  20757577.949  
  19232635.641   102665133.756                    79850684.358    19232638.148  
  19232633.926  
  20845986.508   109546429.089    20845995.527    85360909.4024   20845995.836  
                
  23876318.086   125470913.952    23876329.500    97769580.6814   23876328.887  
                
  23034231.164   123217607.655                                                  
  23034229.566  
  21693803.047   114001690.796    21693812.262    88832539.9974   21693812.273  
                
  24199959.000   127171648.366    24199964.402    99094816.0634                 
                
  21274638.594   111798975.406    21274648.285    87116141.0644   21274648.699  
