     2.11           OBSERVATION DATA    M (MIXED)           RINEX VERSION / TYPE
EFT-CORS.RU                             20210817 145313 UTC PGM / RUN BY / DATE 
MDNG                                                        MARKER NAME         
                                                            MARKER NUMBER       
MDNG                EFT-CORS.RU                             OBSERVER / AGENCY   
0                   TRIMBLE BD970       2.0                 REC # / TYPE / VERS 
0                   UNKNOWN EXT NONE                        ANT # / TYPE        
  3463911.2830  3030468.2400  4402179.3760                  APPROX POSITION XYZ 
        0.0000        0.0000        0.0000                  ANTENNA: DELTA H/E/N
     1     1                                                WAVELENGTH FACT L1/2
     6    C1    L1    P2    L2    C2    P1                  # / TYPES OF OBSERV 
    10.000                                                  INTERVAL            
  2021     8    15    14    30    0.0000000     GPS         TIME OF FIRST OBS   
  2021     8    15    15    30    0.0000000     GPS         TIME OF LAST OBS    
     0                                                      RCV CLOCK OFFS APPL 
                                                            END OF HEADER       
 21  8 15 14 30  0.0000000  0 19R 1G 4G17R23R 8G31G 1G22G21R10R 7R16
                                G26R24R22G19G 9G 3R 9
  22191809.727   118627955.089                    92266201.629    22191815.828  
  22191809.047  
  21225196.781   111539212.164    21225205.020    86913733.0324   21225204.773  
                
  24497555.672   128735530.997    24497564.203   100313413.4214   24497564.203  
                
  20797926.305   111254911.079                                                  
  20797924.941  
  19864280.383   106372372.889                    82734079.720    19864283.047  
  19864279.555  
  21846817.352   114805861.592    21846824.234    89459172.5434   21846824.383  
                
  21563591.875   113317483.440    21563602.879    88299387.1574   21563602.324  
                
  20765752.047   109124814.194    20765756.520    85032304.0844                 
                
  23059477.602   121178403.509    23059484.484    94424767.6144                 
                
  21608049.688   115183078.876                                                  
  21608048.965  
  20880485.266   111774928.143                    86936073.147    20880490.301  
  20880483.930  
  23379742.578   124890402.811                    97137008.662    23379745.836  
  23379741.891  
  24240399.312   127384180.665    24240411.379    99260431.0154   24240411.121  
                
  21763268.914   116377993.976                    90516212.943    21763273.863  
  21763268.191  
  23676772.141   126388223.566                    98301962.003    23676776.293  
  23676769.676  
  24168670.016   127007220.849    24168675.719    98966691.1214                 
                
  24002337.070   126133147.684    24002347.324    98285616.6024   24002347.172  
                
  20279669.633   106570446.005    20279678.332    83041958.4354   20279678.727  
                
  21089724.430   112617990.236                    87591775.039    21089727.547  
  21089723.562  
 21  8 15 14 30 10.0000000  0 19R 1G 4G17R23R 8G31G 1G22G21R10R 7R16
                                G26R24R22G19G 9G 3R 9
  22186651.984   118600384.103                    92244757.538    22186658.098  
  22186651.328  
  21221863.688   111521696.692    21221871.938    86900084.6184   21221871.691  
                
  24500927.836   128753251.798    24500936.383   100327221.8184   24500936.383  
                
  20801119.484   111271992.353                                                  
  20801118.129  
  19863016.461   106365604.615                    82728815.505    19863019.117  
  19863015.648  
  21850576.766   114825617.425    21850583.664    89474566.6894   21850583.809  
                
  21569070.023   113346271.297    21569081.027    88321819.2374   21569080.473  
                
  20767520.172   109134105.711    20767524.637    85039544.2214                 
                
  23065109.273   121207997.716    23065116.035    94447828.0314                 
                
  21601478.375   115148050.052                                                  
  21601477.668  
  20884271.461   111795195.858                    86951836.943    20884276.512  
  20884270.133  
  23385574.336   124921554.963                    97161238.104    23385577.500  
  23385573.734  
  24235612.836   127359027.610    24235624.902    99240831.2324   24235624.648  
                
  21760358.719   116362431.871                    90504109.091    21760363.625  
  21760358.020  
  23685204.320   126433234.470                    98336970.411    23685208.410  
  23685201.781  
  24170458.359   127016618.719    24170464.133    98974014.0944                 
                
  23996583.539   126102913.018    23996593.875    98262057.1374   23996593.688  
                
  20279043.898   106567157.698    20279052.582    83039396.1214   20279052.980  
                
  21089348.797   112615984.330                    87590214.884    21089351.879  
  21089347.926  
 21  8 15 14 30 20.0000000  0 19R 1G 4G17R23R 8G31G 1G22G21R10R 7R16
                                G26R24R22G19G 9G 3R 9
  22181496.648   118572825.960                    92223323.441    22181502.746  
  22181495.969  
  21218537.367   111504216.780    21218545.621    86886463.9124   21218545.371  
                
  24504307.102   128771009.469    24504315.578   100341058.9554   24504315.605  
                
  20804328.594   111289158.931                                                  
  20804327.238  
  19861758.477   106358868.207                    82723576.067    19861761.117  
  19861757.680  
  21854347.328   114845431.828    21854354.227    89490006.4784   21854354.383  
                
  21574556.523   113375103.051    21574567.473    88344285.5304   21574566.957  
                
  20769296.281   109143439.219    20769300.746    85046817.0794                 
                
  23070745.367   121237615.326    23070752.062    94470906.6854                 
                
  21594916.180   115113069.926                                                  
  21594915.480  
  20888062.016   111815487.015                    86967618.920    20888067.078  
  20888060.688  
  23391416.969   124952765.146                    97185512.696    23391420.070  
  23391416.391  
  24230831.156   127333899.700    24230843.211    99221251.0504   24230842.980  
                
  21757464.312   116346954.176                    90492070.868    21757469.168  
  21757463.637  
  23693636.797   126478246.988                    98371980.098    23693640.766  
  23693634.250  
  24172258.227   127026077.156    24172264.051    98981384.2834                 
                
  23990833.094   126072694.016    23990843.430    98238509.8934   23990843.242  
                
  20278426.492   106563913.217    20278435.156    83036867.9514   20278435.566  
                
  21088989.750   112614067.094                    87588723.705    21088992.812  
  21088988.871  
 21  8 15 14 30 30.0000000  0 18R 1G 4G17R23R 8G31G 1G22G21R10R 7R16
                                G26R24G19G 9G 3R 9
  22176343.711   118545280.687                    92201899.345    22176349.828  
  22176343.047  
  21215217.828   111486772.505    21215226.078    86872870.9824   21215225.828  
                
  24507693.359   128788803.847    24507701.809   100354924.6924   24507701.855  
                
  20807553.633   111306410.632                                                  
  20807552.266  
  19860506.500   106352163.922                    82718361.640    19860509.133  
  19860505.715  
  21858129.031   114865304.793    21858135.930    89505491.9094   21858136.082  
                
  21580051.359   113403978.634    21580062.246    88366785.9834   21580061.766  
                
  20771080.398   109152814.764    20771084.863    85054122.6984                 
                
  23076385.891   121267256.286    23076392.574    94494003.5254                 
                
  21588363.281   115078139.337                                                  
  21588362.574  
  20891856.883   111835801.210                    86983418.846    20891861.938  
  20891855.562  
  23397270.383   124984032.983                    97209832.113    23397273.465  
  23397269.793  
  24226054.266   127308797.126    24226066.332    99201690.6254   24226066.098  
                
  21754585.750   116331561.117                    90480098.492    21754590.555  
  21754585.105  
  24174069.641   127035596.197    24174075.418    98988801.7164                 
                
  23985085.641   126042490.784    23985095.977    98214974.9154   23985095.770  
                
  20277817.438   106560712.620    20277826.090    83034373.9814   20277826.504  
                
  21088647.328   112612238.615                    87587301.565    21088650.363  
  21088646.449  
 21  8 15 14 30 40.0000000  0 18R 1G 4G17R23R 8G31G 1G22G21R10R 7R16
                                G26R24G19G 9G 3R 9
  22171193.227   118517748.349                    92180485.328    22171199.359  
  22171192.570  
  21211905.062   111469363.840    21211913.320    86859305.7984   21211913.062  
                
  24511086.578   128806634.888    24511095.043   100368818.9834   24511095.051  
                
  20810794.578   111323747.454                                                  
  20810793.223  
  19859260.461   106345491.467                    82713171.952    19859263.086  
  19859259.672  
  21861921.859   114885236.217    21861928.754    89521022.8834   21861928.914  
                
  21585554.523   113432897.917    21585565.348    88389320.4784   21585564.883  
                
  20772872.523   109162232.410    20772876.984    85061461.1194                 
                
  23082030.750   121296920.320    23082037.480    94517118.3424                 
                
  21581819.664   115043258.136                                                  
  21581818.910  
  20895656.078   111856138.556                    86999236.757    20895661.137  
  20895654.758  
  23403134.594   125015358.563                    97234196.446    23403137.625  
  23403134.051  
  24221282.219   127283719.945    24221294.262    99182149.9644   24221294.031  
                
  21751723.031   116316252.803                    90468192.030    21751727.801  
  21751722.402  
  24175892.570   127045175.703    24175898.250    98996266.3064                 
                
  23979341.203   126012303.276    23979351.512    98191452.1974   23979351.289  
                
  20277216.742   106557555.942    20277225.375    83031914.2314   20277225.805  
                
  21088321.531   112610498.857                    87585948.418    21088324.543  
  21088320.633  
 21  8 15 14 30 50.0000000  0 18R 1G 4G17R23R 8G31G 1G22G21R10R 7R16
                                G26R24G19G 9G 3R 9
  22166045.219   118490229.330                    92159081.663    22166051.359  
  22166044.586  
  21208599.148   111451991.178    21208607.422    86845768.6654   21208607.148  
                
  24514486.836   128824502.884    24514495.301   100382742.0634   24514495.266  
                
  20814051.500   111341169.613                                                  
  20814050.133  
  19858020.484   106338851.446                    82708007.494    19858023.102  
  19858019.688  
  21865725.859   114905226.316    21865732.738    89536599.5774   21865732.898  
                
  21591066.047   113461861.200    21591076.789    88411889.2534   21591076.352  
                
  20774672.727   109171692.546    20774677.180    85068832.6494                 
                
  23087680.039   121326607.829    23087686.891    94540251.4404                 
                
  21575285.391   115008426.855                                                  
  21575284.617  
  20899459.695   111876499.471                    87015073.023    20899464.730  
  20899458.383  
  23409009.695   125046742.088                    97258605.862    23409012.652  
  23409009.184  
  24216515.094   127258668.661    24216527.137    99162629.5124   24216526.914  
                
  21748876.219   116301029.649                    90456351.794    21748881.008  
  21748875.613  
  24177727.055   127054815.942    24177732.707    99003778.2094                 
                
  23973599.820   125982131.915    23973610.129    98167942.0674   23973609.859  
                
  20276624.477   106554443.572    20276633.098    83029489.0084   20276633.539  
                
  21088012.422   112608848.215                    87584664.598    21088015.395  
  21088011.535  
 21  8 15 14 31  0.0000000  0 18R 1G 4G17R23R 8G31G 1G22G21R10R 7R16
                                G26R24G19G 9G 3R 9
  22160899.680   118462723.404                    92137688.153    22160905.781  
  22160899.070  
  21205300.016   111434654.155    21205308.305    86832259.3044   21205308.023  
                
  24517894.023   128842407.299    24517902.523   100396693.5624   24517902.434  
                
  20817324.250   111358676.580                                                  
  20817322.891  
  19856786.445   106332243.243                    82702867.770    19856789.062  
  19856785.645  
  21869540.922   114925274.596    21869547.789    89552221.6114   21869547.961  
                
  21596585.867   113490867.981    21596596.539    88434491.9424   21596596.141  
                
  20776480.961   109181194.829    20776485.406    85076237.0264                 
                
  23093333.664   121356318.333    23093340.684    94563402.4544                 
                
  21568760.461   114973645.358                                                  
  21568759.656  
  20903267.625   111896883.595                    87030927.331    20903272.641  
  20903266.301  
  23414895.477   125078182.878                    97283059.793    23414898.414  
  23414894.945  
  24211752.852   127233643.043    24211764.949    99143129.0354   24211764.711  
                
  21746045.305   116285891.463                    90444577.648    21746050.098  
  21746044.711  
  24179573.016   127064516.571    24179578.746    99011337.1104                 
                
  23967861.539   125951976.358    23967871.746    98144444.2414   23967871.445  
                
  20276040.586   106551375.186    20276049.195    83027098.0574   20276049.641  
                
  21087719.953   112607286.475                    87583449.915    21087722.898  
  21087719.070  
 21  8 15 14 31 10.0000000  0 18R 1G 4G17R23R 8G31G 1G22G21R10R 7R16
                                G26R24G19G 9G 3R 9
  22155756.586   118435230.713                    92116304.998    22155762.691  
  22155755.973  
  21202007.727   111417353.076    21202016.023    86818777.9464   21202015.734  
                
  24521308.195   128860348.427    24521316.723   100410673.6504   24521316.570  
                
  20820612.914   111376268.662                                                  
  20820611.559  
  19855558.477   106325667.490                    82697753.292    19855561.082  
  19855557.680  
  21873367.109   114945381.370    21873373.977    89567889.2214   21873374.160  
                
  21602113.992   113519918.485    21602124.617    88457128.6854   21602124.250  
                
  20778297.250   109190739.520    20778301.684    85083674.4434                 
                
  23098991.727   121386052.022    23098998.902    94586571.5144                 
                
  21562244.977   114938914.094                                                  
  21562244.172  
  20907079.953   111917291.221                    87046799.937    20907084.949  
  20907078.621  
  23420792.055   125109681.320                    97307558.551    23420795.023  
  23420791.484  
  24206995.562   127208643.456    24207007.672    99123648.8594   24207007.414  
                
  21743230.312   116270838.385                    90432869.707    21743235.117  
  21743229.699  
  24181430.492   127074277.744    24181436.348    99018943.1784                 
                
  23962126.195   125921836.922    23962136.410    98120958.9734   23962136.105  
                
  20275465.117   106548351.108    20275473.723    83024741.6284   20275474.172  
                
  21087444.164   112605813.775                    87582304.488    21087447.086  
  21087443.277  
 21  8 15 14 31 20.0000000  0 18R 1G 4G17R23R 8G31G 1G22G21R10R 7R16
                                G26R24G19G 9G 3R 9
  22150615.969   118407751.227                    92094932.092    22150622.043  
  22150615.375  
  21198722.258   111400087.851    21198730.555    86805324.5394   21198730.285  
                
  24524729.242   128878326.016    24524737.848   100424682.1254   24524737.652  
                
  20823917.430   111393945.481                                                  
  20823916.047  
  19854336.461   106319123.639                    82692663.633    19854339.070  
  19854335.664  
  21877204.398   114965546.425    21877211.277    89583602.2574   21877211.457  
                
  21607650.414   113549012.526    21607661.016    88479799.3624   21607660.652  
                
  20780121.594   109200326.489    20780126.020    85091144.8084                 
                
  23104654.211   121415808.716    23104661.492    94609758.5344                 
                
  21555738.914   114904232.984                                                  
  21555738.125  
  20910896.633   111937722.200                    87062690.690    20910901.613  
  20910895.281  
  23426699.383   125141237.157                    97332101.958    23426702.395  
  23426698.785  
  24202243.297   127183669.978    24202255.305    99104189.0094   24202255.059  
                
  21740431.273   116255870.689                    90421228.158    21740436.082  
  21740430.676  
  24183299.500   127084099.372    24183305.461    99026596.3734                 
                
  23956393.898   125891713.521    23956404.125    98097486.2084   23956403.797  
                
  20274898.078   106545371.290    20274906.676    83022419.6964   20274907.125  
                
  21087185.070   112604430.208                    87581228.374    21087187.957  
  21087184.199  
 21  8 15 14 31 30.0000000  0 18R 1G 4G17R23R 8G31G 1G22G21R10R 7R16
                                G26R24G19G 9G 3R 9
  22145477.859   118380285.057                    92073569.509    22145483.926  
  22145477.281  
  21195443.617   111382858.509    21195451.918    86791899.0864   21195451.629  
                
  24528157.156   128896339.989    24528165.848   100438718.9674   24528165.637  
                
  20827237.805   111411707.199                                                  
  20827236.371  
  19853120.492   106312612.139                    82687599.132    19853123.113  
  19853119.711  
  21881052.773   114985769.721    21881059.645    89599360.6654   21881059.844  
                
  21613195.102   113578150.003    21613205.707    88502503.8894   21613205.336  
                
  20781954.000   109209955.826    20781958.422    85098648.1864                 
                
  23110321.078   121445588.392    23110328.445    94632963.4544                 
                
  21549242.312   114869602.476                                                  
  21549241.516  
  20914717.672   111958176.564                    87078599.639    20914722.648  
  20914716.281  
  23432617.352   125172849.919                    97356689.673    23432620.422  
  23432616.730  
  24197495.992   127158722.657    24197507.922    99084749.5584   24197507.707  
                
  21737648.219   116240988.398                    90409653.035    21737653.043  
  21737647.645  
  24185179.984   127093981.387    24185186.000    99034296.6444                 
                
  23950664.648   125861606.186    23950674.895    98074025.9774   23950674.578  
                
  20274339.477   106542435.772    20274348.074    83020132.2754   20274348.527  
                
  21086942.648   112603135.619                    87580221.491    21086945.516  
  21086941.797  
 21  8 15 14 31 40.0000000  0 18R 1G 4G17R23R 8G31G 1G22G21R10R 7R16
                                G26R24G19G 9G 3R 9
  22140342.180   118352832.060                    92052217.190    22140348.266  
  22140341.586  
  21192171.797   111365665.006    21192180.090    86778501.5594   21192179.785  
                
  24531591.898   128914390.242    24531600.730   100452784.0774   24531600.504  
                
  20830573.969   111429553.467                                                  
  20830572.512  
  19851910.461   106306132.487                    82682559.407    19851913.090  
  19851909.691  
  21884912.180   115006051.053    21884919.047    89615164.2924   21884919.262  
                
  21618748.023   113607330.785    21618758.660    88525242.1514   21618758.281  
                
  20783794.453   109219627.471    20783798.883    85106184.5234                 
                
  23115992.305   121475390.889    23115999.727    94656186.1524                 
                
  21542755.203   114835022.551                                                  
  21542754.402  
  20918543.031   111978654.105                    87094526.603    20918548.023  
  20918541.621  
  23438546.031   125204519.964                    97381321.878    23438549.137  
  23438545.379  
  24192753.672   127133801.619    24192765.527    99065330.5714   24192765.348  
                
  21734881.078   116226191.250                    90398144.136    21734885.926  
  21734880.531  
  24187071.930   127103923.655    24187077.945    99042043.8574                 
                
  23944938.422   125831514.929    23944948.707    98050578.2604   23944948.383  
                
  20273789.281   106539544.519    20273797.879    83017879.3524   20273798.332  
                
  21086716.898   112601930.158                    87579283.909    21086719.730  
  21086716.055  
 21  8 15 14 31 50.0000000  0 18R 1G 4G17R23R 8G31G 1G22G21R10R 7R16
                                G26R24G19G 9G 3R 9
  22135208.977   118325392.301                    92030875.162    22135215.074  
  22135208.355  
  21188906.805   111348507.440    21188915.086    86765132.0384   21188914.781  
                
  24535033.547   128932476.718    24535042.469   100466877.4144   24535042.262  
                
  20833925.953   111447484.337                                                  
  20833924.508  
  19850706.500   106299685.320                    82677544.948    19850709.145  
  19850705.715  
  21888782.641   115026390.458    21888789.516    89631013.1814   21888789.723  
                
  21624309.195   113636554.869    21624319.883    88548014.1584   21624319.477  
                
  20785642.977   109229341.568    20785647.434    85113753.9494                 
                
  23121667.961   121505216.258    23121675.348    94679426.6744                 
                
  21536277.602   114800493.315                                                  
  21536276.793  
  20922372.750   111999154.932                    87110471.688    20922377.750  
  20922371.324  
  23444485.352   125236246.732                    97405998.205    23444488.418  
  23444484.625  
  24188016.367   127108907.067    24188028.227    99045932.2494   24188028.047  
                
  21732129.945   116211479.717                    90386701.850    21732134.824  
  21732129.426  
  24188975.336   127113926.179    24188981.344    99049838.0574                 
                
  23939215.227   125801439.846    23939225.594    98027143.1524   23939225.285  
                
  20273247.547   106536697.696    20273256.152    83015661.0494   20273256.602  
                
  21086507.836   112600813.758                    87578415.595    21086510.637  
  21086507.016  
 21  8 15 14 32  0.0000000  0 18R 1G 4G17R23R 8G31G 1G22G21R10R 7R16
                                G26R24G19G 9G 3R 9
  22130078.375   118297966.351                    92009543.864    22130084.500  
  22130077.727  
  21185648.742   111331386.214    21185657.023    86751790.8244   21185656.703  
                
  24538482.164   128950599.724    24538491.152   100480999.2204   24538490.941  
                
  20837293.805   111465500.077                                                  
  20837292.359  
  19849508.633   106293270.797                    82672555.869    19849511.285  
  19849507.824  
  21892664.219   115046788.296    21892671.086    89646907.5924   21892671.289  
                
  21629878.656   113665822.544    21629889.391    88570820.1304   21629888.973  
                
  20787499.680   109239098.593    20787504.172    85121356.8114                 
                
  23127348.039   121535064.774    23127355.336    94702685.2544                 
                
  21529809.688   114766015.592                                                  
  21529808.891  
  20926206.953   112019679.685                    87126435.380    20926211.961  
  20926205.512  
  23450435.422   125268030.893                    97430719.212    23450438.516  
  23450434.680  
  24183284.234   127084039.472    24183296.070    99026554.9104   24183295.891  
                
  21729394.898   116196854.100                    90375326.370    21729399.754  
  21729394.367  
  24190890.281   127123989.258    24190896.281    99057679.4104                 
                
  23933495.234   125771381.371    23933505.668    98003720.9754   23933505.387  
                
  20272714.352   106533895.708    20272722.973    83013477.6794   20272723.402  
                
  21086315.555   112599786.943                    87577616.979    21086318.348  
  21086314.754  
 21  8 15 14 32 10.0000000  0 18R 1G 4G17R23R 8G31G 1G22G21R10R 7R16
                                G26R24G19G 9G 3R 9
  22124950.008   118270552.446                    91988221.963    22124956.141  
  22124949.363  
  21182397.281   111314299.718    21182405.566    86738476.6754   21182405.227  
                
  24541937.461   128968757.618    24541946.438   100495148.1854   24541946.230  
                
  20840677.203   111483598.980                                                  
  20840675.742  
  19848316.586   106286887.464                    82667591.064    19848319.254  
  19848315.766  
  21896556.594   115067242.878    21896563.453    89662846.2214   21896563.664  
                
  21635456.078   113695132.113    21635466.879    88593658.7354   21635466.434  
                
  20789364.180   109248896.650    20789368.707    85128991.6544                 
                
  23133032.172   121564934.789    23133039.363    94725960.5944                 
                
  21523351.078   114731587.675                                                  
  21523350.289  
  20930045.266   112040226.526                    87142416.231    20930050.270  
  20930043.816  
  23456395.844   125299870.377                    97455483.232    23456398.918  
  23456395.117  
  24178556.914   127059197.379    24178568.719    99007197.4574   24178568.551  
                
  21726675.648   116182313.026                    90364016.640    21726680.496  
  21726675.121  
  24192816.438   127134111.278    24192822.488    99065566.6804                 
                
  23927778.117   125741337.894    23927788.574    97980310.5034   23927788.320  
                
  20272189.383   106531136.990    20272198.023    83011328.0254   20272198.438  
                
  21086139.734   112598848.114                    87576886.788    21086142.504  
  21086138.945  
 21  8 15 14 32 20.0000000  0 18R 1G 4G17R23R 8G31G 1G22G21R10R 7R16
                                G26R24G19G 9G 3R 9
  22119824.211   118243152.152                    91966910.642    22119830.344  
  22119823.539  
  21179152.727   111297249.484    21179160.996    86725190.7884   21179160.660  
                
  24545399.695   128986951.776    24545408.637   100509325.4444   24545408.426  
                
  20844076.391   111501782.336                                                  
  20844074.918  
  19847130.633   106280536.720                    82662651.587    19847133.297  
  19847129.812  
  21900460.023   115087755.485    21900466.879    89678830.0694   21900467.094  
                
  21641041.750   113724484.984    21641052.613    88616531.0864   21641052.145  
                
  20791236.797   109258737.308    20791241.375    85136659.6914                 
                
  23138720.586   121594827.688    23138727.688    94749253.7494                 
                
  21516902.156   114697211.359                                                  
  21516901.348  
  20933888.023   112060796.996                    87158415.479    20933893.016  
  20933886.594  
  23462366.898   125331766.625                    97480291.411    23462369.941  
  23462366.199  
  24173834.766   127034382.427    24173846.504    98987861.1394   24173846.371  
                
  21723972.469   116167857.933                    90352773.810    21723977.332  
  21723971.938  
  24194754.102   127144293.663    24194760.195    99073501.0014                 
                
  23922064.148   125711310.977    23922074.629    97956912.9264   23922074.375  
                
  20271672.938   106528423.083    20271681.594    83009213.2944   20271682.000  
                
  21085980.680   112597998.724                    87576226.153    21085983.418  
  21085979.887  
 21  8 15 14 32 30.0000000  0 18R 1G 4G17R23R 8G31G 1G22G21R10R 7R16
                                G26R24G19G 9G 3R 9
  22114700.891   118215765.194                    91945609.720    22114707.023  
  22114700.215  
  21175915.008   111280235.194    21175923.238    86711932.9064   21175922.930  
                
  24548868.852   129005181.854    24548877.637   100523530.6984   24548877.461  
                
  20847491.320   111520049.899                                                  
  20847489.832  
  19845950.680   106274218.060                    82657737.067    19845953.340  
  19845949.867  
  21904374.430   115108325.827    21904381.297    89694858.9004   21904381.504  
                
  21646635.578   113753880.748    21646646.504    88639436.8604   21646646.012  
                
  20793117.484   109268620.398    20793122.105    85144360.8014                 
                
  23144413.320   121624743.069    23144420.305    94772564.4344                 
                
  21510462.906   114662886.509                                                  
  21510462.070  
  20937735.109   112081390.706                    87174432.795    20937740.098  
  20937733.711  
  23468348.516   125363719.260                    97505143.467    23468351.547  
  23468347.816  
  24169117.734   127009594.389    24169129.492    98968545.7854   24169129.355  
                
  21721285.328   116153488.564                    90341597.624    21721290.191  
  21721284.777  
  24196703.180   127154536.025    24196709.301    99081482.0674                 
                
  23916353.297   125681300.299    23916363.773    97933528.0164   23916363.520  
                
  20271164.977   106525753.709    20271173.648    83007133.2554   20271174.035  
                
  21085838.312   112597238.492                    87575634.870    21085841.035  
  21085837.516  
 21  8 15 14 32 40.0000000  0 18R 1G 4G17R23R 8G31G 1G22G21R10R 7R16
                                G26R24G19G 9G 3R 9
  22109580.070   118188391.566                    91924319.111    22109586.246  
  22109579.391  
  21172684.102   111263256.708    21172692.281    86698702.9234   21172691.992  
                
  24552344.836   129023447.541    24552353.438   100537763.6654   24552353.309  
                
  20850921.953   111538401.382                                                  
  20850920.453  
  19844776.727   106267931.577                    82652847.586    19844779.391  
  19844775.922  
  21908299.773   115128953.635    21908306.652    89710932.5084   21908306.844  
                
  21652237.523   113783319.141    21652248.527    88662375.8544   21652248.004  
                
  20795006.227   109278545.797    20795010.883    85152094.8674                 
                
  23150110.266   121654680.717    23150117.215    94795892.4714                 
                
  21504033.312   114628613.230                                                  
  21504032.465  
  20941586.539   112102007.614                    87190468.152    20941591.504  
  20941585.168  
  23474340.617   125395727.939                    97530039.079    23474343.648  
  23474339.953  
  24164405.789   126984833.192    24164417.637    98949251.3984   24164417.469  
                
  21718614.203   116139204.919                    90330488.123    21718619.082  
  21718613.652  
  24198663.625   127164838.209    24198669.824    99089509.7164                 
                
  23910645.500   125651305.744    23910655.961    97910155.6624   23910655.734  
                
  20270665.469   106523128.762    20270674.152    83005087.8384   20270674.539  
                
  21085712.625   112596567.318                    87575112.830    21085715.355  
  21085711.816  
 21  8 15 14 32 50.0000000  0 18R 1G 4G17R23R 8G31G 1G22G21R10R 7R16
                                G26R24G19G 9G 3R 9
  22104461.727   118161031.251                    91903038.878    22104467.910  
  22104461.055  
  21169460.031   111246314.155    21169468.168    86685500.9344   21169467.898  
                
  24555827.586   129041748.829    24555836.031   100552024.3674   24555835.922  
                
  20854368.234   111556836.651                                                  
  20854366.719  
  19843608.797   106261677.343                    82647983.196    19843611.469  
  19843607.980  
  21912236.047   115149638.936    21912242.949    89727050.9144   21912243.125  
                
  21657847.578   113812800.174    21657858.641    88685348.0804   21657858.078  
                
  20796903.016   109288513.524    20796907.688    85159861.9204                 
                
  23155811.453   121684640.676    23155818.430    94819237.8794                 
                
  21497613.438   114594391.728                                                  
  21497612.586  
  20945442.281   112122647.592                    87206521.465    20945447.238  
  20945440.953  
  23480343.203   125427792.597                    97554978.268    23480346.215  
  23480342.625  
  24159699.023   126960099.130    24159710.871    98929978.1204   24159710.672  
                
  21715959.125   116125007.042                    90319445.336    21715964.004  
  21715958.602  
  24200635.453   127175200.202    24200641.738    99097583.9924                 
                
  23904940.797   125621327.482    23904951.188    97886795.9844   23904951.016  
                
  20270174.430   106520548.361    20270183.117    83003077.1374   20270183.512  
                
  21085603.625   112595985.340                    87574660.166    21085606.359  
  21085602.797  
 21  8 15 14 33  0.0000000  0 18R 1G 4G17R23R 8G31G 1G22G21R10R 7R16
                                G26R24G19G 9G 3R 9
  22099345.883   118133684.147                    91881768.927    22099352.043  
  22099345.215  
  21166242.812   111229407.544    21166250.918    86672326.9544   21166250.660  
                
  24559317.016   129060085.651    24559325.453   100566312.7904   24559325.328  
                
  20857830.188   111575355.706                                                  
  20857828.668  
  19842446.891   106255455.390                    82643143.902    19842449.559  
  19842446.062  
  21916183.258   115170381.651    21916190.188    89743214.0704   21916190.352  
                
  21663465.727   113842323.774    21663476.801    88708353.4654   21663476.238  
                
  20798807.867   109298523.562    20798812.547    85167661.9514                 
                
  23161516.781   121714622.960    23161523.895    94842600.6684                 
                
  21491203.266   114560221.956                                                  
  21491202.422  
  20949302.391   112143310.938                    87222592.951    20949307.328  
  20949301.090  
  23486356.273   125459913.229                    97579960.999    23486359.215  
  23486355.742  
  24154997.453   126935392.276    24155009.234    98910726.0374   24155009.043  
                
  21713320.156   116110895.269                    90308469.525    21713325.027  
  21713319.629  
  24202618.641   127185621.920    24202624.980    99105704.8024                 
                
  23899239.273   125591365.516    23899249.508    97863448.9894   23899249.410  
                
  20269691.883   106518012.561    20269700.566    83001101.1864   20269700.973  
                
  21085511.320   112595492.450                    87574276.827    21085514.066  
  21085510.492  
 21  8 15 14 33 10.0000000  0 18R 1G 4G17R23R 8G31G 1G22G21R10R 7R16
                                G26R24G19G 9G 3R 9
  22094232.547   118106350.470                    91860509.394    22094238.664  
  22094231.875  
  21163032.406   111212536.795    21163040.500    86659180.9224   21163040.254  
                
  24562813.117   129078457.818    24562821.582   100580628.7194   24562821.426  
                
  20861307.773   111593958.386                                                  
  20861306.289  
  19841290.992   106249265.604                    82638329.619    19841293.664  
  19841290.164  
  21920141.367   115191181.629    21920148.309    89759421.8444   21920148.453  
                
  21669091.953   113871889.758    21669102.996    88731391.8844   21669102.457  
                
  20800720.750   109308575.866    20800725.430    85175494.9064                 
                
  23167226.273   121744627.280    23167233.570    94865980.6194                 
                
  21484802.914   114526104.452                                                  
  21484802.059  
  20953166.781   112163997.268                    87238682.320    20953171.730  
  20953165.508  
  23492379.805   125492089.764                    97604987.200    23492382.727  
  23492379.312  
  24150301.078   126910712.698    24150312.734    98891495.1964   24150312.586  
                
  21710697.234   116096869.346                    90297560.467    21710702.109  
  21710696.680  
  24204613.164   127196103.186    24204619.539    99113872.0244                 
                
  23893540.750   125561419.751    23893550.902    97840114.6594   23893550.848  
                
  20269217.805   106515521.297    20269226.492    82999159.9454   20269226.902  
                
  21085435.719   112595088.775                    87573962.856    21085438.461  
  21085434.875  
 21  8 15 14 33 20.0000000  0 18R 1G 4G17R23R 8G31G 1G22G21R10R 7R16
                                G26R24G19G 9G 3R 9
  22089121.703   118079030.145                    91839260.252    22089127.797  
  22089121.031  
  21159828.844   111195701.958    21159836.945    86646062.8734   21159836.680  
                
  24566315.945   129096865.295    24566324.406   100594972.2174   24566324.230  
                
  20864800.992   111612644.632                                                  
  20864799.523  
  19840141.133   106243108.138                    82633540.486    19840143.793  
  19840140.309  
  21924110.383   115212038.917    21924117.332    89775674.2694   21924117.473  
                
  21674726.234   113901498.054    21674737.242    88754463.2824   21674736.730  
                
  20802641.695   109318670.485    20802646.359    85183360.8444                 
                
  23172940.039   121774653.535    23172947.438    94889377.6764                 
                
  21478412.328   114492039.049                                                  
  21478411.430  
  20957035.531   112184706.876                    87254789.779    20957040.484  
  20957034.285  
  23498413.719   125524321.687                    97630056.464    23498416.645  
  23498413.246  
  24145609.914   126886060.529    24145621.527    98872285.7444   24145621.391  
                
  21708090.414   116082929.475                    90286718.348    21708095.293  
  21708089.852  
  24206619.008   127206643.967    24206625.434    99122085.6014                 
                
  23887845.297   125531490.280    23887855.434    97816793.0074   23887855.391  
                
  20268752.227   106513074.672    20268760.914    82997253.4844   20268761.336  
                
  21085376.812   112594774.246                    87573718.237    21085379.566  
  21085375.969  
 21  8 15 14 33 30.0000000  0 18R 1G 4G17R23R 8G31G 1G22G21R10R 7R16
                                G26R24G19G 9G 3R 9
  22084013.359   118051723.212                    91818021.552    22084019.508  
  22084012.676  
  21156632.117   111178903.108    21156640.242    86632972.8704   21156639.957  
                
  24569825.453   129115308.123    24569833.961   100609343.2524   24569833.770  
                
  20868309.781   111631414.291                                                  
  20868308.324  
  19838997.281   106236982.938                    82628776.436    19838999.941  
  19838996.453  
  21928090.258   115232953.337    21928097.195    89791971.2124   21928097.344  
                
  21680368.562   113931148.658    21680379.543    88777567.6424   21680379.043  
                
  20804570.711   109328807.540    20804575.359    85191259.8454                 
                
  23178658.062   121804701.762    23178665.488    94912791.8634                 
                
  21472031.523   114458025.938                                                  
  21472030.625  
  20960908.594   112205439.615                    87270915.234    20960913.562  
  20960907.383  
  23504457.992   125556609.011                    97655168.809    23504460.840  
  23504457.520  
  24140923.992   126861435.943    24140935.629    98853097.7794   24140935.496  
                
  21705499.703   116069075.775                    90275943.242    21705504.605  
  21705499.148  
  24208636.188   127217244.311    24208642.676    99130345.5894                 
                
  23882153.008   125501577.244    23882163.105    97793484.1534   23882163.039  
                
  20268295.164   106510672.789    20268303.852    82995381.8844   20268304.281  
                
  21085334.617   112594548.955                    87573543.006    21085337.383  
  21085333.762  
 21  8 15 14 33 40.0000000  0 18R 1G 4G17R23R 8G31G 1G22G21R10R 7R16
                                G26R24G19G 9G 3R 9
  22078907.531   118024429.653                    91796793.225    22078913.699  
  22078906.844  
  21153442.227   111162140.138    21153450.375    86619910.8354   21153450.094  
                
  24573341.680   129133786.021    24573350.211   100623741.6114   24573349.988  
                
  20871834.133   111650267.158                                                  
  20871832.680  
  19837859.438   106230889.826                    82624037.350    19837862.078  
  19837858.578  
  21932080.984   115253924.734    21932087.906    89808312.5604   21932088.082  
                
  21686018.906   113960841.331    21686029.855    88800704.7824   21686029.375  
                
  20806507.773   109338986.898    20806512.398    85199191.8014                 
                
  23184380.281   121834771.784    23184387.699    94936223.0344                 
                
  21465660.594   114424065.392                                                  
  21465659.738  
  20964785.969   112226195.383                    87287058.594    20964790.914  
  20964784.797  
  23510512.609   125588951.635                    97680324.169    23510515.438  
  23510512.145  
  24136243.312   126836838.950    24136254.973    98833931.3034   24136254.820  
                
  21702925.109   116055308.216                    90265235.148    21702930.012  
  21702924.562  
  24210664.688   127227904.063    24210671.219    99138651.8784                 
                
  23876463.836   125471680.507    23876473.883    97770187.9964   23876473.809  
                
  20267846.594   106508315.537    20267855.281    82993545.0644   20267855.719  
                
  21085309.125   112594412.866                    87573437.169    21085311.906  
  21085308.254  
 21  8 15 14 33 50.0000000  0 18R 1G 4G17R23R 8G31G 1G22G21R10R 7R16
                                G26R24G19G 9G 3R 9
  22073804.188   117997149.437                    91775575.327    22073810.445  
  22073803.484  
  21150259.172   111145413.104    21150267.348    86606876.7914   21150267.066  
                
  24576864.516   129152298.957    24576873.141   100638167.2404   24576872.898  
                
  20875374.031   111669203.185                                                  
  20875372.559  
  19836727.617   106224829.058                    82619323.415    19836730.254  
  19836726.719  
  21936082.539   115274953.064    21936089.445    89824698.2754   21936089.637  
                
  21691677.242   113990576.022    21691688.168    88823874.6674   21691687.703  
                
  20808452.906   109349208.646    20808457.504    85207156.7894                 
                
  23190106.609   121864863.516    23190114.059    94959671.1124                 
                
  21459299.555   114390157.462                                                  
  21459298.734  
  20968667.656   112246974.249                    87303219.918    20968672.582  
  20968666.500  
  23516577.539   125621349.380                    97705522.407    23516580.348  
  23516577.000  
  24131567.930   126812269.717    24131579.574    98814786.4694   24131579.414  
                
  21700366.625   116041626.910                    90254594.158    21700371.551  
  21700366.047  
  24212704.484   127238623.172    24212711.094    99147004.4214                 
                
  23870777.805   125441800.124    23870787.801    97746904.5854   23870787.703  
                
  20267406.523   106506003.012    20267415.215    82991743.0904   20267415.648  
                
  21085300.312   112594365.877                    87573400.613    21085303.109  
  21085299.410  
 21  8 15 14 34  0.0000000  0 18R 1G 4G17R23R 8G31G 1G22G21R10R 7R16
                                G26R24G19G 9G 3R 9
  22068703.320   117969882.514                    91754367.751    22068709.625  
  22068702.594  
  21147082.945   111128721.900    21147091.133    86593870.6654   21147090.824  
                
  24580393.945   129170846.636    24580402.691   100652619.9614   24580402.430  
                
  20878929.430   111688222.149                                                  
  20878927.949  
  19835601.781   106218800.302                    82614634.386    19835604.426  
  19835600.859  
  21940094.898   115296038.138    21940101.777    89841128.1974   21940101.992  
                
  21697343.539   114020352.530    21697354.445    88847077.1254   21697353.992  
                
  20810406.070   109359472.583    20810410.648    85215154.6704                 
                
  23195837.078   121894976.776    23195844.527    94983135.9704                 
                
  21452948.438   114356302.434                                                  
  21452947.621  
  20972553.633   112267776.076                    87319399.116    20972558.551  
  20972552.484  
  23522652.742   125653802.095                    97730763.401    23522655.594  
  23522652.148  
  24126897.789   126787728.218    24126909.445    98795663.2344   24126909.297  
                
  21697824.273   116028031.843                    90244020.193    21697829.195  
  21697823.676  
  24214755.523   127249401.465    24214762.207    99155403.0764                 
                
  23865094.820   125411936.000    23865104.871    97723633.8714   23865104.730  
                
  20266974.961   106503735.126    20266983.664    82989975.9064   20266984.098  
                
  21085308.203   112594408.017                    87573433.401    21085311.008  
  21085307.297  
 21  8 15 14 34 10.0000000  0 18R 1G 4G17R23R 8G31G 1G22G21R10R 7R16
                                G26R24G19G 9G 3R 9
  22063604.969   117942628.982                    91733170.549    22063611.242  
  22063604.238  
  21143913.539   111112066.605    21143921.730    86580892.5124   21143921.418  
                
  24583930.055   129189429.147    24583938.871   100667099.8384   24583938.598  
                
  20882500.312   111707324.005                                                  
  20882498.840  
  19834481.969   106212803.834                    82609970.468    19834484.602  
  19834481.039  
  21944118.047   115317179.939    21944124.914    89857602.3174   21944125.133  
                
  21703017.773   114050170.834    21703028.652    88870312.1484   21703028.207  
                
  20812367.281   109369778.874    20812371.852    85223185.5344                 
                
  23201571.633   121925111.507    23201579.066    95006617.5564                 
                
  21446607.227   114322500.361                                                  
  21446606.406  
  20976443.906   112288600.950                    87335596.251    20976448.848  
  20976442.738  
  23528738.203   125686309.671                    97756047.053    23528741.098  
  23528737.590  
  24122232.992   126763214.655    24122244.645    98776561.7844   24122244.512  
                
  21695298.039   116014523.028                    90233513.342    21695302.961  
  21695297.441  
  24216817.828   127260238.920    24216824.535    99163847.8534                 
                
  23859415.000   125382088.266    23859425.070    97700375.9234   23859424.898  
                
  20266551.906   106501511.986    20266560.629    82988243.5824   20266561.051  
                
  21085332.773   112594539.295                    87573535.508    21085335.574  
  21085331.855  
 21  8 15 14 34 20.0000000  0 18R 1G 4G17R23R 8G31G 1G22G21R10R 7R16
                                G26R24G19G 9G 3R 9
  22058509.164   117915389.018                    91711983.933    22058515.359  
  22058508.426  
  21140751.000   111095447.341    21140759.191    86567942.4444   21140758.898  
                
  24587472.781   129208046.480    24587481.641   100681606.8284   24587481.430  
                
  20886086.719   111726508.831                                                  
  20886085.270  
  19833368.219   106206839.721                    82605331.705    19833370.836  
  19833367.305  
  21948152.000   115338378.482    21948158.875    89874120.6554   21948159.074  
                
  21708699.969   114080030.943    21708710.816    88893579.7584   21708710.383  
                
  20814336.594   109380127.621    20814341.156    85231249.4894                 
                
  23207310.273   121955267.795    23207317.711    95030115.9464                 
                
  21440276.016   114288751.497                                                  
  21440275.191  
  20980338.484   112309448.831                    87351811.251    20980343.441  
  20980337.312  
  23534833.977   125718872.107                    97781373.375    23534836.879  
  23534833.340  
  24117573.570   126738729.268    24117585.242    98757482.2984   24117585.129  
                
  21692788.008   116001100.866                    90223073.890    21692792.945  
  21692787.383  
  24218891.430   127271135.706    24218898.141    99172338.8414                 
                
  23853738.297   125352257.040    23853748.441    97677130.8534   23853748.227  
                
  20266137.406   106499333.757    20266146.152    82986546.2584   20266146.562  
                
  21085374.078   112594759.878                    87573707.059    21085376.898  
  21085373.164  
 21  8 15 14 34 30.0000000  0 18R 1G 4G17R23R 8G31G 1G22G21R10R 7R16
                                G26R24G19G 9G 3R 9
  22053415.891   117888162.520                    91690807.767    22053422.016  
  22053415.145  
  21137595.289   111078863.980    21137603.492    86555020.3534   21137603.203  
                
  24591022.164   129226698.377    24591031.012   100696140.7574   24591030.840  
                
  20889688.578   111745776.279                                                  
  20889687.133  
  19832260.469   106200907.757                    82600717.952    19832263.070  
  19832259.551  
  21952196.711   115359633.585    21952203.598    89890683.0614   21952203.781  
                
  21714390.078   114109932.624    21714400.902    88916879.7714   21714400.480  
                
  20816313.953   109390518.720    20816318.516    85239346.4484                 
                
  23213052.945   121985445.405    23213060.367    95053630.9444                 
                
  21433954.812   114255055.947                                                  
  21433953.973  
  20984237.375   112330319.815                    87368044.222    20984242.359  
  20984236.191  
  23540939.945   125751488.967                    97806742.017    23540942.836  
  23540939.281  
  24112919.508   126714272.072    24112931.172    98738424.7464   24112931.066  
                
  21690294.141   115987765.043                    90212701.593    21690299.117  
  21690293.461  
  24220976.242   127282091.445    24220982.930    99180875.7684                 
                
  23848064.844   125322442.250    23848074.941    97653898.5704   23848074.688  
                
  20265731.430   106497200.330    20265740.211    82984883.8494   20265740.602  
                
  21085432.078   112595069.588                    87573947.950    21085434.949  
  21085431.156  
 21  8 15 14 34 40.0000000  0 18R 1G 4G17R23R 8G31G 1G22G21R10R 7R16
                                G26R24G19G 9G 3R 9
  22048325.125   117860949.503                    91669642.104    22048331.262  
  22048324.395  
  21134446.406   111062316.536    21134454.633    86542126.2464   21134454.328  
                
  24594578.172   129245384.773    24594586.957   100710701.5764   24594586.801  
                
  20893305.852   111765126.251                                                  
  20893304.383  
  19831158.750   106195008.132                    82596129.361    19831161.355  
  19831157.816  
  21956252.156   115380945.147    21956259.047    89907289.4714   21956259.215  
                
  21720088.070   114139875.782    21720098.902    88940212.0854   21720098.465  
                
  20818299.359   109400952.070    20818303.938    85247476.3314                 
                
  23218799.555   122015644.295    23218807.004    95077162.5324                 
                
  21427643.656   114221413.931                                                  
  21427642.801  
  20988140.547   112351213.771                    87384295.061    20988145.539  
  20988139.348  
  23547056.062   125784160.142                    97832152.912    23547058.938  
  23547055.348  
  24108270.805   126689843.106    24108282.477    98719389.2224   24108282.383  
                
  21687816.453   115974515.848                    90202396.678    21687821.445  
  21687815.785  
  24223072.250   127293106.013    24223078.875    99189458.5584                 
                
  23842394.469   125292643.906    23842404.531    97630679.0934   23842404.273  
                
  20265333.977   106495111.733    20265342.801    82983256.3684   20265343.164  
                
  21085506.781   112595468.557                    87574258.242    21085509.703  
  21085505.848  
 21  8 15 14 34 50.0000000  0 18R 1G 4G17R23R 8G31G 1G22G21R10R 7R16
                                G26R24G19G 9G 3R 9
  22043236.883   117833749.995                    91648486.933    22043242.996  
  22043236.176  
  21131304.383   111045805.124    21131312.652    86529260.2234   21131312.320  
                
  24598140.719   129264105.632    24598149.484   100725289.2424   24598149.316  
                
  20896938.570   111784558.832                                                  
  20896937.121  
  19830063.078   106189140.890                    82591565.956    19830065.672  
  19830062.148  
  21960318.352   115402313.155    21960325.238    89923939.8574   21960325.418  
                
  21725793.969   114169860.452    21725804.809    88963576.7464   21725804.383  
                
  20820292.836   109411427.848    20820297.422    85255639.2634                 
                
  23224550.219   122045864.510    23224557.660    95100710.7454                 
                
  21421342.570   114187825.622                                                  
  21421341.715  
  20992048.039   112372130.746                    87400563.815    20992053.031  
  20992046.824  
  23553182.398   125816885.811                    97857606.179    23553185.305  
  23553181.633  
  24103627.531   126665442.646    24103639.156    98700375.8934   24103639.082  
                
  21685354.977   115961353.239                    90192159.088    21685359.992  
  21685354.301  
  24225179.469   127304179.571    24225186.055    99198087.3034                 
                
  23836727.227   125262862.121    23836737.246    97607472.5234   23836736.992  
                
  20264945.094   106493068.135    20264953.961    82981663.9524   20264954.305  
                
  21085598.211   112595956.807                    87574638.003    21085601.184  
  21085597.258  
 21  8 15 14 35  0.0000000  0 18R 1G 4G17R23R 8G31G 1G22G21R10R 7R16
                                G26R24G19G 9G 3R 9
  22038151.156   117806563.943                    91627342.224    22038157.230  
  22038150.484  
  21128169.195   111029329.648    21128177.488    86516422.2024   21128177.148  
                
  24601709.781   129282860.796    24601718.547   100739903.6384   24601718.344  
                
  20900586.664   111804073.668                                                  
  20900585.207  
  19828973.438   106183305.922                    82587027.647    19828976.023  
  19828972.504  
  21964395.242   115423737.398    21964402.105    89940634.0694   21964402.297  
                
  21731507.711   114199886.392    21731518.566    88986973.5744   21731518.148  
                
  20822294.359   109421945.956    20822298.953    85263835.1954                 
                
  23230304.828   122076105.977    23230312.309    95124275.5134                 
                
  21415051.570   114154291.180                                                  
  21415050.719  
  20995959.781   112393070.645                    87416850.396    20995964.781  
  20995958.555  
  23559318.852   125849665.579                    97883101.521    23559321.805  
  23559318.113  
  24098989.703   126641070.678    24099001.293    98681384.7524   24099001.195  
                
  21682909.703   115948277.299                    90181988.913    21682914.750  
  21682909.051  
  24227297.891   127315312.013    24227304.484    99206761.9044                 
                
  23831063.094   125233096.822    23831073.098    97584278.8034   23831072.840  
                
  20264564.750   106491069.434    20264573.656    82980106.5244   20264573.977  
                
  21085706.328   112596534.200                    87575087.096    21085709.316  
