     2.11           OBSERVATION DATA    M (MIXED)           RINEX VERSION / TYPE
EFT-CORS.RU                             20210817 144857 UTC PGM / RUN BY / DATE 
MDNG                                                        MARKER NAME         
                                                            MARKER NUMBER       
MDNG                EFT-CORS.RU                             OBSERVER / AGENCY   
0                   TRIMBLE BD970       2.0                 REC # / TYPE / VERS 
0                   UNKNOWN EXT NONE                        ANT # / TYPE        
  3463911.2830  3030468.2400  4402179.3760                  APPROX POSITION XYZ 
        0.0000        0.0000        0.0000                  ANTENNA: DELTA H/E/N
     1     1                                                WAVELENGTH FACT L1/2
     6    C1    L1    P2    L2    C2    P1                  # / TYPES OF OBSERV 
    10.000                                                  INTERVAL            
  2021     8    16    13    30    0.0000000     GPS         TIME OF FIRST OBS   
  2021     8    16    14    30    0.0000000     GPS         TIME OF LAST OBS    
     0                                                      RCV CLOCK OFFS APPL 
                                                            END OF HEADER       
 21  8 16 13 30  0.0000000  0 17G 4G17R 1R24R17G32G31G 1R23R 9G22G19
                                G21R 8R10G 3R 7
  22709966.734   119341710.087    22709975.531    92993586.3884   22709975.312  
                
  23859014.828   125379968.403    23859022.328    97698713.2054   23859022.371  
                
  20237443.805   108180765.804                    84140598.902    20237449.332  
  20237443.191  
  20347394.930   108806698.305                    84627429.665    20347399.645  
  20347394.191  
  23304995.430   124709740.173                    96996455.389    23304999.836  
  23304993.914  
  23975533.336   125992298.705    23975543.086    98175869.9524   23975543.648  
                
  21295110.125   111906604.633    21295116.777    87200012.9614   21295116.973  
                
  20298814.289   106671025.234    20298824.770    83120321.4764   20298824.227  
                
  20475526.930   109530273.378                                                  
  20475525.320  
  22390134.914   119562082.514                    92992737.167    22390138.328  
  22390134.168  
  20609665.578   108304558.575    20609669.906    84393194.6264                 
                
  24267690.219   127527578.235    24267696.535    99372158.9524                 
                
  21514841.875   113061275.892    21514848.551    88099729.4914                 
                
  19998853.578   107092986.363                    83294559.162    19998856.172  
  19998852.848  
  21933419.398   116917465.225                                                  
  21933418.555  
  20917771.367   109923657.178    20917780.680    85654853.1514   20917780.973  
                
  23049078.867   123383548.364                    95964975.711    23049084.535  
  23049077.508  
 21  8 16 13 30 10.0000000  0 17G 4G17R 1R24R17G32G31G 1R23R 9G22G19
                                G21R 8R10G 3R 7
  22704538.797   119313186.168    22704547.648    92971359.9814   22704547.402  
                
  23859235.992   125381130.701    23859243.535    97699618.8754   23859243.582  
                
  20234691.359   108166052.424                    84129155.168    20234696.879  
  20234690.754  
  20346327.516   108800990.357                    84622990.159    20346332.223  
  20346326.773  
  23297982.039   124672209.950                    96967265.242    23297986.438  
  23297980.562  
  23981522.820   126023773.534    23981532.637    98200395.7784   23981533.168  
                
  21294518.758   111903497.049    21294525.406    87197591.4684   21294525.605  
                
  20300652.750   106680686.417    20300663.230    83127849.6674   20300662.684  
                
  20480870.273   109558856.648                                                  
  20480868.664  
  22391282.023   119568207.987                    92997501.416    22391285.418  
  22391281.297  
  20608903.258   108300552.533    20608907.590    84390073.0404                 
                
  24265281.898   127514922.409    24265288.219    99362297.2704                 
                
  21518191.281   113078877.095    21518197.965    88113444.7034                 
                
  20001292.703   107106047.804                    83304718.055    20001295.301  
  20001291.949  
  21928527.055   116891386.285                                                  
  21928526.172  
  20914759.031   109907827.320    20914768.340    85642518.2004   20914768.645  
                
  23054854.172   123414463.827                    95989021.042    23054859.824  
  23054852.805  
 21  8 16 13 30 20.0000000  0 17G 4G17R 1R24R17G32G31G 1R23R 9G22G19
                                G21R 8R10G 3R 7
  22699116.273   119284690.725    22699125.176    92949155.7514   22699124.895  
                
  23859468.156   125382350.829    23859475.738    97700569.5924   23859475.785  
                
  20231945.328   108151373.307                    84117738.092    20231950.855  
  20231944.715  
  20345277.438   108795375.101                    84618622.732    20345282.168  
  20345276.672  
  23290976.875   124634723.903                    96938109.452    23290981.281  
  23290975.441  
  23987513.609   126055255.266    23987523.496    98224926.9904   23987523.977  
                
  21293941.109   111900461.565    21293947.770    87195226.1534   21293947.957  
                
  20302503.758   106690413.532    20302514.234    83135429.2334   20302513.695  
                
  20486227.125   109587512.146                                                  
  20486225.500  
  22392445.047   119574418.404                    93002331.757    22392448.449  
  22392444.363  
  20608147.766   108296582.408    20608152.094    84386979.4294                 
                
  24262885.898   127502331.315    24262892.152    99352486.0184                 
                
  21521549.398   113096524.114    21521556.086    88127195.6234                 
                
  20003737.555   107119139.859                    83314900.762    20003740.168  
  20003736.785  
  21923646.578   116865370.631                                                  
  21923645.688  
  20911752.508   109892027.965    20911761.820    85630207.0254   20911762.121  
                
  23060630.078   123445382.266                    96013068.696    23060635.664  
  23060628.699  
 21  8 16 13 30 30.0000000  0 17G 4G17R 1R24R17G32G31G 1R23R 9G22G19
                                G21R 8R10G 3R 7
  22693699.133   119256223.571    22693708.043    92926973.5804   22693707.766  
                
  23859711.273   125383628.480    23859718.867    97701565.2004   23859718.953  
                
  20229205.656   108136728.230                    84106347.479    20229211.164  
  20229205.039  
  20344244.711   108789852.630                    84614327.467    20344249.441  
  20344243.949  
  23283980.008   124597281.941                    96908987.937    23283984.336  
  23283978.555  
  23993505.664   126086743.585    23993515.586    98249463.3304   23993516.047  
                
  21293377.156   111897498.031    21293383.824    87192916.9144   21293384.027  
                
  20304367.266   106700206.352    20304377.742    83143060.0024   20304377.211  
                
  20491597.414   109616239.551                                                  
  20491595.742  
  22393623.898   119580713.378                    93007227.848    22393627.281  
  22393623.258  
  20607399.078   108292648.008    20607403.395    84383913.6694                 
                
  24260502.164   127489804.800    24260508.320    99342725.1034                 
                
  21524916.195   113114216.718    21524922.879    88140982.0644                 
                
  20006188.055   107132262.206                    83325107.033    20006190.680  
  20006187.289  
  21918777.945   116839418.140                                                  
  21918777.047  
  20908751.758   109876258.927    20908761.070    85617919.4704   20908761.359  
                
  23066406.500   123476303.792                    96037118.745    23066412.098  
  23066405.129  
 21  8 16 13 30 40.0000000  0 17G 4G17R 1R24R17G32G31G 1R23R 9G22G19
                                G21R 8R10G 3R 7
  22688287.469   119227785.090    22688296.387    92904813.7414   22688296.129  
                
  23859965.414   125384964.083    23859973.047    97702605.9364   23859973.141  
                
  20226472.422   108122117.538                    84094983.602    20226477.906  
  20226471.793  
  20343229.352   108784423.018                    84610104.444    20343234.086  
  20343228.605  
  23276991.469   124559884.616                    96879901.137    23276995.719  
  23276989.965  
  23999499.023   126118238.787    23999508.980    98274005.0354   23999509.414  
                
  21292826.961   111894606.751    21292833.648    87190663.9784   21292833.848  
                
  20306243.344   106710065.192    20306253.812    83150742.2094   20306253.297  
                
  20496981.188   109645039.079                                                  
  20496979.512  
  22394818.680   119587093.326                    93012190.037    22394822.031  
  22394818.059  
  20606657.250   108288749.669    20606661.547    84380876.0044                 
                
  24258130.773   127477343.098    24258136.805    99333014.7094                 
                
  21528291.711   113131955.172    21528298.391    88154804.2314                 
                
  20008644.328   107145415.415                    83335337.302    20008646.961  
  20008643.566  
  21913921.305   116813529.448                                                  
  21913920.426  
  20905756.844   109860520.602    20905766.152    85605655.8424   20905766.453  
                
  23072183.492   123507228.441                    96061171.257    23072189.098  
  23072182.074  
 21  8 16 13 30 50.0000000  0 17G 4G17R 1R24R17G32G31G 1R23R 9G22G19
                                G21R 8R10G 3R 7
  22682881.148   119199374.635    22682890.070    92882675.7334   22682889.820  
                
  23860230.445   125386356.871    23860238.184    97703691.2214   23860238.230  
                
  20223745.477   108107540.480                    84083645.898    20223750.949  
  20223744.832  
  20342231.281   108779085.863                    84605953.327    20342236.027  
  20342230.520  
  23270011.102   124522531.305                    96850848.560    23270015.340  
  23270009.566  
  24005493.547   126149740.131    24005503.562    98298551.5224   24005503.961  
                
  21292290.398   111891787.110    21292297.121    87188466.8644   21292297.309  
                
  20308131.844   106719989.335    20308142.305    83158475.3034   20308141.801  
                
  20502378.289   109673909.893                                                  
  20502376.594  
  22396029.242   119593557.598                    93017217.812    22396032.543  
  22396028.609  
  20605922.164   108284886.742    20605926.438    84377865.9254                 
                
  24255771.625   127464945.671    24255777.539    99323354.3864                 
                
  21531675.812   113149738.755    21531682.473    88168661.5464                 
                
  20011106.227   107158598.750                    83345591.008    20011108.855  
  20011105.480  
  21909076.516   116787703.991                                                  
  21909075.648  
  20902767.664   109844812.354    20902776.965    85593415.6514   20902777.258  
                
  23077960.891   123538155.628                    96085225.716    23077966.551  
  23077959.418  
 21  8 16 13 31  0.0000000  0 17G 4G17R 1R24R17G32G31G 1R23R 9G22G19
                                G21R 8R10G 3R 7
  22677480.227   119170992.578    22677489.152    92860559.8664   22677488.895  
                
  23860506.438   125387807.259    23860514.305    97704821.3784   23860514.293  
                
  20221024.906   108092997.476                    84072334.680    20221030.379  
  20221024.242  
  20341250.555   108773841.524                    84601874.394    20341255.309  
  20341249.805  
  23263039.039   124485222.608                    96821830.714    23263043.305  
  23263037.461  
  24011489.281   126181247.946    24011499.359    98323103.0404   24011499.727  
                
  21291767.539   111889039.493    21291774.285    87186325.8684   21291774.457  
                
  20310032.836   106729979.101    20310043.285    83166259.5394   20310042.789  
                
  20507788.727   109702852.097                                                  
  20507787.000  
  22397255.617   119600106.325                    93022311.256    22397258.898  
  22397254.984  
  20605193.867   108281059.541    20605198.121    84374883.6964                 
                
  24253424.797   127452612.938    24253430.672    99313744.4784                 
                
  21535068.562   113167567.750    21535075.203    88182554.2694                 
                
  20013573.789   107171812.424                    83355868.308    20013576.426  
  20013573.059  
  21904243.664   116761942.254                                                  
  21904242.789  
  20899784.273   109829134.545    20899793.562    85581199.1904   20899793.867  
                
  23083738.820   123569085.701                    96109282.417    23083744.586  
  23083737.320  
 21  8 16 13 31 10.0000000  0 17G 4G17R 1R24R17G32G31G 1R23R 9G22G19
                                G21R 8R10G 3R 7
  22672084.719   119142638.916    22672093.633    92838466.1144   22672093.359  
                
  23860793.367   125389315.085    23860801.332    97705996.3054   23860801.234  
                
  20218310.672   108078488.400                    84061049.843    20218316.137  
  20218309.992  
  20340287.164   108768689.848                    84597867.535    20340291.922  
  20340286.414  
  23256075.336   124447958.606                    96792847.611    23256079.633  
  23256073.719  
  24017486.219   126212762.091    24017496.328    98347659.5024   24017496.691  
                
  21291258.352   111886363.761    21291265.117    87184240.8944   21291265.285  
                
  20311946.305   106740034.442    20311956.730    83174094.8624   20311956.254  
                
  20513212.516   109731865.696                                                  
  20513210.777  
  22398497.820   119606739.541                    93027470.432    22398501.086  
  22398497.188  
  20604472.375   108277268.094    20604476.609    84371929.3234                 
                
  24251090.242   127440344.808    24251096.133    99304184.9104                 
                
  21538469.938   113185442.074    21538476.566    88196482.3144                 
                
  20016046.977   107185056.233                    83366169.057    20016049.625  
  20016046.250  
  21899422.773   116736244.349                                                  
  21899421.906  
  20896806.680   109813487.213    20896815.957    85569006.4674   20896816.262  
                
  23089517.281   123600018.430                    96133341.187    23089523.074  
  23089515.762  
 21  8 16 13 31 20.0000000  0 17G 4G17R 1R24R17G32G31G 1R23R 9G22G19
                                G21R 8R10G 3R 7
  22666694.672   119114313.973    22666703.586    92816394.7374   22666703.301  
                
  23861091.281   125390880.632    23861099.336    97707216.2104   23861099.156  
                
  20215602.852   108064013.574                    84049791.653    20215608.355  
  20215602.145  
  20339341.180   108763631.179                    84593933.025    20339345.953  
  20339340.414  
  23249120.039   124410739.708                    96763899.604    23249124.387  
  23249118.391  
  24023484.422   126244282.805    24023494.547    98372221.0894   24023494.891  
                
  21290762.922   111883760.279    21290769.699    87182212.1994   21290769.867  
                
  20313872.297   106750155.599    20313882.699    83181981.4724   20313882.246  
                
  20518649.656   109760950.706                                                  
  20518647.914  
  22399755.891   119613457.558                    93032695.513    22399759.141  
  22399755.281  
  20603757.773   108273512.810    20603761.988    84369003.1214                 
                
  24248768.039   127428141.739    24248774.012    99294676.0044                 
                
  21541879.984   113203362.001    21541886.613    88210445.8834                 
                
  20018525.875   107198330.629                    83376493.585    20018528.539  
  20018525.141  
  21894613.945   116710610.606                                                  
  21894613.070  
  20893834.945   109797870.639    20893844.211    85556837.7094   20893844.520  
                
  23095296.289   123630953.961                    96157402.147    23095302.137  
  23095294.746  
 21  8 16 13 31 30.0000000  0 17G 4G17R 1R24R17G32G31G 1R23R 9G22G19
                                G21R 8R10G 3R 7
  22661310.086   119086017.731    22661319.000    92794345.7354   22661318.711  
                
  23861400.172   125392503.864    23861408.258    97708481.0694   23861408.066  
                
  20212901.414   108049572.880                    84038560.019    20212906.930  
  20212900.688  
  20338412.602   108758665.659                    84590070.934    20338417.367  
  20338411.824  
  23242173.227   124373566.057                    96734986.778    23242177.605  
  23242171.500  
  24029483.867   126275809.998    24029494.016    98396787.7274   24029494.336  
                
  21290281.227   111881228.985    21290288.023    87180239.7754   21290288.184  
                
  20315810.805   106760342.525    20315821.184    83189919.3344   20315820.746  
                
  20524100.117   109790106.983                                                  
  20524098.375  
  22401029.836   119620260.299                    93037986.565    22401033.098  
  22401029.230  
  20603050.039   108269793.617    20603054.242    84366105.0494                 
                
  24246458.164   127416003.659    24246464.238    99285217.7364                 
                
  21545298.695   113221327.408    21545305.312    88224444.8964                 
                
  20021010.461   107211635.477                    83386841.785    20021013.133  
  20021009.723  
  21889817.164   116685041.279                                                  
  21889816.277  
  20890869.070   109782284.858    20890878.316    85544692.9484   20890878.633  
                
  23101075.852   123661892.625                    96181465.506    23101081.805  
  23101074.285  
 21  8 16 13 31 40.0000000  0 17G 4G17R 1R24R17G32G31G 1R23R 9G22G19
                                G21R 8R10G 3R 7
  22655930.938   119057750.146    22655939.824    92772319.0624   22655939.531  
                
  23861720.023   125394184.645    23861728.086    97709790.7754   23861727.898  
                
  20210206.375   108035166.420                    84027355.005    20210211.891  
  20210205.648  
  20337501.398   108753793.048                    84586281.128    20337506.168  
  20337500.633  
  23235234.875   124336437.784                    96706109.219    23235239.273  
  23235233.012  
  24035484.508   126307343.535    24035494.648    98421359.2974   24035494.941  
                
  21289813.258   111878769.852    21289820.074    87178323.5724   21289820.238  
                
  20317761.797   106770595.084    20317772.160    83197908.3404   20317771.734  
                
  20529563.859   109819334.309                                                  
  20529562.113  
  22402319.617   119627147.654                    93043343.371    22402322.898  
  22402319.008  
  20602349.141   108266110.410    20602353.336    84363235.0194                 
                
  24244160.680   127403930.585    24244166.859    99275810.1894                 
                
  21548726.047   113239338.226    21548732.656    88238479.2934                 
                
  20023500.719   107224970.707                    83397213.637    20023503.395  
  20023499.973  
  21885032.508   116659536.347                                                  
  21885031.590  
  20887909.031   109766729.798    20887918.258    85532572.1314   20887918.582  
                
  23106855.969   123692834.139                    96205531.083    23106861.957  
  23106854.426  
 21  8 16 13 31 50.0000000  0 17G 4G17R 1R24R17G32G31G 1R23R 9G22G19
                                G21R 8R10G 3R 7
  22650557.250   119029511.138    22650566.082    92750314.6394   22650565.809  
                
  23862050.781   125395922.792    23862058.793    97711145.1694   23862058.602  
                
  20207517.711   108020793.975                    84016176.436    20207523.219  
  20207516.965  
  20336607.523   108749013.101                    84582563.395    20336612.301  
  20336606.762  
  23228304.953   124299354.799                    96677266.906    23228309.406  
  23228303.027  
  24041486.312   126338883.246    24041496.457    98445935.6784   24041496.750  
                
  21289358.992   111876382.729    21289365.828    87176463.4884   21289365.992  
                
  20319725.258   106780913.127    20319735.613    83205948.3704   20319735.203  
                
  20535040.828   109848632.378                                                  
  20535039.059  
  22403625.195   119634119.353                    93048765.800    22403628.484  
  22403624.590  
  20601655.102   108262463.180    20601659.289    84360393.0204                 
                
  24241875.625   127391922.315    24241881.750    99266453.0834                 
                
  21552161.992   113257394.242    21552168.617    88252548.9084                 
                
  20025996.586   107238335.970                    83407608.839    20025999.262  
  20025995.836  
  21880259.914   116634095.845                                                  
  21880259.008  
  20884954.828   109751205.373    20884964.023    85520475.1824   20884964.367  
                
  23112636.641   123723778.250                    96229598.679    23112642.594  
  23112635.098  
 21  8 16 13 32  0.0000000  0 17G 4G17R 1R24R17G32G31G 1R23R 9G22G19
                                G21R 8R10G 3R 7
  22645189.023   119001300.919    22645197.820    92728332.6484   22645197.566  
                
  23862392.492   125397718.505    23862400.465    97712544.4134   23862400.234  
                
  20204835.406   108006455.557                    84005024.323    20204840.883  
  20204834.645  
  20335731.086   108744326.385                    84578918.174    20335735.855  
  20335730.305  
  23221383.570   124262317.534                    96648460.160    23221388.086  
  23221381.668  
  24047489.312   126370429.242    24047499.457    98470516.9544   24047499.727  
                
  21288918.477   111874067.851    21288925.324    87174659.6954   21288925.488  
                
  20321701.211   106791296.817    20321711.562    83214039.5494   20321711.148  
                
  20540531.023   109878001.225                                                  
  20540529.266  
  22404946.625   119641175.700                    93054254.072    22404949.949  
  22404946.051  
  20600967.922   108258852.039    20600972.113    84357579.1494                 
                
  24239602.961   127379979.017    24239609.004    99257146.6784                 
                
  21555606.578   113275495.633    21555613.215    88266653.8784                 
                
  20028498.109   107251731.524                    83418027.598    20028500.793  
  20028497.336  
  21875499.422   116608719.885                                                  
  21875498.480  
  20882006.500   109735711.800    20882015.656    85508402.2734   20882016.027  
                
  23118417.812   123754725.190                    96253668.519    23118423.754  
  23118416.281  
 21  8 16 13 32 10.0000000  0 17G 4G17R 1R24R17G32G31G 1R23R 9G22G19
                                G21R 8R10G 3R 7
  22639826.172   118973119.011    22639834.953    92706372.7384   22639834.723  
                
  23862745.055   125399571.244    23862753.027    97713988.1214   23862752.730  
                
  20202159.422   107992150.897                    83993898.478    20202164.879  
  20202158.660  
  20334872.000   108739732.430                    84575345.098    20334876.750  
  20334871.230  
  23214470.680   124225325.587                    96619688.663    23214475.238  
  23214468.789  
  24053493.406   126401980.980    24053503.582    98495102.7144   24053503.832  
                
  21288491.625   111871824.735    21288498.492    87172911.8194   21288498.645  
                
  20323689.555   106801745.634    20323699.895    83222181.4844   20323699.480  
                
  20546034.359   109907440.333                                                  
  20546032.602  
  22406283.789   119648316.045                    93059807.674    22406287.133  
  22406283.246  
  20600287.516   108255276.508    20600291.711    84354793.0214                 
                
  24237342.578   127368100.355    24237348.555    99247890.5824                 
                
  21559059.688   113293641.851    21559066.328    88280793.7774                 
                
  20031005.195   107265156.866                    83428469.532    20031007.891  
  20031004.410  
  21870751.062   116583408.508                                                  
  21870750.117  
  20879063.961   109720248.656    20879073.094    85496353.0754   20879073.473  
                
  23124199.391   123785674.438                    96277740.113    23124205.359  
  23124197.863  
 21  8 16 13 32 20.0000000  0 17G 4G17R 1R24R17G32G31G 1R23R 9G22G19
                                G21R 8R10G 3R 7
  22634468.750   118944965.652    22634477.523    92684435.0754   22634477.301  
                
  23863108.500   125401481.194    23863116.418    97715476.4014   23863116.125  
                
  20199489.766   107977880.092                    83982798.963    20199495.230  
  20199489.000  
  20334030.234   108735231.154                    84571844.099    20334034.980  
  20334029.480  
  23207566.344   124188379.289                    96590952.655    23207570.914  
  23207564.387  
  24059498.641   126433538.596    24059508.832    98519693.0434   24059509.066  
                
  21288078.453   111869653.532    21288085.352    87171219.9794   21288085.488  
                
  20325690.320   106812259.735    20325700.652    83230374.2834   20325700.238  
                
  20551550.805   109936949.576                                                  
  20551549.035  
  22407636.758   119655540.795                    93065426.927    22407640.113  
  22407636.227  
  20599613.953   108251736.902    20599618.145    84352034.8834                 
                
  24235094.531   127356286.652    24235100.492    99238685.1314                 
                
  21562521.359   113311833.026    21562528.016    88294968.7174                 
                
  20033517.844   107278612.012                    83438934.636    20033520.559  
  20033517.047  
  21866014.812   116558161.675                                                  
  21866013.887  
  20876127.242   109704816.148    20876136.359    85484327.7444   20876136.746  
                
  23129981.461   123816626.243                    96301813.756    23129987.449  
  23129980.012  
 21  8 16 13 32 30.0000000  0 17G 4G17R 1R24R17G32G31G 1R23R 9G22G19
                                G21R 8R10G 3R 7
  22629116.828   118916841.214    22629125.613    92662519.9404   22629125.414  
                
  23863482.922   125403448.791    23863490.707    97717009.5704   23863490.531  
                
  20196826.531   107963643.577                    83971726.131    20196832.008  
  20196825.766  
  20333205.930   108730823.205                    84568415.703    20333210.684  
  20333205.172  
  23200670.617   124151479.235                    96562252.629    23200675.234  
  23200668.641  
  24065505.039   126465102.424    24065515.238    98544288.2074   24065515.465  
                
  21287679.047   111867554.672    21287685.969    87169584.5044   21287686.102  
                
  20327703.578   106822839.452    20327713.902    83238618.2194   20327713.496  
                
  20557080.422   109966529.269                                                  
  20557078.656  
  22409005.562   119662850.083                    93071111.924    22409008.949  
  22409005.039  
  20598947.281   108248233.535    20598951.480    84349304.9934                 
                
  24232858.867   127344538.206    24232864.836    99229530.4844                 
                
  21565991.641   113330069.429    21565998.328    88309178.8854                 
                
  20036036.125   107292097.294                    83449423.186    20036038.852  
  20036035.309  
  21861290.758   116532979.976                                                  
  21861289.812  
  20873196.445   109689414.677    20873205.559    85472326.6054   20873205.949  
                
  23135764.070   123847580.832                    96325889.512    23135770.078  
  23135762.621  
 21  8 16 13 32 40.0000000  0 17G 4G17R 1R24R17G32G31G 1R23R 9G22G19
                                G21R 8R10G 3R 7
  22623770.461   118888745.884    22623779.285    92640627.4994   22623779.070  
                
  23863868.312   125405474.044    23863876.008    97718587.6964   23863875.930  
                
  20194169.742   107949441.467                    83960680.045    20194175.219  
  20194168.973  
  20332399.047   108726508.424                    84565059.755    20332403.789  
  20332398.273  
  23193783.656   124114625.691                    96533588.750    23193788.246  
  23193781.664  
  24071512.625   126496672.513    24071522.793    98568888.2544   24071523.020  
                
  21287293.438   111865528.303    21287300.379    87168005.5244   21287300.520  
                
  20329729.336   106833484.888    20329739.645    83246913.3584   20329739.258  
                
  20562623.203   109996179.330                                                  
  20562621.465  
  22410390.211   119670244.016                    93076862.745    22410393.605  
  22410389.684  
  20598287.547   108244766.563    20598291.742    84346603.4574                 
                
  24230635.625   127332855.206    24230641.648    99220426.8314                 
                
  21569470.570   113348351.247    21569477.277    88323424.4594                 
                
  20038560.094   107305613.015                    83459935.418    20038562.836  
  20038559.262  
  21856579.023   116507863.906                                                  
  21856578.086  
  20870271.586   109674044.415    20870280.691    85460349.7804   20870281.074  
                
  23141547.195   123878538.238                    96349967.474    23141553.258  
  23141545.762  
 21  8 16 13 32 50.0000000  0 17G 4G17R 1R24R17G32G31G 1R23R 9G22G19
                                G21R 8R10G 3R 7
  22618429.531   118860679.285    22618438.414    92618757.4394   22618438.172  
                
  23864264.586   125407556.477    23864272.305    97720210.3764   23864272.250  
                
  20191519.258   107935273.168                    83949660.251    20191524.750  
  20191518.496  
  20331609.602   108722286.899                    84561776.347    20331614.324  
  20331608.852  
  23186905.320   124077818.258                    96504960.738    23186909.859  
  23186903.324  
  24077521.312   126528248.419    24077531.422    98593492.8374   24077531.680  
                
  21286921.531   111863573.985    21286928.488    87166482.6854   21286928.633  
                
  20331767.516   106844195.613    20331777.809    83255259.3734   20331777.434  
                
  20568179.039   110025899.294                                                  
  20568177.320  
  22411790.641   119677722.213                    93082679.122    22411794.074  
  22411790.102  
  20597634.664   108241335.641    20597638.848    84343930.0154                 
                
  24228424.781   127321237.173    24228430.848    99211373.8194                 
                
  21572958.031   113366677.946    21572964.750    88337705.0014                 
                
  20041089.680   107319158.804                    83470471.015    20041092.426  
  20041088.852  
  21851879.555   116482813.200                                                  
  21851878.602  
  20867352.586   109658704.984    20867361.684    85448396.9814   20867362.066  
                
  23147330.828   123909498.316                    96374047.508    23147336.914  
  23147329.398  
 21  8 16 13 33  0.0000000  0 17G 4G17R 1R24R17G32G31G 1R23R 9G22G19
                                G21R 8R10G 3R 7
  22613094.109   118832641.505    22613103.031    92596909.8434   22613102.781  
                
  23864671.758   125409696.190    23864679.570    97721877.6724   23864679.496  
                
  20188875.148   107921138.918                    83938666.964    20188880.668  
  20188874.391  
  20330837.547   108718158.370                    84558565.281    20330842.262  
  20330836.809  
  23180035.688   124041057.269                    96476368.866    23180040.172  
  23180033.664  
  24083531.102   126559830.131    24083541.172    98618101.9374   24083541.453  
                
  21286563.359   111861691.809    21286570.340    87165016.0594   21286570.457  
                
  20333818.133   106854971.649    20333828.414    83263656.2834   20333828.051  
                
  20573747.914   110055688.993                                                  
  20573746.207  
  22413206.836   119685284.587                    93088560.965    22413210.285  
  22413206.305  
  20596988.648   108237940.835    20596992.820    84341284.7084                 
                
  24226226.375   127309684.365    24226232.441    99202371.6154                 
                
  21576454.062   113385049.645    21576460.793    88352020.5994                 
                
  20043624.820   107332734.334                    83481029.765    20043627.570  
  20043624.016  
  21847192.344   116457827.774                                                  
  21847191.363  
  20864439.469   109643396.503    20864448.559    85436468.2954   20864448.934  
                
  23153114.938   123940460.955                    96398129.538    23153121.059  
  23153113.461  
 21  8 16 13 33 10.0000000  0 17G 4G17R 1R24R17G32G31G 1R23R 9G22G19
                                G21R 8R10G 3R 7
  22607764.195   118804632.646    22607773.129    92575084.7784   22607772.887  
                
  23865089.828   125411893.201    23865097.734    97723589.5824   23865097.633  
                
  20186237.430   107907038.855                    83927700.248    20186242.938  
  20186236.684  
  20330082.906   108714122.951                    84555426.613    20330087.617  
  20330082.188  
  23173174.766   124004342.911                    96447813.254    23173179.211  
  23173172.766  
  24089542.000   126591417.662    24089552.012    98642715.5814   24089552.324  
                
  21286218.930   111859881.797    21286225.926    87163605.6714   21286226.051  
                
  20335881.180   106865813.026    20335891.453    83272104.1104   20335891.090  
                
  20579329.820   110085548.437                                                  
  20579328.105  
  22414638.852   119692931.411                    93094508.469    22414642.332  
  22414638.328  
  20596349.531   108234582.239    20596353.691    84338667.6194                 
                
  24224040.383   127298196.734    24224046.426    99193420.2234                 
                
  21579958.633   113403466.236    21579965.387    88366371.1884                 
                
  20046165.562   107346339.781                    83491611.776    20046168.312  
  20046164.805  
  21842517.477   116432908.169                                                  
  21842516.500  
  20861532.266   109628119.057    20861541.352    85424563.7944   20861541.723  
                
  23158899.492   123971426.086                    96422213.479    23158905.652  
  23158897.973  
 21  8 16 13 33 20.0000000  0 17G 4G17R 1R24R17G32G31G 1R23R 9G22G19
                                G21R 8R10G 3R 7
  22602439.781   118776652.659    22602448.684    92553282.2064   22602448.465  
                
  23865518.766   125414147.255    23865526.691    97725345.9964   23865526.621  
                
  20183606.031   107892972.564                    83916759.801    20183611.543  
  20183605.289  
  20329345.688   108710180.721                    84552360.432    20329350.402  
  20329345.008  
  23166322.625   123967675.402                    96419294.104    23166326.984  
  23166320.652  
  24095553.977   126623010.887    24095563.895    98667333.6574   24095564.270  
                
  21285888.211   111858143.917    21285895.215    87162251.4844   21285895.336  
                
  20337956.648   106876719.646    20337966.922    83280602.7724   20337966.562  
                
  20584924.695   110115477.218                                                  
  20584922.996  
  22416086.609   119700662.323                    93100521.423    22416090.109  
  22416086.098  
  20595717.289   108231259.761    20595721.422    84336078.6794                 
                
  24221866.805   127286774.403    24221872.805    99184519.7194                 
                
  21583471.703   113421927.503    21583478.484    88380756.5844                 
                
  20048711.820   107359974.829                    83502216.811    20048714.586  
  20048711.086  
  21837854.953   116408054.261                                                  
  21837854.004  
  20858630.961   109612872.601    20858640.051    85412683.4464   20858640.410  
                
  23164684.469   124002393.523                    96446299.231    23164690.668  
  23164682.934  
 21  8 16 13 33 30.0000000  0 17G 4G17R 1R24R17G32G31G 1R23R 9G22G19
                                G21R 8R10G 3R 7
  22597120.883   118748701.703    22597129.770    92531502.2474   22597129.562  
                
  23865958.609   125416458.613    23865966.496    97727147.0814   23865966.496  
                
  20180981.008   107878940.388                    83905845.890    20180986.551  
  20180980.246  
  20328625.914   108706331.764                    84549366.785    20328630.621  
  20328625.242  
  23159479.219   123931054.720                    96390811.380    23159483.543  
  23159477.293  
  24101567.070   126654609.848    24101576.910    98691956.2124   24101577.352  
                
  21285571.242   111856478.271    21285578.262    87160953.5844   21285578.391  
                
  20340044.539   106887691.587    20340054.809    83289152.3294   20340054.445  
                
  20590532.578   110145475.591                                                  
  20590530.902  
  22417550.141   119708477.499                    93106599.892    22417553.633  
  22417549.598  
  20595091.945   108227973.567    20595096.051    84333518.0134                 
                
  24219705.633   127275417.435    24219711.602    99175670.1244                 
                
  21586993.305   113440433.608    21587000.102    88395176.9204                 
                
  20051263.672   107373639.878                    83512845.188    20051266.434  
  20051262.945  
  21833204.820   116383266.447                                                  
  21833203.871  
  20855735.578   109597657.291    20855744.668    85400827.3684   20855745.016  
                
  23170469.945   124033363.557                    96470387.024    23170476.137  
  23170468.387  
 21  8 16 13 33 40.0000000  0 17G 4G17R 1R24R17G32G31G 1R23R 9G22G19
                                G21R 8R10G 3R 7
  22591807.523   118720779.773    22591816.395    92509744.9044   22591816.180  
                
  23866409.344   125418827.253    23866417.238    97728992.7834   23866417.270  
                
  20178362.359   107864942.264                    83894958.466    20178367.918  
  20178361.586  
  20327923.578   108702575.988                    84546445.637    20327928.270  
  20327922.895  
  23152644.633   123894481.172                    96362365.297    23152648.887  
  23152642.707  
  24107581.250   126686214.468    24107591.055    98716583.1624   24107591.543  
                
  21285268.023   111854884.891    21285275.074    87159711.9824   21285275.188  
                
  20342144.852   106898728.766    20342155.137    83297752.7264   20342154.770  
                
  20596153.406   110175543.231                                                  
  20596151.754  
  22419029.469   119716376.999                    93112743.957    22419032.953  
  22419028.887  
  20594473.523   108224723.757    20594477.598    84330985.6944                 
                
  24217556.898   127264125.866    24217562.840    99166871.4894                 
                
  21590523.461   113458984.663    21590530.258    88409632.2794                 
                
  20053821.102   107387334.767                    83523496.768    20053823.875  
  20053820.355  
  21828567.055   116358544.582                                                  
  21828566.094  
  20852846.133   109582473.160    20852855.219    85388995.5754   20852855.555  
                
  23176255.836   124064336.157                    96494476.775    23176262.074  
  23176254.270  
 21  8 16 13 33 50.0000000  0 17G 4G17R 1R24R17G32G31G 1R23R 9G22G19
                                G21R 8R10G 3R 7
  22586499.664   118692886.789    22586508.539    92488010.1304   22586508.316  
                
  23866870.930   125421252.883    23866878.949    97730882.8684   23866878.918  
                
  20175750.078   107850978.137                    83884097.484    20175755.637  
  20175749.289  
  20327238.664   108698913.425                    84543596.979    20327243.367  
  20327237.980  
  23145818.852   123857954.789                    96333955.900    23145823.059  
  23145816.934  
  24113596.469   126717824.623    24113606.281    98741214.4214   24113606.805  
                
  21284978.539   111853363.644    21284985.625    87158526.6064   21284985.719  
                
  20344257.570   106909831.108    20344267.871    83306403.8984   20344267.496  
                
  20601787.141   110205679.911                                                  
  20601785.469  
  22420524.562   119724360.676                    93118953.454    22420528.043  
  22420523.945  
  20593861.992   108221510.132    20593866.031    84328481.5714                 
                
  24215420.594   127252899.641    24215426.578    99158123.7984                 
                
  21594062.094   113477580.291    21594068.891    88424122.3704                 
                
  20056384.039   107401059.218                    83534171.339    20056386.816  
  20056383.297  
  21823941.672   116333888.776                                                  
  21823940.703  
  20849962.602   109567320.133    20849971.688    85377188.0354   20849972.020  
                
  23182042.211   124095311.193                    96518568.442    23182048.516  
  23182040.691  
 21  8 16 13 34  0.0000000  0 17G 4G17R 1R24R17G32G31G 1R23R 9G22G19
                                G21R 8R10G 3R 7
  22581197.352   118665022.966    22581206.199    92466298.0724   22581205.996  
                
  23867343.391   125423735.626    23867351.500    97732817.4404   23867351.395  
                
  20173144.164   107837048.085                    83873263.006    20173149.727  
  20173143.367  
  20326571.203   108695344.235                    84540820.932    20326575.891  
  20326570.512  
  23139001.914   123821475.909                    96305583.446    23139006.129  
  23139000.062  
  24119612.781   126749440.409    24119622.578    98765850.0784   24119623.117  
                
  21284702.805   111851914.720    21284709.926    87157397.5814   21284710.004  
                
  20346382.695   106920998.709    20346393.004    83315105.9214   20346392.621  
                
  20607433.742   110235885.477                                                  
  20607432.062  
  22422035.398   119732428.458                    93125228.405    22422038.871  
  22422034.777  
  20593257.383   108218332.918    20593261.387    84326005.8174                 
                
  24213296.773   127241738.887    24213302.812    99149427.1044                 
                
  21597609.234   113496220.611    21597616.035    88438647.2904                 
                
  20058952.555   107414813.550                    83544869.150    20058955.359  
  20058951.793  
  21819328.766   116309299.429                                                  
  21819327.793  
  20847085.031   109552198.424    20847094.109    85365404.8874   20847094.445  
                
  23187829.023   124126288.695                    96542662.020    23187835.398  
  23187827.578  
 21  8 16 13 34 10.0000000  0 17G 4G17R 1R24R17G32G31G 1R23R 9G22G19
                                G21R 8R10G 3R 7
  22575900.602   118637188.339    22575909.434    92444608.7624   22575909.227  
                
  23867826.711   125426275.447    23867834.770    97734796.5624   23867834.695  
                
  20170544.633   107823152.096                    83862455.028    20170550.211  
  20170543.848  
  20325921.188   108691868.297                    84538117.421    20325925.867  
  20325920.484  
  23132193.883   123785044.666                    96277248.029    23132198.105  
  23132192.055  
  24125630.156   126781061.763    24125639.914    98790490.0874   24125640.484  
                
  21284440.828   111850538.043    21284447.980    87156324.8494   21284448.031  
                
  20348520.234   106932231.529    20348530.555    83323858.7674   20348530.172  
                
  20613093.258   110266160.008                                                  
  20613091.570  
  22423562.016   119740580.468                    93131568.854    22423565.449  
  22423561.434  
  20592659.719   108215192.165    20592663.684    84323558.4744                 
                
  24211185.422   127230643.673    24211191.555    99140781.4884                 
                
  21601164.891   113514905.672    21601171.711    88453207.0734                 
                
  20061526.641   107428597.707                    83555590.161    20061529.473  
  20061525.855  
  21814728.375   116284776.753                                                  
  21814727.426  
  20844213.430   109537108.052    20844222.488    85353646.1624   20844222.824  
                
  23193616.344   124157268.587                    96566757.465    23193622.699  
  23193614.875  
 21  8 16 13 34 20.0000000  0 17G 4G17R 1R24R17G32G31G 1R23R 9G22G19
                                G21R 8R10G 3R 7
  22570609.273   118609382.356    22570618.117    92422941.7754   22570617.895  
                
  23868320.820   125428871.936    23868328.680    97736819.8204   23868328.762  
                
  20167951.375   107809289.728                    83851673.183    20167956.980  
  20167950.602  
  20325288.555   108688485.290                    84535486.196    20325293.227  
  20325287.863  
  23125394.648   123748660.649                    96248949.384    23125398.879  
  23125392.832  
  24131648.477   126812688.089    24131658.207    98815133.9694   24131658.781  
                
  21284192.523   111849233.243    21284199.699    87155308.1294   21284199.750  
                
  20350670.078   106943529.014    20350680.410    83332661.9964   20350680.031  
                
  20618765.492   110296502.622                                                  
  20618763.789  
  22425104.289   119748816.123                    93137974.359    22425107.711  
  22425103.730  
  20592068.883   108212087.325    20592072.812    84321139.1184                 
                
  24209086.453   127219613.419    24209092.672    99132186.4804                 
                
  21604728.938   113533634.815    21604735.773    88467801.1984                 
                
  20064106.109   107442410.704                    83566333.595    20064108.941  
  20064105.309  
  21810140.375   116260320.180                                                  
  21810139.434  
  20841347.695   109522048.520    20841356.742    85341911.4624   20841357.086  
                
  23199404.055   124188250.446                    96590854.444    23199410.363  
  23199402.629  
 21  8 16 13 34 30.0000000  0 17G 4G17R 1R24R17G32G31G 1R23R 9G22G19
                                G21R 8R10G 3R 7
  22565323.453   118581605.251    22565332.324    92401297.2984   22565332.086  
                
  23868825.750   125431525.325    23868833.449    97738887.3864   23868833.645  
                
  20165364.422   107795461.042                    83840917.545    20165370.066  
  20165363.648  
  20324673.297   108685195.223                    84532927.257    20324677.973  
  20324672.609  
  23118604.281   123712324.173                    96220687.707    23118608.566  
  23118602.453  
  24137667.758   126844319.496    24137677.473    98839781.8094   24137678.047  
                
  21283957.906   111848000.382    21283965.109    87154347.4724   21283965.152  
                
  20352832.258   106954891.278    20352842.598    83341515.7074   20352842.211  
                
  20624450.477   110326913.519                                                  
  20624448.758  
  22426662.258   119757135.518                    93144445.020    22426665.660  
  22426661.688  
  20591484.930   108209018.614    20591488.836    84318747.9234                 
                
  24206999.891   127208648.441    24207006.191    99123642.3584                 
                
  21608301.367   113552408.039    21608308.207    88482429.6824                 
                
  20066691.039   107456252.853                    83577099.708    20066693.879  
  20066690.219  
  21805564.875   116235930.207                                                  
  21805563.957  
  20838487.875   109507020.039    20838496.906    85330200.9574   20838497.238  
                
  23205192.180   124219234.421                    96614953.066    23205198.465  
  23205190.777  
 21  8 16 13 34 40.0000000  0 17G 4G17R 1R24R17G32G31G 1R23R 9G22G19
                                G21R 8R10G 3R 7
  22560043.320   118553858.044    22560052.227    92379676.1124   22560051.980  
                
  23869341.656   125434236.389    23869349.391    97740999.8984   23869349.555  
                
  20162783.961   107781666.989                    83830188.850    20162789.602  
  20162783.184  
  20324075.641   108681999.252                    84530441.507    20324080.312  
  20324074.961  
  23111823.031   123676036.393                    96192463.867    23111827.379  
  23111821.211  
  24143688.164   126875956.931    24143697.863    98864434.3364   24143698.449  
                
  21283737.156   111846840.359    21283744.371    87153443.5664   21283744.398  
                
  20355006.938   106966319.285    20355017.293    83350420.6424   20355016.898  
                
  20630148.352   110357393.356                                                  
  20630146.613  
  22428236.078   119765539.591                    93150981.511    22428239.465  
  22428235.520  
  20590908.039   108205987.034    20590911.930    84316385.6574                 
                
  24204925.930   127197749.682    24204932.266    99115149.8324                 
                
  21611882.406   113571226.534    21611889.270    88497093.4344                 
                
  20069281.625   107470125.319                    83587889.400    20069284.480  
  20069280.809  
  21801002.016   116211607.668                                                  
  21801001.090  
  20835634.148   109492023.610    20835643.168    85318515.4344   20835643.492  
                
  23210980.820   124250221.361                    96639053.985    23210987.121  
  23210979.430  
 21  8 16 13 34 50.0000000  0 17G 4G17R 1R24R17G32G31G 1R23R 9G22G19
                                G21R 8R10G 3R 7
  22554768.742   118526140.096    22554777.664    92358077.7204   22554777.418  
                
  23869868.398   125437004.398    23869876.234    97743156.7914   23869876.316  
                
  20160209.859   107767907.005                    83819486.636    20160215.531  
  20160209.082  
  20323495.438   108678896.682                    84528028.390    20323500.113  
  20323494.766  
  23105050.758   123639796.825                    96164277.584    23105055.191  
  23105048.973  
  24149709.586   126907599.695    24149719.301    98889091.0314   24149719.898  
                
  21283530.148   111845752.579    21283537.371    87152595.9534   21283537.398  
                
  20357194.000   106977812.357    20357204.371    83359376.2754   20357203.965  
                
  20635859.008   110387941.505                                                  
  20635857.254  
  22429825.633   119774027.749                    93157583.398    22429829.020  
  22429825.070  
  20590338.078   108202991.917    20590341.953    84314051.7964                 
                
  24202864.438   127186916.519    24202870.719    99106708.4134                 
                
  21615471.930   113590089.626    21615478.797    88511791.9314                 
                
  20071877.758   107484027.540                    83598702.228    20071880.629  
  20071876.941  
  21796451.766   116187352.389                                                  
  21796450.832  
  20832786.398   109477058.649    20832795.410    85306854.4254   20832795.723  
                
  23216769.906   124281210.726                    96663156.812    23216776.227  
  23216768.566  
 21  8 16 13 35  0.0000000  0 17G 4G17R 1R24R17G32G31G 1R23R 9G22G19
                                G21R 8R10G 3R 7
  22549499.797   118498451.686    22549508.730    92336502.3484   22549508.488  
                
  23870406.008   125439829.555    23870413.863    97745358.2044   23870413.902  
                
  20157642.180   107754181.269                    83808811.076    20157647.871  
  20157641.430  
  20322932.758   108675887.777                    84525688.129    20322937.430  
  20322932.051  
  23098287.609   123603605.856                    96136129.050    23098292.070  
  23098285.805  
  24155732.062   126939247.945    24155741.855    98913751.9804   24155742.461  
                
  21283336.938   111844737.270    21283344.152    87151804.8134   21283344.188  
                
  20359393.477   106989370.667    20359403.863    83368382.7494   20359403.449  
                
  20641582.438   110418558.033                                                  
  20641580.680  
  22431430.969   119782600.125                    93164250.799    22431434.398  
  22431430.387  
  20589775.109   108200033.488    20589778.977    84311746.5254                 
                
  24200815.477   127176149.261    24200821.664    99098318.3444                 
                
  21619069.961   113608997.356    21619076.805    88526525.2194                 
                
  20074479.445   107497959.407                    83609538.119    20074482.320  
  20074478.641  
  21791914.164   116163164.470                                                  
  21791913.211  
  20829944.703   109462125.420    20829953.715    85295218.1454   20829954.023  
                
  23222559.500   124312202.541                    96687261.541    23222565.766  
  23222558.156  
 21  8 16 13 35 10.0000000  0 17G 4G17R 1R24R17G32G31G 1R23R 9G22G19
                                G21R 8R10G 3R 7
  22544236.406   118470792.467    22544245.371    92314949.7294   22544245.125  
                
  23870954.430   125442711.532    23870962.176    97747603.8894   23870962.289  
                
  20155080.836   107740489.489                    83798161.923    20155086.555  
  20155080.086  
  20322387.523   108672972.141                    84523420.408    20322392.215  
  20322386.793  
  23091533.484   123567463.311                    96108018.183    23091537.980  
  23091531.637  
  24161755.516   126970901.276    24161765.422    98938416.8944   24161766.016  
                
  21283157.453   111843794.123    21283164.660    87151069.9054   21283164.699  
                
  20361605.305   107000993.842    20361615.699    83377439.7654   20361615.285  
                
  20647318.539   110449242.339                                                  
  20647316.801  
  22433051.992   119791256.335                    93170983.402    22433055.441  
  22433051.375  
  20589219.055   108197111.429    20589222.914    84309469.5994                 
                
  24198779.016   127165447.546    24198785.141    99089979.3684                 
                
  21622676.406   113627949.301    21622683.223    88541292.9674                 
                
  20077086.609   107511920.623                    83620396.843    20077089.492  
  20077085.820  
  21787389.188   116139043.946                                                  
  21787388.215  
  20827108.977   109447223.596    20827117.977    85283606.3384   20827118.281  
                
  23228349.445   124343196.546                    96711367.999    23228355.680  
  23228348.125  
 21  8 16 13 35 20.0000000  0 17G 4G17R 1R24R17G32G31G 1R23R 9G22G19
                                G21R 8R10G 3R 7
  22538978.602   118443162.608    22538987.609    92293419.9884   22538987.352  
                
  23871513.703   125445650.430    23871521.383    97749893.9374   23871521.555  
                
  20152525.875   107726831.749                    83787539.247    20152531.609  
  20152525.125  
  20321859.766   108670150.012                    84521225.417    20321864.461  
  20321859.004  
  23084788.445   123531369.390                    96079945.151    23084792.996  
  23084786.586  
  24167779.938   127002559.755    24167789.961    98963085.8214   24167790.543  
                
  21282991.734   111842923.265    21282998.926    87150391.3214   21282998.965  
                
  20363829.477   107012681.957    20363839.895    83386547.3834   20363839.469  
                
  20653067.320   110479994.409                                                  
  20653065.625  
  22434688.734   119799996.395                    93177781.232    22434692.199  
  22434688.102  
  20588669.961   108194225.896    20588673.816    84307221.1284                 
                
  24196755.062   127154811.569    24196761.227    99081691.5924                 
                
  21626291.281   113646945.568    21626298.074    88556095.2404                 
                
  20079699.250   107525911.158                    83631278.358    20079702.125  
  20079698.480  
  21782876.844   116114990.717                                                  
  21782875.852  
