     2.11           OBSERVATION DATA    M (MIXED)           RINEX VERSION / TYPE
EFT-CORS.RU                             20210817 145144 UTC PGM / RUN BY / DATE 
MDNG                                                        MARKER NAME         
                                                            MARKER NUMBER       
MDNG                EFT-CORS.RU                             OBSERVER / AGENCY   
0                   TRIMBLE BD970       2.0                 REC # / TYPE / VERS 
0                   UNKNOWN EXT NONE                        ANT # / TYPE        
  3463911.2830  3030468.2400  4402179.3760                  APPROX POSITION XYZ 
        0.0000        0.0000        0.0000                  ANTENNA: DELTA H/E/N
     1     1                                                WAVELENGTH FACT L1/2
     6    C1    L1    P2    L2    C2    P1                  # / TYPES OF OBSERV 
    10.000                                                  INTERVAL            
  2021     8    15     5    30    0.0000000     GPS         TIME OF FIRST OBS   
  2021     8    15     6    30    0.0000000     GPS         TIME OF LAST OBS    
     0                                                      RCV CLOCK OFFS APPL 
                                                            END OF HEADER       
 21  8 15  5 30  0.0000000  0 17G12G26R 2R 9G18R18G29R 3G20R19R16G 5
                                G25R17R10G23G31
  24714141.609   129873657.962    24714150.473   101200271.3094   24714150.781  
                
  22415202.117   117792693.433    22415212.320    91786553.7444   22415212.211  
                
  22185095.688   118383948.428                    92076393.132    22185099.727  
  22185093.445  
  20601640.156   110011626.235                    85564583.144    20601643.324  
  20601639.316  
  21106949.672   110917771.242    21106957.699    86429467.3724   21106957.484  
                
  20035541.750   106951068.983                    83184156.449    20035545.223  
  20035540.113  
  20501073.906   107733863.221    20501080.969    83948495.3634   20501081.094  
                
  22284952.086   119293049.594                    92783550.687    22284957.453  
  22284950.465  
  23013847.398   120938581.962    23013854.348    94237881.5244                 
                
  20236140.391   108249739.823                    84194227.557    20236144.293  
  20236138.539  
  20754549.617   110867062.387                    86229922.214    20754552.449  
  20754549.133  
  21406440.773   112491626.064    21406448.020    87655839.6524   21406448.090  
                
  22101156.672   116142344.474    22101167.273    90500563.7504   22101167.766  
                
  23104352.062   123636032.607                    96161335.548    23104357.836  
  23104350.316  
  23613650.812   125874038.939                                                  
  23613650.020  
  24537702.461   128946498.413    24537711.715   100477830.0184   24537711.484  
                
  23824038.445   125196150.527    23824045.617    97555453.8204   23824045.969  
                
 21  8 15  5 30 10.0000000  0 17G12G26R 2R 9G18R18G29R 3G20R19R16G 5
                                G25R17R10G23G31
  24721492.914   129912289.440    24721501.797   101230373.7404   24721502.121  
                
  22410676.266   117768909.873    22410686.453    91768021.1134   22410686.348  
                
  22185507.562   118386146.227                    92078102.536    22185511.574  
  22185505.359  
  20599861.188   110002126.657                    85557194.572    20599864.379  
  20599860.352  
  21103120.305   110897647.757    21103128.355    86413786.7384   21103128.145  
                
  20038336.133   106965985.538                    83195758.211    20038339.598  
  20038334.512  
  20501848.227   107737932.290    20501855.277    83951666.0604   20501855.406  
                
  22279324.414   119262924.566                    92760120.140    22279329.844  
  22279322.863  
  23018235.328   120961640.639    23018242.238    94255849.3224                 
                
  20233759.578   108237004.092                    84184321.988    20233763.477  
  20233757.715  
  20760164.344   110897055.137                    86253249.895    20760167.152  
  20760163.871  
  21406799.141   112493509.296    21406806.387    87657307.1024   21406806.453  
                
  22107277.109   116174507.562    22107287.711    90525625.8904   22107288.199  
                
  23110239.859   123667539.604                    96185840.954    23110245.711  
  23110238.113  
  23606719.727   125837092.017                                                  
  23606718.922  
  24530447.930   128908375.316    24530457.070   100448123.7084   24530456.863  
                
  23828115.070   125217573.479    23828122.320    97572146.9984   23828122.660  
                
 21  8 15  5 30 20.0000000  0 17G12G26R 2R 9G18R18G29R 3G20R19R16G 5
                                G25R17R10G23G31
  24728845.633   129950928.180    24728854.496   101260481.8224   24728854.812  
                
  22406158.797   117745170.435    22406168.980    91749522.8534   22406168.879  
                
  22185935.617   118388430.322                    92079879.078    22185939.613  
  22185933.457  
  20598098.789   109992715.583                    85549874.842    20598101.992  
  20598097.965  
  21099298.688   110877565.011    21099306.754    86398137.8544   21099306.547  
                
  20041135.945   106980931.109                    83207382.552    20041139.398  
  20041134.344  
  20502629.266   107742036.694    20502636.316    83954864.2974   20502636.453  
                
  22273706.289   119232850.688                    92736729.352    22273711.754  
  22273704.789  
  23022632.133   120984745.986    23022639.023    94273853.4764                 
                
  20231385.555   108224304.730                    84174444.706    20231389.457  
  20231383.688  
  20765790.938   110927111.265                    86276626.896    20765793.727  
  20765790.488  
  21407170.930   112495463.064    21407178.176    87658829.5184   21407178.219  
                
  22113403.930   116206704.204    22113414.531    90550714.1654   22113415.023  
                
  23116127.734   123699046.867                    96210346.558    23116133.602  
  23116125.949  
  23599796.336   125800186.540                                                  
  23599795.531  
  24523193.578   128870253.321    24523202.645   100418418.2424   24523202.484  
                
  23832198.820   125239033.820    23832206.164    97588869.3434   23832206.527  
                
 21  8 15  5 30 30.0000000  0 17G12G26R 2R 9G18R18G29R 3G20R19R16G 5
                                G25R17R10G23G31
  24736199.820   129989574.800    24736208.707   101290596.0564   24736209.004  
                
  22401649.875   117721475.920    22401660.051    91731059.6024   22401659.941  
                
  22186379.938   118390801.278                    92081723.129    22186383.902  
  22186377.832  
  20596353.133   109983393.888                    85542624.642    20596356.348  
  20596352.301  
  21095484.961   110857523.768    21095493.023    86382521.3094   21095492.805  
                
  20043941.305   106995906.238                    83219029.865    20043944.758  
  20043939.703  
  20503417.164   107746177.117    20503424.215    83958090.6044   20503424.348  
                
  22268097.984   119202828.683                    92713378.924    22268103.355  
  22268096.449  
  23027037.953   121007898.686    23027044.859    94291894.5284                 
                
  20229018.453   108211642.419                    84164596.243    20229022.359  
  20229016.590  
  20771429.422   110957230.999                    86300053.347    20771432.164  
  20771428.969  
  21407556.266   112497488.022    21407563.504    87660407.4124   21407563.551  
                
  22119537.250   116238935.063    22119547.863    90575829.1064   22119548.363  
                
  23122015.719   123730555.290                    96234853.099    23122021.688  
  23122013.973  
  23592880.875   125763323.431                                                  
  23592880.129  
  24515939.602   128832133.204    24515948.605   100388714.2714   24515948.457  
                
  23836289.820   125260532.155    23836297.219    97605621.2704   23836297.562  
                
 21  8 15  5 30 40.0000000  0 17G12G26R 2R 9G18R18G29R 3G20R19R16G 5
                                G25R17R10G23G31
  24743555.758   130028230.225    24743564.621   101320717.1454   24743564.891  
                
  22397149.695   117697827.321    22397159.840    91712632.1244   22397159.727  
                
  22186840.641   118393259.549                    92083635.128    22186844.613  
  22186838.598  
  20594624.406   109974162.585                    85535444.730    20594627.617  
  20594623.547  
  21091679.312   110837524.945    21091687.355    86366937.8154   21091687.148  
                
  20046752.359   107010911.784                    83230700.845    20046755.812  
  20046750.762  
  20504212.094   107750354.469    20504219.148    83961345.6744   20504219.277  
                
  22262499.586   119172859.753                    92690069.780    22262504.898  
  22262498.039  
  23031452.945   121031099.581    23031459.867    94309973.1344                 
                
  20226658.422   108199017.822                    84154777.109    20226662.328  
  20226656.547  
  20777080.023   110987415.399                    86323530.114    20777082.746  
  20777079.574  
  21407955.328   112499585.078    21407962.555    87662041.4774   21407962.598  
                
  22125677.242   116271200.919    22125687.867    90600971.3264   22125688.371  
                
  23127904.008   123762065.684                    96259361.135    23127910.148  
  23127902.363  
  23585973.633   125726503.911                                                  
  23585972.855  
  24508686.203   128794016.022    24508695.129   100359012.5584   24508695.008  
                
  23840388.172   125282069.286    23840395.641    97622403.4154   23840395.980  
                
 21  8 15  5 30 50.0000000  0 17G12G26R 2R 9G18R18G29R 3G20R19R16G 5
                                G25R17R10G23G31
  24750912.898   130066891.999    24750921.715   101350843.1854   24750921.984  
                
  22392657.828   117674222.466    22392667.965    91694238.7334   22392667.828  
                
  22187317.328   118395803.209                    92085613.529    22187321.285  
  22187315.332  
  20592912.156   109965019.321                    85528333.307    20592915.387  
  20592911.309  
  21087881.297   110817566.306    21087889.305    86351385.6344   21087889.129  
                
  20049568.672   107025945.470                    83242393.707    20049572.121  
  20049567.074  
  20505013.594   107754566.414    20505020.648    83964627.7114   20505020.781  
                
  22256910.570   119142941.828                    92666800.292    22256915.918  
  22256909.113  
  23035876.672   121054346.336    23035883.602    94328087.4634                 
                
  20224305.039   108186428.861                    84144985.713    20224308.953  
  20224303.195  
  20782742.219   111017661.783                    86347055.065    20782744.898  
  20782741.762  
  21408367.672   112501751.974    21408374.883    87663729.9754   21408374.922  
                
  22131823.445   116303499.479    22131834.121    90626139.0334   22131834.613  
                
  23133792.539   123793575.680                    96283868.884    23133798.547  
  23133790.789  
  23579074.188   125689725.753                                                  
  23579073.316  
  24501432.852   128755899.576    24501441.828   100329311.4314   24501441.688  
                
  23844493.508   125303642.915    23844501.008    97639214.0314   23844501.336  
                
 21  8 15  5 31  0.0000000  0 17G12G26R 2R 9G18R18G29R 3G20R19R16G 5
                                G25R17R10G23G31
  24758271.398   130105560.920    24758280.172   101380974.7994   24758280.441  
                
  22388174.453   117650662.275    22388184.578    91675880.1574   22388184.438  
                
  22187810.195   118398433.184                    92087659.063    22187814.141  
  22187808.238  
  20591216.570   109955964.970                    85521291.019    20591219.805  
  20591215.734  
  21084091.109   110797648.718    21084099.094    86335865.4414   21084098.922  
                
  20052390.414   107041008.076                    83254109.057    20052393.852  
  20052388.824  
  20505821.875   107758813.934    20505828.934    83967937.4664   20505829.062  
                
  22251331.336   119113075.885                    92643571.227    22251336.676  
  22251329.875  
  23040309.258   121077639.658    23040316.172    94346238.1064                 
                
  20221958.477   108173876.316                    84135222.631    20221962.391  
  20221956.637  
  20788416.211   111047971.109                    86370628.990    20788418.879  
  20788415.754  
  21408793.461   112503989.531    21408800.652    87665473.5234   21408800.691  
                
  22137976.023   116335831.493    22137986.762    90651332.8014   22137987.227  
                
  23139681.172   123825086.151                    96308377.007    23139687.055  
  23139679.262  
  23572182.609   125652989.730                                                  
  23572181.750  
  24494179.781   128717784.831    24494188.832   100299611.6384   24494188.672  
                
  23848605.922   125325253.798    23848613.469    97656053.6504   23848613.801  
                
 21  8 15  5 31 10.0000000  0 17G12G26R 2R 9G18R18G29R 3G20R19R16G 5
                                G25R17R10G23G31
  24765631.266   130144236.994    24765639.965   101411111.9934   24765640.250  
                
  22383699.633   117627146.965    22383709.715    91657556.5344   22383709.602  
                
  22188319.234   118401149.456                    92089771.700    22188323.184  
  22188317.312  
  20589537.656   109946999.678                    85514318.016    20589540.891  
  20589536.828  
  21080308.750   110777772.291    21080316.723    86320377.3184   21080316.566  
                
  20055217.570   107056099.608                    83265846.913    20055221.000  
  20055215.965  
  20506636.922   107763097.059    20506643.984    83971274.9644   20506644.121  
                
  22245761.773   119083262.110                    92620382.765    22245767.211  
  22245760.355  
  23044750.703   121100979.565    23044757.555    94364425.0374                 
                
  20219618.711   108161360.156                    84125487.850    20219622.633  
  20219616.879  
  20794101.891   111078342.996                    86394251.551    20794104.531  
  20794101.414  
  21409232.742   112506297.943    21409239.922    87667272.2834   21409239.961  
                
  22144134.961   116368196.960    22144145.758    90676552.6274   22144146.199  
                
  23145569.969   123856597.255                    96332885.636    23145575.688  
  23145567.930  
  23565298.961   125616296.362                                                  
  23565298.156  
  24486927.109   128679671.970    24486936.211   100269913.2994   24486936.020  
                
  23852725.375   125346901.817    23852733.039    97672922.2304   23852733.336  
                
 21  8 15  5 31 20.0000000  0 17G12G26R 2R 9G18R18G29R 3G20R19R16G 5
                                G25R17R10G23G31
  24772992.430   130182920.427    24773001.172   101441254.9124   24773001.461  
                
  22379233.406   117603676.824    22379243.449    91639268.1204   22379243.344  
                
  22188844.484   118403952.244                    92091951.634    22188848.449  
  22188842.555  
  20587875.508   109938123.890                    85507414.632    20587878.742  
  20587874.676  
  21076534.266   110757937.280    21076542.227    86304921.4754   21076542.070  
                
  20058050.195   107071220.368                    83277607.498    20058053.617  
  20058048.598  
  20507458.789   107767416.030    20507465.855    83974640.3934   20507465.984  
                
  22240202.023   119053500.932                    92597235.211    22240207.574  
  22240200.637  
  23049201.039   121124366.186    23049207.848    94382648.3744                 
                
  20217285.852   108148880.914                    84115781.775    20217289.773  
  20217284.016  
  20799799.375   111108777.919                    86417923.139    20799802.000  
  20799798.863  
  21409685.547   112508677.455    21409692.719    87669126.4534   21409692.758  
                
  22150300.312   116400596.038    22150311.137    90701798.6594   22150311.555  
                
  23151459.062   123888109.006                    96357394.761    23151464.441  
  23151456.801  
  23558423.375   125579645.948                                                  
  23558422.660  
  24479674.875   128641561.323    24479684.012   100240216.7104   24479683.793  
                
  23856851.961   125368587.253    23856859.715    97689819.9434   23856859.984  
                
 21  8 15  5 31 30.0000000  0 17G12G26R 2R 9G18R18G29R 3G20R19R16G 5
                                G25R17R10G23G31
  24780355.023   130221611.018    24780363.746   101471403.4044   24780364.043  
                
  22374775.766   117580251.800    22374785.770    91621014.8544   22374785.660  
                
  22189385.930   118406841.474                    92094198.821    22189389.895  
  22189384.004  
  20586230.086   109929337.360                    85500580.671    20586233.312  
  20586229.270  
  21072767.648   110738143.567    21072775.586    86289497.8064   21072775.426  
                
  20060888.242   107086370.014                    83289390.564    20060891.664  
  20060886.629  
  20508287.469   107771770.749    20508294.539    83978033.6854   20508294.676  
                
  22234652.219   119023792.503                    92574128.673    22234657.793  
  22234650.855  
  23053660.242   121147799.341    23053667.020    94400907.9684                 
                
  20214959.797   108136438.086                    84106104.020    20214963.711  
  20214957.953  
  20805508.602   111139275.540                    86441643.505    20805511.238  
  20805508.074  
  21410151.844   112511127.825    21410159.008    87671035.8314   21410159.055  
                
  22156472.008   116433028.499    22156482.836    90727070.7044   22156483.242  
                
  23157348.055   123919621.411                    96381904.394    23157353.305  
  23157345.750  
  23551555.812   125543038.369                                                  
  23551555.164  
  24472423.078   128603452.840    24472432.207   100210521.7854   24472431.977  
                
  23860985.633   125390309.793    23860993.441    97706746.5724   23860993.688  
                
 21  8 15  5 31 40.0000000  0 17G12G26R 2R 9G18R18G29R 3G20R19R16G 5
                                G25R17R10G23G31
  24787718.906   130260308.787    24787727.703   101501557.4764   24787727.984  
                
  22370326.750   117556872.112    22370336.715    91602796.9124   22370336.617  
                
  22189943.531   118409816.940                    92096513.085    22189947.523  
  22189941.621  
  20584601.430   109920640.391                    85493816.363    20584604.656  
  20584600.613  
  21069008.922   110718391.313    21069016.805    86274106.4424   21069016.672  
                
  20063731.742   107101548.803                    83301196.279    20063735.164  
  20063730.105  
  20509122.977   107776161.371    20509130.047    83981454.9414   20509130.191  
                
  22229112.344   118994136.923                    92551063.245    22229117.863  
  22229110.961  
  23058128.336   121171279.156    23058135.055    94419203.9164                 
                
  20212640.633   108124032.078                    84096454.895    20212644.543  
  20212638.816  
  20811229.570   111169835.885                    86465412.650    20811232.246  
  20811229.035  
  21410631.625   112513649.076    21410638.781    87673000.4384   21410638.816  
                
  22162650.070   116465494.403    22162660.895    90752368.8014   22162661.309  
                
  23163237.008   123951134.548                    96406414.584    23163242.320  
  23163234.754  
  23544696.422   125506474.219                                                  
  23544695.824  
  24465171.758   128565346.751    24465180.867   100180828.7324   24465180.641  
                
  23865126.375   125412069.351    23865134.203    97723702.0834   23865134.430  
                
 21  8 15  5 31 50.0000000  0 17G12G26R 2R 9G18R18G29R 3G20R19R16G 5
                                G25R17R10G23G31
  24795084.070   130299013.125    24795092.934   101531716.6914   24795093.203  
                
  22365886.273   117533537.316    22365896.215    91584613.9594   22365896.129  
                
  22190517.242   118412878.353                    92098894.185    22190521.262  
  22190515.344  
  20582989.414   109912032.367                    85487121.212    20582992.641  
  20582988.637  
  21065257.969   110698679.992    21065265.797    86258746.9774   21065265.699  
                
  20066580.562   107116755.999                    83313024.096    20066583.996  
  20066578.914  
  20509965.211   107780587.321    20509972.270    83984903.7274   20509972.430  
                
  22223582.211   118964533.829                    92528038.637    22223587.742  
  22223580.840  
  23062605.156   121194804.915    23062611.805    94437535.6734                 
                
  20210328.203   108111662.125                    84086833.833    20210332.117  
  20210326.398  
  20816962.117   111200458.060                    86489229.878    20816964.805  
  20816961.566  
  21411124.797   112516240.687    21411131.945    87675019.8844   21411131.969  
                
  22168834.367   116497993.145    22168845.219    90777692.4894   22168845.633  
                
  23169125.891   123982647.857                    96430924.907    23169131.395  
  23169123.723  
  23537845.078   125469952.816                                                  
  23537844.492  
  24457920.750   128527242.625    24457929.891   100151137.2184   24457929.668  
                
  23869274.055   125433865.401    23869281.906    97740685.9864   23869282.102  
                
 21  8 15  5 32  0.0000000  0 17G12G26R 2R 9G18R18G29R 3G20R19R16G 5
                                G25R17R10G23G31
  24802450.672   130337724.748    24802459.551   101561881.5854   24802459.816  
                
  22361454.500   117510248.226    22361464.445    91566466.6334   22361464.363  
                
  22191107.250   118416026.763                    92101342.965    22191111.293  
  22191105.336  
  20581394.242   109903514.227                    85480496.002    20581397.449  
  20581393.465  
  21061514.969   110679010.387    21061522.738    86243420.0184   21061522.668  
                
  20069434.852   107131992.378                    83324874.616    20069438.293  
  20069433.188  
  20510814.328   107785049.461    20510821.379    83988380.7214   20510821.535  
                
  22218061.969   118934984.087                    92505055.533    22218067.590  
  22218060.617  
  23067090.844   121218377.304    23067097.414    94455903.7654                 
                
  20208022.695   108099329.179                    84077241.546    20208026.617  
  20208020.887  
  20822706.328   111231142.548                    86513095.583    20822709.043  
  20822705.797  
  21411631.516   112518903.508    21411638.648    87677094.8084   21411638.672  
                
  22175025.062   116530525.363    22175035.961    90803042.2644   22175036.336  
                
  23175014.758   124014162.043                    96455435.929    23175020.578  
  23175012.918  
  23531001.945   125433475.299                                                  
  23531001.344  
  24450670.367   128489141.295    24450679.445   100121447.8734   24450679.242  
                
  23873428.820   125455698.613    23873436.676    97757698.8744   23873436.848  
                
 21  8 15  5 32 10.0000000  0 17G12G26R 2R 9G18R18G29R 3G20R19R16G 5
                                G25R17R10G23G31
  24809818.539   130376443.239    24809827.457   101592051.8244   24809827.707  
                
  22357031.383   117487004.649    22357041.328    91548354.7554   22357041.242  
                
  22191713.516   118419261.910                    92103859.188    22191717.555  
  22191711.559  
  20579815.859   109895085.693                    85473940.480    20579819.066  
  20579815.090  
  21057779.844   110659382.195    21057787.562    86228125.3314   21057787.508  
                
  20072294.562   107147257.735                    83336747.666    20072297.988  
  20072292.902  
  20511670.258   107789547.425    20511677.301    83991885.6274   20511677.473  
                
  22212551.797   118905487.801                    92482113.980    22212557.383  
  22212550.430  
  23071585.320   121241995.929    23071591.820    94474307.8964                 
                
  20205723.977   108087032.623                    84067677.573    20205727.910  
  20205722.164  
  20828462.148   111261889.028                    86537009.498    20828464.891  
  20828461.625  
  21412151.711   112521637.130    21412158.824    87679224.9034   21412158.844  
                
  22181222.047   116563090.663    22181233.004    90828417.8234   22181233.336  
                
  23180903.984   124045676.821                    96479947.378    23180909.887  
  23180902.219  
  23524167.000   125397041.342                                                  
  23524166.398  
  24443420.414   128451042.583    24443429.523   100091760.5774   24443429.301  
                
  23877590.562   125477568.503    23877598.387    97774740.3474   23877598.562  
                
 21  8 15  5 32 20.0000000  0 17G12G26R 2R 9G18R18G29R 3G20R19R16G 5
                                G25R17R10G23G31
  24817187.852   130415169.110    24817196.746   101622227.8054   24817196.992  
                
  22352617.055   117463807.207    22352626.977    91530278.8274   22352626.879  
                
  22192336.008   118422583.721                    92106442.821    22192340.098  
  22192334.031  
  20578254.352   109886747.299                    85467455.049    20578257.551  
  20578253.574  
  21054052.711   110639796.028    21054060.391    86212863.3814   21054060.352  
                
  20075159.750   107162552.286                    83348643.433    20075163.180  
  20075158.074  
  20512533.133   107794081.838    20512540.168    83995418.9374   20512540.352  
                
  22207051.594   118876045.404                    92459214.367    22207057.215  
  22207050.289  
  23076088.695   121265661.312    23076095.152    94492748.4404                 
                
  20203432.219   108074773.315                    84058142.569    20203436.156  
  20203430.406  
  20834229.711   111292698.255                    86560972.234    20834232.445  
  20834229.199  
  21412685.492   112524442.183    21412692.605    87681410.6504   21412692.621  
                
  22187425.430   116595689.559    22187436.438    90853819.5514   22187436.734  
                
  23186793.672   124077192.704                    96504459.657    23186799.383  
  23186791.758  
  23517340.359   125360651.695                                                  
  23517339.750  
  24436171.047   128412947.112    24436180.168   100062075.7914   24436179.969  
                
  23881759.391   125499475.591    23881767.152    97791810.8174   23881767.340  
                
 21  8 15  5 32 30.0000000  0 17G12G26R 2R 9G18R18G29R 3G20R19R16G 5
                                G25R17R10G23G31
  24824558.406   130453901.487    24824567.289   101652408.8734   24824567.539  
                
  22348211.398   117440655.276    22348221.293    91512238.3584   22348221.219  
                
  22192974.602   118425991.421                    92109093.260    22192978.723  
  22192972.602  
  20576709.594   109878498.342                    85461039.194    20576712.777  
  20576708.820  
  21050333.438   110620251.124    21050341.082    86197633.5994   21050341.059  
                
  20078030.320   107177875.538                    83360561.504    20078033.734  
  20078028.637  
  20513402.797   107798651.928    20513409.832    83998980.0454   20513410.020  
                
  22201561.461   118846656.554                    92436356.378    22201567.055  
  22201560.160  
  23080600.820   121289372.631    23080607.273    94511224.7844                 
                
  20201147.266   108062550.405                    84048635.850    20201151.215  
  20201145.457  
  20840008.758   111323568.804                    86584982.658    20840011.496  
  20840008.266  
  21413232.727   112527317.899    21413239.848    87683651.4684   21413239.852  
                
  22193635.039   116628321.180    22193646.078    90879246.7824   22193646.348  
                
  23192683.484   124108708.836                    96528972.179    23192688.930  
  23192681.395  
  23510521.945   125324305.797                                                  
  23510521.309  
  24428922.219   128374854.255    24428931.305   100032393.0594   24428931.137  
                
  23885935.133   125521419.069    23885942.852    97808909.6094   23885943.031  
                
 21  8 15  5 32 40.0000000  0 17G12G26R 2R 9G18R18G29R 3G20R19R16G 5
                                G25R17R10G23G31
  24831930.273   130492640.478    24831939.066   101682595.0974   24831939.305  
                
  22343814.430   117417549.090    22343824.316    91494233.5284   22343824.246  
                
  22193629.469   118429485.917                    92111811.197    22193633.586  
  22193627.434  
  20575181.633   109870339.120                    85454693.127    20575184.801  
  20575180.859  
  21046622.055   110600747.697    21046629.652    86182436.1274   21046629.652  
                
  20080906.234   107193227.417                    83372501.857    20080909.652  
  20080904.555  
  20514279.266   107803257.832    20514286.301    84002569.0564   20514286.477  
                
  22196081.469   118817321.552                    92413540.255    22196086.977  
  22196080.141  
  23085121.672   121313129.918    23085128.152    94529736.9424                 
                
  20198869.094   108050363.771                    84039157.363    20198873.035  
  20198867.293  
  20845799.367   111354501.177                    86609041.160    20845802.086  
  20845798.875  
  21413793.430   112530264.397    21413800.562    87685947.4484   21413800.570  
                
  22199850.891   116660985.639    22199861.914    90904699.6044   22199862.184  
                
  23198573.305   124140225.381                    96553485.041    23198578.547  
  23198571.105  
  23503711.758   125288003.828                                                  
  23503711.121  
  24421673.930   128336764.264    24421683.012   100002712.5364   24421682.859  
                
  23890117.781   125543398.909    23890125.477    97826036.7434   23890125.660  
                
 21  8 15  5 32 50.0000000  0 17G12G26R 2R 9G18R18G29R 3G20R19R16G 5
                                G25R17R10G23G31
  24839303.391   130531386.115    24839312.133   101712786.4884   24839312.371  
                
  22339426.203   117394488.790    22339436.082    91476264.4794   22339436.012  
                
  22194300.516   118433066.788                    92114596.341    22194304.656  
  22194298.484  
  20573670.508   109862269.715                    85448416.926    20573673.672  
  20573669.738  
  21042918.594   110581285.866    21042926.148    86167271.0684   21042926.164  
                
  20083787.531   107208607.943                    83384464.478    20083790.941  
  20083785.840  
  20515162.594   107807899.711    20515169.633    84006186.0964   20515169.809  
                
  22190611.547   118788040.446                    92390766.098    22190617.020  
  22190610.203  
  23089651.281   121336933.174    23089657.805    94548284.9394                 
                
  20196597.781   108038213.755                    84029707.352    20196601.711  
  20196596.000  
  20851601.492   111385495.022                    86633147.474    20851604.191  
  20851600.973  
  21414367.625   112533281.808    21414374.777    87688298.6814   21414374.785  
                
  22206072.984   116693682.926    22206083.957    90930178.0044   22206084.262  
                
  23204463.234   124171742.557                    96577998.372    23204468.309  
  23204460.906  
  23496909.891   125251746.239                                                  
  23496909.211  
  24414426.219   128298677.334    24414435.305    99973034.4184   24414435.145  
                
  23894307.383   125565415.168    23894315.043    97843192.2694   23894315.230  
                
 21  8 15  5 33  0.0000000  0 17G12G26R 2R 9G18R18G29R 3G20R19R16G 5
                                G25R17R10G23G31
  24846677.812   130570138.134    24846686.422   101742982.8664   24846686.652  
                
  22335046.688   117371474.290    22335056.547    91458331.0994   22335056.477  
                
  22194987.812   118436734.279                    92117448.827    22194991.941  
  22194985.762  
  20572176.156   109854289.942                    85442210.439    20572179.312  
  20572175.391  
  21039223.008   110561865.414    21039230.535    86152138.2554   21039230.562  
                
  20086674.156   107224016.913                    83396449.229    20086677.574  
  20086672.461  
  20516052.719   107812577.339    20516059.770    84009831.0034   20516059.926  
                
  22185151.656   118758813.331                    92368033.923    22185157.113  
  22185150.289  
  23094189.586   121360782.135    23094196.137    94566868.5194                 
                
  20194333.305   108026100.249                    84020285.743    20194337.207  
  20194331.504  
  20857415.094   111416550.179                    86657301.471    20857417.777  
  20857414.570  
  21414955.266   112536369.860    21414962.438    87690704.9574   21414962.438  
                
  22212301.266   116726412.755    22212312.195    90955681.7584   22212312.531  
                
  23210353.070   124203259.991                    96602511.917    23210358.109  
  23210350.758  
  23490116.305   125215532.783                                                  
  23490115.578  
  24407179.109   128260593.335    24407188.152    99943358.5664   24407187.961  
                
  23898503.852   125587467.515    23898511.445    97860375.9084   23898511.625  
                
 21  8 15  5 33 10.0000000  0 17G12G26R 2R 9G18R18G29R 3G20R19R16G 5
                                G25R17R10G23G31
  24854053.391   130608896.735    24854061.961   101773184.3734   24854062.172  
                
  22330675.969   117348505.988    22330685.828    91440433.7154   22330685.758  
                
  22195691.289   118440488.193                    92120368.527    22195695.441  
  22195689.250  
  20570698.648   109846400.099                    85436073.895    20570701.805  
  20570697.875  
  21035535.352   110542486.680    21035542.852    86137037.9464   21035542.883  
                
  20089566.148   107239454.585                    83408456.306    20089569.562  
  20089564.445  
  20516949.703   107817291.013    20516956.762    84013503.9934   20516956.910  
                
  22179701.820   118729640.610                    92345344.035    22179707.371  
  22179700.508  
  23098736.617   121384677.058    23098743.160    94585487.9224                 
                
  20192075.734   108014023.694                    84010892.867    20192079.625  
  20192073.930  
  20863240.180   111447666.752                    86681503.244    20863242.887  
  20863239.641  
  21415556.391   112539528.794    21415563.574    87693166.4644   21415563.578  
                
  22218535.797   116759175.337    22218546.699    90981211.0304   22218547.039  
                
  23216242.945   124234778.039                    96627025.960    23216248.020  
  23216240.660  
  23483331.070   125179363.981                                                  
  23483330.305  
  24399932.617   128222512.688    24399941.613    99913685.3364   24399941.422  
                
  23902707.195   125609556.076    23902714.723    97877587.7674   23902714.906  
                
 21  8 15  5 33 20.0000000  0 17G12G26R 2R 9G18R18G29R 3G20R19R16G 5
                                G25R17R10G23G31
  24861430.203   130647661.717    24861438.715   101803390.8374   24861438.914  
                
  22326314.023   117325583.780    22326323.883    91422572.2544   22326323.812  
                
  22196410.938   118444328.358                    92123355.309    22196415.082  
  22196408.898  
  20569237.953   109838600.090                    85430007.219    20569241.113  
  20569237.180  
  21031855.594   110523149.522    21031863.086    86121970.0414   21031863.117  
                
  20092463.508   107254920.910                    83420485.662    20092466.934  
  20092461.805  
  20517853.555   107822040.817    20517860.609    84017205.1374   20517860.754  
                
  22174262.172   118700522.344                    92322696.502    22174267.805  
  22174260.891  
  23103292.352   121408617.646    23103298.879    94604142.9274                 
                
  20189824.930   108001983.520                    84001528.304    20189828.820  
  20189823.125  
  20869076.703   111478844.462                    86705752.567    20869079.410  
  20869076.141  
  21416170.984   112542758.516    21416178.168    87695683.1344   21416178.180  
                
  22224776.500   116791970.433    22224787.367    91006765.6404   22224787.727  
                
  23222132.734   124266296.537                    96651540.322    23222138.000  
  23222130.574  
  23476554.180   125143239.639                                                  
  23476553.367  
  24392686.797   128184435.334    24392695.703    99884014.6724   24392695.531  
                
  23906917.375   125631680.626    23906924.855    97894827.6704   23906925.047  
                
 21  8 15  5 33 30.0000000  0 16G26R 2R 9G18R18G29R 3G20R19R16G 5G25
                                R17R10G23G31
  22321960.859   117302707.703    22321970.719    91404746.7384   22321970.641  
                
  22197146.789   118448254.938                    92126409.296    22197150.949  
  22197144.734  
  20567794.117   109830890.060                    85424010.532    20567797.285  
  20567793.332  
  21028183.766   110503853.917    21028191.238    86106934.5074   21028191.277  
                
  20095366.211   107270415.737                    83432537.193    20095369.645  
  20095364.508  
  20518764.227   107826826.376    20518771.277    84020934.1424   20518771.418  
                
  22168832.727   118671458.672                    92300091.461    22168838.445  
  22168831.492  
  23107856.781   121432603.794    23107863.312    94622833.4454                 
                
  20187580.938   107989979.720                    83992192.010    20187584.824  
  20187579.129  
  20874924.617   111510082.956                    86730049.156    20874927.340  
  20874924.062  
  21416799.039   112546058.938    21416806.223    87698254.8864   21416806.246  
                
  22231023.383   116824797.920    22231034.215    91032345.4964   22231034.605  
                
  23228022.648   124297815.402                    96676054.975    23228028.062  
  23228020.605  
  23469785.797   125107160.451                                                  
  23469784.930  
  24385441.586   128146361.315    24385450.438    99854346.6194   24385450.289  
                
  23911134.391   125653841.074    23911141.820    97912095.5474   23911142.035  
                
 21  8 15  5 33 40.0000000  0 16G26R 2R 9G18R18G29R 3G20R19R16G 5G25
                                R17R10G23G31
  22317616.484   117279877.880    22317626.352    91386957.2594   22317626.273  
                
  22197898.781   118452267.717                    92129530.352    22197902.945  
  22197896.695  
  20566367.125   109823269.982                    85418083.810    20566370.285  
  20566366.316  
  21024519.852   110484599.893    21024527.312    86091931.3844   21024527.348  
                
  20098274.211   107285938.826                    83444610.695    20098277.645  
  20098272.492  
  20519681.727   107831647.796    20519688.773    84024691.0934   20519688.910  
                
  22163413.469   118642449.660                    92277528.919    22163419.293  
  22163412.297  
  23112429.867   121456635.461    23112436.418    94641559.4024                 
                
  20185343.828   107978012.601                    83982884.255    20185347.703  
  20185342.004  
  20880783.945   111541382.353                    86754393.130    20880786.672  
  20880783.398  
  21417440.547   112549430.070    21417447.719    87700881.7494   21417447.738  
                
  22237276.414   116857657.719    22237287.230    91057950.5244   22237287.625  
                
  23233912.641   124329334.650                    96700569.878    23233918.191  
  23233910.723  
  23463025.844   125071126.000                                                  
  23463024.934  
  24378197.055   128108290.756    24378205.812    99824681.2634   24378205.691  
                
  23915358.234   125676037.346    23915365.602    97929391.3414   23915365.840  
                
 21  8 15  5 33 50.0000000  0 16G26R 2R 9G18R18G29R 3G20R19R16G 5G25
                                R17R10G23G31
  22313280.977   117257094.621    22313290.852    91369204.0724   22313290.777  
                
  22198667.062   118456367.429                    92132719.001    22198671.250  
  22198664.941  
  20564957.047   109815740.279                    85412227.373    20564960.215  
  20564956.223  
  21020863.891   110465387.727    21020871.352    86076960.8724   21020871.383  
                
  20101187.586   107301490.614                    83456706.530    20101191.023  
  20101185.855  
  20520606.086   107836505.375    20520613.121    84028476.2144   20520613.262  
                
  22158004.625   118613495.846                    92255009.272    22158010.426  
  22158003.457  
  23117011.625   121480712.796    23117018.211    94660320.9474                 
                
  20183113.508   107966081.882                    83973604.807    20183117.383  
  20183111.684  
  20886654.664   111572742.655                    86778784.473    20886657.391  
  20886654.125  
  21418095.562   112552872.215    21418102.711    87703563.9364   21418102.723  
                
  22243535.617   116890550.031    22243546.422    91083580.8814   22243546.820  
                
  23239802.992   124360854.335                    96725085.160    23239808.410  
  23239800.988  
  23456274.383   125035136.944                                                  
  23456273.438  
  24370953.250   128070223.992    24370961.922    99795018.8454   24370961.805  
                
  23919588.891   125698269.639    23919596.262    97946715.1884   23919596.496  
                
 21  8 15  5 34  0.0000000  0 16G26R 2R 9G18R18G29R 3G20R19R16G 5G25
                                R17R10G23G31
  22308954.359   117234358.041    22308964.238    91351487.2534   22308964.160  
                
  22199451.562   118460553.686                    92135974.978    22199455.785  
  22199449.434  
  20563563.867   109808300.758                    85406441.073    20563567.027  
  20563563.035  
  21017215.914   110446217.451    21017223.371    86062023.0004   21017223.410  
                
  20104106.305   107317070.954                    83468824.575    20104109.754  
  20104104.559  
  20521537.344   107841399.105    20521544.375    84032289.5134   20521544.520  
                
  22152606.211   118584597.362                    92232532.670    22152611.914  
  22152604.992  
  23121602.070   121504835.688    23121608.711    94679118.0014                 
                
  20180890.070   107954187.929                    83964353.957    20180893.957  
  20180888.254  
  20892536.734   111604163.587                    86803222.967    20892539.457  
  20892536.199  
  21418764.078   112556385.310    21418771.195    87706301.4094   21418771.223  
                
  22249801.000   116923474.726    22249811.812    91109236.4704   22249812.203  
                
  23245693.406   124392374.564                    96749600.869    23245698.758  
  23245691.340  
  23449531.406   124999193.300                                                  
  23449530.457  
  24363710.141   128032161.130    24363718.773    99765359.4884   24363718.680  
                
  23923826.336   125720537.753    23923833.773    97964066.9524   23923833.973  
                
 21  8 15  5 34 10.0000000  0 16G26R 2R 9G18R18G29R 3G20R19R16G 5G25
                                R17R10G23G31
  22304636.562   117211667.885    22304646.461    91333806.6024   22304646.367  
                
  22200252.297   118464826.546                    92139298.323    22200256.535  
  22200250.230  
  20562187.531   109800951.243                    85400724.793    20562190.691  
  20562186.699  
  21013575.828   110427088.729    21013583.289    86047117.5134   21013583.312  
                
  20107030.297   107332679.440                    83480964.497    20107033.738  
  20107028.539  
  20522475.422   107846328.750    20522482.461    84036130.7964   20522482.598  
                
  22147218.070   118555754.006                    92210098.950    22147223.727  
  22147216.840  
  23126201.102   121529003.759    23126207.789    94697950.2584                 
                
  20178673.438   107942330.401                    83955131.448    20178677.309  
  20178671.625  
  20898430.078   111635644.768                    86827708.319    20898432.824  
  20898429.512  
  21419446.031   112559969.024    21419453.121    87709093.9224   21419453.172  
                
  22256072.453   116956431.404    22256083.250    91134916.9774   22256083.645  
                
  23251583.781   124423895.051                    96774116.777    23251589.137  
  23251581.691  
  23442796.922   124963294.764                                                  
  23442796.023  
  24356467.742   127994101.938    24356476.312    99735702.9824   24356476.242  
                
  23928070.484   125742841.245    23928078.004    97981446.2714   23928078.164  
                
 21  8 15  5 34 20.0000000  0 16G26R 2R 9G18R18G29R 3G20R19R16G 5G25
                                R17R10G23G31
  22300327.672   117189024.437    22300337.605    91316162.3524   22300337.488  
                
  22201069.156   118469185.371                    92142688.496    22201073.355  
  22201067.148  
  20560828.125   109793692.005                    85395078.719    20560831.285  
  20560827.293  
  21009943.711   110408001.807    21009951.172    86032244.5904   21009951.195  
                
  20109959.625   107348316.383                    83493126.572    20109963.066  
  20109957.859  
  20523420.391   107851294.506    20523427.453    84040000.2144   20523427.574  
                
  22141840.258   118526966.083                    92187708.360    22141845.906  
  22141839.008  
  23130808.773   121553217.154    23130815.520    94716817.8224                 
                
  20176463.602   107930509.242                    83945937.210    20176467.477  
  20176461.797  
  20904334.711   111667186.169                    86852240.508    20904337.496  
  20904334.160  
  21420141.484   112563623.592    21420148.531    87711941.6394   21420148.605  
                
  22262350.047   116989420.220    22262360.797    91160622.5334   22262361.191  
                
  23257474.320   124455415.954                    96798632.994    23257479.617  
  23257472.121  
  23436071.086   124927442.041                                                  
  23436070.223  
  24349226.102   127956046.727    24349234.629    99706049.5724   24349234.555  
                
  23932321.406   125765180.182    23932328.953    97998853.2294   23932329.113  
                
 21  8 15  5 34 30.0000000  0 16G26R 2R 9G18R18G29R 3G20R19R16G 5G25
                                R17R10G23G31
  22296027.680   117166427.775    22296037.652    91298554.5574   22296037.523  
                
  22201902.266   118473630.977                    92146146.182    22201906.477  
  22201900.297  
  20559485.602   109786523.033                    85389502.851    20559488.766  
  20559484.789  
  21006319.547   110388956.674    21006326.996    86017404.2344   21006327.027  
                
  20112894.227   107363981.460                    83505310.511    20112897.680  
  20112892.461  
  20524372.211   107856296.349    20524379.293    84043897.7444   20524379.398  
                
  22136472.828   118498233.760                    92165361.020    22136478.469  
  22136471.555  
  23135425.023   121577475.692    23135431.832    94735720.5764                 
                
  20174260.594   107918724.630                    83936771.401    20174264.477  
  20174258.777  
  20910250.641   111698787.916                    86876819.634    20910253.473  
  20910250.086  
  21420850.398   112567348.953    21420857.406    87714844.5194   21420857.504  
                
  22268633.719   117022441.055    22268644.395    91186353.0444   22268644.805  
                
  23263364.844   124486937.311                    96823149.576    23263370.172  
  23263362.660  
  23429353.844   124891635.224                                                  
  23429352.996  
  24341985.242   127917995.583    24341993.723    99676399.3424   24341993.652  
                
  23936579.062   125787554.518    23936586.633    98016287.7644   23936586.809  
                
 21  8 15  5 34 40.0000000  0 16G26R 2R 9G18R18G29R 3G20R19R16G 5G25
                                R17R10G23G31
  22291736.547   117143877.809    22291746.562    91280983.1664   22291746.414  
                
  22202751.484   118478162.571                    92149670.783    22202755.691  
  22202749.469  
  20558159.953   109779444.150                    85383997.055    20558163.098  
  20558159.141  
  21002703.305   110369953.197    21002710.742    86002596.3394   21002710.785  
                
  20115834.125   107379674.835                    83517516.473    20115837.590  
  20115832.352  
  20525330.867   107861334.100    20525337.980    84047823.2704   20525338.070  
                
  22131115.820   118469557.223                    92143057.044    22131121.434  
  22131114.551  
  23140049.820   121601779.160    23140056.656    94754658.3354                 
                
  20172064.398   107906976.459                    83927633.940    20172068.297  
  20172062.590  
  20916177.719   111730449.290                    86901445.140    20916180.562  
  20916177.152  
  21421572.727   112571144.851    21421579.691    87717802.3624   21421579.805  
                
  22274923.445   117055493.685    22274934.047    91212108.3314   22274934.492  
                
  23269255.289   124518458.655                    96847666.174    23269260.754  
  23269253.145  
  23422645.156   124855874.051                                                  
  23422644.293  
  24334745.156   127879948.425    24334753.527    99646752.2064   24334753.477  
                
  23940843.391   125809963.954    23940850.980    98033749.6364   23940851.172  
                
 21  8 15  5 34 50.0000000  0 16G26R 2R 9G18R18G29R 3G20R19R16G 5G25
                                R17R10G23G31
  22287454.523   117121375.669    22287464.578    91263449.0274   22287464.414  
                
  22203617.117   118482781.759                    92153263.473    22203621.305  
  22203615.055  
  20556851.406   109772456.600                    85378562.284    20556854.555  
  20556850.602  
  20999095.188   110350992.441    20999102.617    85987821.7314   20999102.668  
                
  20118779.469   107395397.266                    83529745.029    20118782.930  
  20118777.691  
  20526296.555   107866408.811    20526303.691    84051777.5824   20526303.762  
                
  22125769.367   118440937.427                    92120797.211    22125774.961  
  22125768.090  
  23144683.367   121626128.521    23144690.203    94773631.8674                 
                
  20169875.164   107895265.560                    83918525.480    20169879.074  
  20169873.336  
  20922116.195   111762171.556                    86926118.000    20922119.047  
  20922115.641  
  21422308.688   112575012.367    21422315.621    87720816.0064   21422315.746  
                
  22281219.383   117088579.045    22281229.949    91237889.1284   22281230.414  
                
  23275145.836   124549981.283                    96872183.742    23275151.531  
  23275143.859  
  23415945.234   124820159.855                                                  
  23415944.441  
  24327505.977   127841906.391    24327514.277    99617109.0814   24327514.277  
                
  23945114.562   125832409.464    23945122.176    98051239.6464   23945122.387  
                
 21  8 15  5 35  0.0000000  0 16G26R 2R 9G18R18G29R 3G20R19R16G 5G25
                                R17R10G23G31
  22283181.125   117098918.857    22283191.234    91245950.2134   22283191.062  
                
  22204498.594   118487485.466                    92156921.899    22204502.785  
  22204496.504  
  20555559.469   109765557.707                    85373196.489    20555562.621  
  20555558.660  
  20995494.719   110332071.840    20995502.148    85973078.4094   20995502.211  
                
  20121729.766   107411146.121                    83541994.123    20121733.215  
  20121727.996  
  20527268.781   107871517.875    20527275.941    84055758.6724   20527276.004  
                
  22120433.078   118412371.941                    92098579.613    22120438.645  
  22120431.809  
  23149325.148   121650521.140    23149331.984    94792639.0894                 
                
  20167692.422   107883589.394                    83909444.002    20167696.340  
  20167690.562  
  20928065.547   111793951.821                    86950835.974    20928068.391  
  20928065.008  
  21423057.781   112578948.885    21423064.699    87723883.4284   21423064.824  
                
  22287521.039   117121694.434    22287531.633    91263693.3194   22287532.109  
                
  23281036.195   124581502.429                    96896700.185    23281042.051  
  23281034.367  
  23409253.734   124784490.265                                                  
  23409252.953  
  24320267.289   127803867.018    24320275.539    99587467.9944   24320275.602  
                
  23949392.125   125854888.358    23949399.730    98068755.6544   23949399.988  
                
 21  8 15  5 35 10.0000000  0 16G26R 2R 9G18R18G29R 3G20R19R16G 5G25
                                R17R10G23G31
  22278916.789   117076509.631    22278926.941    91228488.4764   22278926.773  
                
  22205396.398   118492276.314                    92160648.122    22205400.598  
  22205394.309  
  20554284.570   109758749.820                    85367901.463    20554287.715  
  20554283.754  
  20991902.297   110313193.589    20991909.730    85958368.0924   20991909.785  
                
  20124685.445   107426923.721                    83554265.594    20124688.887  
  20124683.699  
  20528247.977   107876663.572    20528255.156    84059768.3014   20528255.203  
                
  22115107.445   118383863.219                    92076406.158    22115112.918  
  22115106.168  
  23153975.539   121674959.044    23153982.387    94811681.6064                 
                
  20165516.602   107871950.319                    83900391.386    20165520.539  
  20165514.754  
  20934026.133   111825792.136                    86975600.655    20934028.992  
  20934025.590  
  21423820.430   112582956.607    21423827.316    87727006.3334   21423827.449  
                
  22293828.836   117154842.015    22293839.484    91289522.6014   22293839.953  
                
  23286926.750   124613024.438                    96921217.282    23286932.746  
  23286924.965  
  23402571.047   124748867.614                                                  
  23402570.285  
  24313029.492   127765832.548    24313037.750    99557830.7624   24313037.852  
                
  23953676.406   125877402.710    23953684.047    98086299.2944   23953684.336  
                
 21  8 15  5 35 20.0000000  0 16G26R 2R 9G18R18G29R 3G20R19R16G 5G25
                                R17R10G23G31
  22274661.602   117054148.494    22274671.770    91211064.2134   22274671.605  
                
  22206310.555   118497154.390                    92164442.178    22206314.762  
  22206308.465  
  20553026.758   109752033.142                    85362677.372    20553029.910  
  20553025.922  
  20988318.031   110294358.121    20988325.469    85943691.1104   20988325.516  
                
  20127646.555   107442730.229                    83566559.536    20127649.984  
  20127644.816  
  20529234.219   107881846.315    20529241.418    84063806.8034   20529241.461  
                
  22109792.453   118355411.764                    92054277.257    22109797.887  
  22109791.172  
  23158634.617   121699442.607    23158641.516    94830759.7024                 
                
  20163347.797   107860348.600                    83891367.838    20163351.746  
  20163345.965  
  20939998.031   111857692.898                    87000412.352    20940000.906  
  20939997.492  
  21424596.695   112587035.928    21424603.547    87730185.0244   21424603.688  
                
  22300142.805   117188022.049    22300153.512    91315377.1724   22300153.941  
                
  23292817.516   124644547.492                    96945735.195    23292823.605  
  23292815.738  
  23395897.250   124713292.384                                                  
  23395896.520  
  24305792.766   127727803.516    24305801.039    99528197.7724   24305801.160  
                
  23957967.547   125899952.856    23957975.223    98103870.8244   23957975.551  
                
 21  8 15  5 35 30.0000000  0 16G26R 2R 9G18R18G29R 3G20R19R16G 5G25
                                R17R10G23G31
  22270415.266   117031833.869    22270425.461    91193676.1904   22270425.277  
                
  22207240.695   118502117.851                    92168302.612    22207244.926  
  22207238.590  
  20551785.773   109745406.383                    85357523.224    20551788.926  
  20551784.922  
  20984741.586   110275563.784    20984749.023    85929046.1804   20984749.070  
                
  20130612.758   107458564.015                    83578874.705    20130616.184  
  20130611.051  
  20530227.195   107887064.428    20530234.410    84067872.8654   20530234.441  
                
  22104487.859   118327016.112                    92032191.754    22104493.309  
  22104486.605  
  23163302.047   121723970.064    23163308.996    94849871.9874                 
                
  20161185.641   107848782.632                    83882372.085    20161189.609  
  20161183.832  
  20945980.883   111889652.171                    87025269.565    20945983.738  
