     2.11           OBSERVATION DATA    M (MIXED)           RINEX VERSION / TYPE
EFT-CORS.RU                             20210817 145124 UTC PGM / RUN BY / DATE 
MDNG                                                        MARKER NAME         
                                                            MARKER NUMBER       
MDNG                EFT-CORS.RU                             OBSERVER / AGENCY   
0                   TRIMBLE BD970       2.0                 REC # / TYPE / VERS 
0                   UNKNOWN EXT NONE                        ANT # / TYPE        
  3463911.2830  3030468.2400  4402179.3760                  APPROX POSITION XYZ 
        0.0000        0.0000        0.0000                  ANTENNA: DELTA H/E/N
     1     1                                                WAVELENGTH FACT L1/2
     6    C1    L1    P2    L2    C2    P1                  # / TYPES OF OBSERV 
    10.000                                                  INTERVAL            
  2021     8    15     3    30    0.0000000     GPS         TIME OF FIRST OBS   
  2021     8    15     4    30    0.0000000     GPS         TIME OF LAST OBS    
     0                                                      RCV CLOCK OFFS APPL 
                                                            END OF HEADER       
 21  8 15  3 30  0.0000000  0 14G 6G12R24R18G29R14G20R16G 5G25R17R15
                                G 2G31
  24055053.297   126410141.805    24055063.984    98501442.1064   24055064.512  
                
  20633376.586   108429130.033    20633382.898    84490259.0404   20633383.082  
                
  23111335.383   123586679.397                    96122970.492    23111340.949  
  23111334.629  
  20060583.250   107084747.970                    83288129.649    20060587.016  
  20060581.871  
  21587697.398   113444110.182    21587704.203    88398038.9534   21587704.328  
                
  22804642.703   121561567.926                    94547871.792    22804648.461  
  22804642.320  
  22723896.820   119414883.497    22723903.777    93050584.8894                 
                
  20648644.883   110301355.310                    85789931.655    20648647.031  
  20648644.520  
  24079620.695   126539265.721    24079628.125    98602048.6984   24079628.266  
                
  20082333.508   105533376.486    20082342.875    82233840.4714   20082343.316  
                
  19467389.789   104173946.335                    81024165.403    19467393.551  
  19467387.973  
  19430127.336   103828708.323                    80755655.055    19430131.949  
  19430127.543  
  22019366.086   115712552.083    22019370.715    90165641.0424                 
                
  23563365.094   123826315.028    23563371.395    96488052.8764   23563371.625  
                
 21  8 15  3 30 10.0000000  0 14G 6G12R24R18G29R14G20R16G 5G25R17R15
                                G 2G31
  24061519.672   126444122.693    24061530.352    98527920.7154   24061530.867  
                
  20636429.773   108445174.609    20636436.062    84502761.3054   20636436.273  
                
  23118475.430   123624860.538                    96152666.889    23118481.055  
  23118474.664  
  20057016.742   107065709.709                    83273322.109    20057020.508  
  20057015.363  
  21584065.367   113425023.747    21584072.164    88383166.4024   21584072.281  
                
  22812621.148   121604097.338                    94580950.204    22812626.867  
  22812620.766  
  22720333.906   119396160.387    22720340.840    93035995.4604                 
                
  20643487.367   110273804.781                    85768503.463    20643489.535  
  20643487.008  
  24073320.047   126506155.359    24073327.441    98576248.4274   24073327.594  
                
  20081380.531   105528368.603    20081389.898    82229938.2224   20081390.348  
                
  19470449.102   104190317.305                    81036898.384    19470452.844  
  19470447.281  
  19433141.719   103844816.315                    80768183.486    19433146.332  
  19433141.906  
  22023136.672   115732366.588    22023141.293    90181080.9154                 
                
  23559648.594   123806784.715    23559654.930    96472834.4574   23559655.152  
                
 21  8 15  3 30 20.0000000  0 14G 6G12R24R18G29R14G20R16G 5G25R17R15
                                G 2G31
  24067989.508   126478121.682    24068000.219    98554413.4174   24068000.691  
                
  20639491.758   108461265.404    20639498.031    84515299.5754   20639498.254  
                
  23125615.680   123663042.772                    96182364.158    23125621.402  
  23125614.941  
  20053460.805   107046727.837                    83258558.438    20053464.586  
  20053459.418  
  21580438.609   113405964.967    21580445.438    88368315.3994   21580445.539  
                
  22820603.930   121646649.856                    94614046.582    22820609.617  
  22820603.535  
  22716779.625   119377482.562    22716786.535    93021441.3064                 
                
  20638340.625   110246311.788                    85747120.038    20638342.812  
  20638340.258  
  24067021.180   126473054.614    24067028.570    98550455.6464   24067028.750  
                
  20080437.422   105523412.502    20080446.789    82226076.3244   20080447.234  
                
  19473517.805   104206738.527                    81049670.436    19473521.543  
  19473515.984  
  19436170.781   103861002.717                    80780772.883    19436175.391  
  19436170.961  
  22026914.320   115752218.220    22026918.938    90196549.7044                 
                
  23555942.039   123787306.662    23555948.379    96457656.7494   23555948.605  
                
 21  8 15  3 30 30.0000000  0 14G 6G12R24R18G29R14G20R16G 5G25R17R15
                                G 2G31
  24074463.094   126512140.507    24074473.867    98580921.5614   24074474.305  
                
  20642562.891   108477404.215    20642569.152    84527875.2664   20642569.371  
                
  23132756.438   123701227.764                    96212063.573    23132762.230  
  23132755.668  
  20049915.797   107027804.341                    83243840.185    20049919.582  
  20049914.422  
  21576817.453   113386935.671    21576824.352    88353487.3844   21576824.414  
                
  22828591.422   121689227.343                    94647162.392    22828597.086  
  22828590.988  
  22713234.305   119358851.865    22713241.207    93006923.8824                 
                
  20633205.016   110218878.303                    85725782.872    20633207.211  
  20633204.684  
  24060724.445   126439965.438    24060731.898    98524671.8674   24060732.113  
                
  20079504.531   105518510.096    20079513.895    82222256.2644   20079514.348  
                
  19476596.195   104223211.608                    81062482.828    19476599.938  
  19476594.391  
  19439214.859   103877269.313                    80793424.674    19439219.461  
  19439215.035  
  22030699.352   115772108.638    22030703.984    90212048.7314                 
                
  23552245.805   123767882.781    23552252.125    96442521.2594   23552252.352  
                
 21  8 15  3 30 40.0000000  0 14G 6G12R24R18G29R14G20R16G 5G25R17R15
                                G 2G31
  24080940.359   126546178.866    24080951.195    98607444.9264   24080951.609  
                
  20645643.102   108493590.795    20645649.371    84540488.1764   20645649.590  
                
  23139897.688   123739415.224                    96241764.925    23139903.492  
  23139896.879  
  20046381.672   107008938.917                    83229167.063    20046385.457  
  20046380.297  
  21573201.867   113367935.661    21573208.832    88338682.1854   21573208.855  
                
  22836583.492   121731829.446                    94680297.348    22836589.145  
  22836583.098  
  22709697.945   119340268.190    22709704.836    92992443.0954                 
                
  20628080.555   110191504.265                    85704491.948    20628082.715  
  20628080.238  
  24054429.836   126406887.668    24054437.383    98498896.9744   24054437.605  
                
  20078581.820   105513661.169    20078591.184    82218477.8754   20078591.637  
                
  19479684.250   104239736.330                    81075335.380    19479687.988  
  19479682.461  
  19442273.906   103893615.870                    80806138.655    19442278.512  
  19442274.070  
  22034491.727   115792037.630    22034496.375    90227577.8084                 
                
  23548559.844   123748512.936    23548566.145    96427427.8674   23548566.379  
                
 21  8 15  3 30 50.0000000  0 14G 6G12R24R18G29R14G20R16G 5G25R17R15
                                G 2G31
  24087421.195   126580236.060    24087432.109    98633982.9524   24087432.477  
                
  20648732.281   108509824.503    20648738.559    84553137.8124   20648738.773  
                
  23147039.219   123777604.391                    96271467.603    23147045.082  
  23147038.359  
  20042858.305   106990130.968                    83214538.653    20042862.082  
  20042856.949  
  21569591.719   113348964.226    21569598.707    88323899.2534   21569598.715  
                
  22844580.133   121774455.357                    94713450.807    22844585.676  
  22844579.652  
  22706170.438   119321731.093    22706177.309    92977998.6104                 
                
  20622967.086   110164189.033                    85683246.766    20622969.238  
  20622966.766  
  24048137.375   126373820.810    24048144.953    98473130.5944   24048145.168  
                
  20077669.164   105508865.187    20077678.523    82214740.7404   20077678.980  
                
  19482781.805   104256311.965                    81088227.536    19482785.551  
  19482780.031  
  19445347.773   103910041.679                    80818914.274    19445352.383  
  19445347.941  
  22038291.289   115812004.483    22038295.957    90243136.3804                 
                
  23544884.039   123729196.508    23544890.332    96412376.0964   23544890.559  
                
 21  8 15  3 31  0.0000000  0 14G 6G12R24R18G29R14G20R16G 5G25R17R15
                                G 2G31
  24093905.594   126614311.998    24093916.527    98660535.6084   24093916.863  
                
  20651830.438   108526105.385    20651836.719    84565824.2074   20651836.926  
                
  23154181.172   123815795.642                    96301171.820    23154187.023  
  23154180.324  
  20039345.703   106971380.473                    83199954.932    20039349.465  
  20039344.352  
  21565987.062   113330021.613    21565994.008    88309138.7754   21565994.035  
                
  22852581.188   121817105.103                    94746622.812    22852586.672  
  22852580.660  
  22702651.805   119303240.615    22702658.680    92963590.4344                 
                
  20617864.734   110136933.119                    85662047.714    20617866.863  
  20617864.426  
  24041847.133   126340765.271    24041854.637    98447373.0124   24041854.848  
                
  20076766.609   105504122.207    20076775.965    82211044.9024   20076776.426  
                
  19485888.852   104272938.388                    81101159.190    19485892.590  
  19485887.086  
  19448436.492   103926546.798                    80831751.580    19448441.117  
  19448436.684  
  22042098.055   115832009.156    22042102.738    90258724.4374                 
                
  23541218.438   123709933.681    23541224.758    96397366.0874   23541224.969  
                
 21  8 15  3 31 10.0000000  0 14G 6G12R24R18G29R14G20R16G 5G25R17R15
                                G 2G31
  24100393.602   126648406.768    24100404.508    98687102.9624   24100404.848  
                
  20654937.594   108542433.548    20654943.887    84578547.4444   20654944.082  
                
  23161323.508   123853988.585                    96330877.415    23161329.285  
  23161322.668  
  20035843.953   106952687.815                    83185416.211    20035847.711  
  20035842.590  
  21562387.930   113311107.982    21562394.801    88294400.8714   21562394.879  
                
  22860586.609   121859778.572                    94779813.262    22860592.137  
  22860586.117  
  22699142.102   119284797.023    22699149.016    92949218.8084                 
                
  20612773.500   110109736.593                    85640894.869    20612775.645  
  20612773.191  
  24035559.078   126307721.111    24035566.445    98421624.3064   24035566.652  
                
  20075874.180   105499432.440    20075883.527    82207390.5384   20075883.992  
                
  19489005.422   104289615.735                    81114130.461    19489009.156  
  19489003.668  
  19451540.070   103943131.264                    80844650.608    19451544.715  
  19451540.285  
  22045912.047   115852051.765    22045916.746    90274342.0494                 
                
  23537563.078   123690724.677    23537569.434    96382398.0364   23537569.633  
                
 21  8 15  3 31 20.0000000  0 14G 6G12R24R18G29R14G20R16G 5G25R17R15
                                G 2G31
  24106885.172   126682520.342    24106896.090    98713684.9374   24106896.422  
                
  20658053.758   108558809.043    20658060.074    84591307.5684   20658060.254  
                
  23168466.156   123892183.481                    96360584.535    23168471.934  
  23168465.324  
  20032352.992   106934052.866                    83170922.356    20032356.754  
  20032351.617  
  21558794.320   113292223.414    21558801.129    88279685.6164   21558801.246  
                
  22868596.477   121902475.929                    94813022.288    22868602.074  
  22868596.020  
  22695641.352   119266400.537    22695648.312    92934883.8874                 
                
  20607693.359   110082599.342                    85619788.125    20607695.492  
  20607693.039  
  24029273.156   126274688.436    24029280.465    98395884.5714   24029280.672  
                
  20074991.891   105494795.980    20075001.223    82203777.7044   20075001.699  
                
  19492131.484   104306343.938                    81127141.278    19492135.199  
  19492129.742  
  19454658.477   103959795.017                    80857611.294    19454663.137  
  19454658.723  
  22049733.250   115872132.259    22049737.973    90289989.1744                 
                
  23533917.984   123671569.599    23533924.355    96367471.9974   23533924.578  
                
 21  8 15  3 31 30.0000000  0 14G 6G12R24R18G29R14G20R16G 5G25R17R15
                                G 2G31
  24113380.320   126716652.583    24113391.289    98740281.4774   24113391.598  
                
  20661178.922   108575231.921    20661185.246    84604104.5984   20661185.430  
                
  23175609.133   123930380.106                    96390292.966    23175614.906  
  23175608.316  
  20028872.859   106915475.654                    83156473.422    20028876.645  
  20028871.465  
  21555206.219   113273367.833    21555213.016    88264992.9484   21555213.141  
                
  22876610.711   121945196.792                    94846249.627    22876616.402  
  22876610.316  
  22692149.578   119248051.172    22692156.535    92920585.6824                 
                
  20602624.438   110055522.062                    85598728.000    20602626.547  
  20602624.117  
  24022989.492   126241667.440    24022996.750    98370153.9124   24022996.934  
                
  20074119.750   105490212.857    20074129.070    82200206.4404   20074129.559  
                
  19495267.023   104323122.807                    81140191.498    19495270.730  
  19495265.270  
  19457791.734   103976538.176                    80870633.740    19457796.402  
  19457791.996  
  22053561.641   115892250.561    22053566.387    90305665.7714                 
                
  23530283.164   123652468.483    23530289.543    96352588.0064   23530289.750  
                
 21  8 15  3 31 40.0000000  0 14G 6G12R24R18G29R14G20R16G 5G25R17R15
                                G 2G31
  24119879.055   126750803.445    24119890.027    98766892.5194   24119890.309  
                
  20664313.117   108591702.152    20664319.457    84616938.5364   20664319.637  
                
  23182752.422   123968578.321                    96420002.662    23182758.168  
  23182751.633  
  20025403.562   106896956.303                    83142069.483    20025407.359  
  20025402.152  
  21551623.633   113254541.255    21551630.469    88250322.8974   21551630.586  
                
  22884629.430   121987941.279                    94879495.329    22884635.168  
  22884629.113  
  22688666.773   119229748.948    22688673.707    92906324.2114                 
                
  20597566.727   110028504.673                    85577714.481    20597568.840  
  20597566.434  
  24016708.039   126208658.190    24016715.289    98344432.4144   24016715.457  
                
  20073257.773   105485683.130    20073267.078    82196676.7814   20073267.578  
                
  19498412.039   104339952.380                    81153281.156    19498415.742  
  19498410.297  
  19460939.852   103993360.702                    80883717.918    19460944.543  
  19460940.141  
  22057397.234   115912406.704    22057401.992    90321371.8414                 
                
  23526658.617   123633421.378    23526665.004    96337746.1094   23526665.203  
                
 21  8 15  3 31 50.0000000  0 14G 6G12R24R18G29R14G20R16G 5G25R17R15
                                G 2G31
  24126381.312   126784972.870    24126392.262    98793518.0284   24126392.547  
                
  20667456.320   108608219.798    20667462.680    84629809.4254   20667462.852  
                
  23189896.039   124006778.242                    96449713.675    23189901.758  
  23189895.277  
  20021945.109   106878494.897                    83127710.617    20021948.914  
  20021943.703  
  21548046.586   113235743.742    21548053.469    88235675.4944   21548053.574  
                
  22892652.695   122030709.235                    94912759.291    22892658.328  
  22892652.316  
  22685192.992   119211494.108    22685199.895    92892099.6484                 
                
  20592520.289   110001547.483                    85556747.784    20592522.387  
  20592519.984  
  24010428.875   126175661.012    24010436.145    98318720.3234   24010436.316  
                
  20072405.977   105481206.891    20072415.273    82193188.7994   20072415.781  
                
  19501566.508   104356832.606                    81166410.228    19501570.207  
  19501564.777  
  19464102.805   104010262.471                    80896863.723    19464107.500  
  19464103.129  
  22061240.008   115932600.546    22061244.773    90337107.2954                 
                
  23523044.383   123614428.394    23523050.770    96322946.3774   23523050.984  
                
 21  8 15  3 32  0.0000000  0 14G 6G12R24R18G29R14G20R16G 5G25R17R15
                                G 2G31
  24132887.008   126819160.407    24132897.922    98820157.6424   24132898.223  
                
  20670608.484   108624784.473    20670614.859    84642716.9534   20670615.023  
                
  23197039.906   124044979.348                    96479425.618    23197045.562  
  23197039.211  
  20018497.453   106860091.033                    83113396.490    20018501.258  
  20018496.043  
  21544474.977   113216974.781    21544481.898    88221050.3354   21544481.992  
                
  22900680.203   122073500.084                    94946041.061    22900685.793  
  22900679.840  
  22681728.172   119193286.315    22681735.023    92877911.7504                 
                
  20587485.062   109974650.169                    85535827.656    20587487.145  
  20587484.770  
  24004151.969   126142675.574    24004159.246    98293017.3874   24004159.418  
                
  20071564.289   105476783.757    20071573.582    82189742.1984   20071574.090  
                
  19504730.367   104373762.987                    81179578.293    19504734.070  
  19504728.641  
  19467280.523   104027243.168                    80910070.928    19467285.242  
  19467280.867  
  22065089.867   115952831.611    22065094.648    90352871.7594                 
                
  23519440.406   123595489.324    23519446.828    96308188.6644   23519447.043  
                
 21  8 15  3 32 10.0000000  0 14G 6G12R24R18G29R14G20R16G 5G25R17R15
                                G 2G31
  24139396.227   126853366.433    24139407.141    98846811.6684   24139407.410  
                
  20673769.664   108641396.529    20673776.059    84655661.4074   20673776.223  
                
  23204184.047   124083181.844                    96509138.651    23204189.625  
  23204183.410  
  20015060.641   106841745.086                    83099127.435    20015064.453  
  20015059.223  
  21540908.953   113198235.151    21540915.883    88206448.0264   21540915.957  
                
  22908712.023   122116314.359                    94979341.032    22908717.652  
  22908711.723  
  22678272.414   119175126.148    22678279.219    92863760.9764                 
                
  20582461.148   109947813.270                    85514954.496    20582463.164  
  20582460.855  
  23997877.312   126109702.498    23997884.723    98267324.0984   23997884.891  
                
  20070732.812   105472414.315    20070742.105    82186337.4374   20070742.609  
                
  19507903.656   104390743.849                    81192785.629    19507907.352  
  19507901.938  
  19470473.086   104044303.215                    80923339.848    19470477.832  
  19470473.445  
  22068946.891   115973100.347    22068951.684    90368665.5714                 
                
  23515846.773   123576604.664    23515853.227    96293473.3484   23515853.422  
                
 21  8 15  3 32 20.0000000  0 14G 6G12R24R18G29R14G20R16G 5G25R17R15
                                G 2G31
  24145908.875   126887590.466    24145919.770    98873479.7144   24145920.031  
                
  20676939.789   108658055.613    20676946.203    84668642.5024   20676946.359  
                
  23211328.414   124121385.541                    96538852.621    23211333.930  
  23211327.793  
  20011634.602   106823456.677                    83084903.107    20011638.414  
  20011633.176  
  21537348.422   113179524.430    21537355.328    88191868.2354   21537355.398  
                
  22916748.180   122159151.491                    95012658.783    22916753.824  
  22916747.867  
  22674825.672   119157013.347    22674832.402    92849647.0974                 
                
  20577448.461   109921036.406                    85494128.040    20577450.484  
  20577448.164  
  23991605.023   126076741.540    23991612.488    98241640.2534   23991612.645  
                
  20069911.484   105468098.184    20069920.777    82182974.2124   20069921.270  
                
  19511086.273   104407774.669                    81206031.817    19511089.949  
  19511084.566  
  19473680.398   104061442.114                    80936670.087    19473685.168  
  19473680.754  
  22072811.000   115993406.313    22072815.793    90384488.3924                 
                
  23512263.453   123557774.139    23512269.922    96278800.2084   23512270.082  
                
 21  8 15  3 32 30.0000000  0 14G 6G12R24R18G29R14G20R16G 5G25R17R15
                                G 2G31
  24152425.016   126921832.902    24152435.883    98900162.1174   24152436.125  
                
  20680118.953   108674762.245    20680125.395    84681660.6454   20680125.551  
                
  23218473.070   124159590.835                    96568567.827    23218478.543  
  23218472.477  
  20008219.461   106805226.435                    83070724.031    20008223.305  
  20008218.039  
  21533793.453   113160842.971    21533800.320    88177311.2454   21533800.391  
                
  22924788.672   122202011.852                    95045994.602    22924794.328  
  22924788.355  
  22671388.031   119138948.434    22671394.711    92835570.5224                 
                
  20572447.148   109894320.338                    85473348.892    20572449.176  
  20572446.832  
  23985335.125   126043793.178    23985342.648    98215966.2134   23985342.801  
                
  20069100.391   105463835.873    20069109.684    82179652.9334   20069110.176  
                
  19514278.328   104424855.988                    81219317.281    19514281.988  
  19514276.617  
  19476902.555   104078660.279                    80950061.982    19476907.328  
  19476902.906  
  22076682.258   116013749.882    22076687.055    90400340.5164                 
                
  23508690.516   123538998.233    23508696.965    96264169.6274   23508697.125  
                
 21  8 15  3 32 40.0000000  0 14G 6G12R24R18G29R14G20R16G 5G25R17R15
                                G 2G31
  24158944.531   126956093.133    24158955.340    98926858.3844   24158955.590  
                
  20683307.055   108691515.776    20683313.531    84694715.3404   20683313.684  
                
  23225617.898   124197797.020                    96598283.719    23225623.340  
  23225617.352  
  20004815.133   106787053.879                    83056589.812    20004818.980  
  20004813.715  
  21530243.938   113142190.159    21530250.785    88162776.5914   21530250.871  
                
  22932833.500   122244894.787                    95079347.988    22932839.109  
  22932833.117  
  22667959.422   119120930.960    22667966.070    92821530.9454                 
                
  20567457.172   109867664.739                    85452616.741    20567459.180  
  20567456.867  
  23979067.555   126010857.003    23979075.113    98190301.6564   23979075.258  
                
  20068299.461   105459626.946    20068308.742    82176373.2434   20068309.227  
                
  19517479.680   104441986.979                    81232641.379    19517483.316  
  19517477.969  
  19480139.453   104095957.253                    80963515.182    19480144.234  
  19480139.812  
  22080560.570   116034130.484    22080565.387    90416221.4974                 
                
  23505127.906   123520276.594    23505134.312    96249581.3394   23505134.492  
                
 21  8 15  3 32 50.0000000  0 14G 6G12R24R18G29R14G20R16G 5G25R17R15
                                G 2G31
  24165467.484   126990371.384    24165478.199    98953568.6944   24165478.504  
                
  20686504.141   108708316.542    20686510.660    84707806.8344   20686510.797  
                
  23232762.914   124236004.306                    96628000.471    23232768.320  
  23232762.406  
  20001421.633   106768939.162                    83042500.600    20001425.504  
  20001420.199  
  21526700.000   113123566.623    21526706.840    88148264.7494   21526706.941  
                
  22940882.680   122287800.591                    95112719.147    22940888.172  
  22940882.184  
  22664539.930   119102961.346    22664546.566    92807528.6604                 
                
  20562478.594   109841070.035                    85431931.974    20562480.605  
  20562478.293  
  23972802.375   125977933.474    23972810.016    98164646.9584   23972810.129  
                
  20067508.750   105455471.699    20067518.023    82173135.3864   20067518.520  
                
  19520690.367   104459167.960                    81246004.362    19520694.004  
  19520688.660  
  19483391.156   104113333.295                    80977029.864    19483395.941  
  19483391.496  
  22084445.961   116054548.327    22084450.793    90432131.4974                 
                
  23501575.680   123501609.490    23501582.078    96235035.5504   23501582.273  
                
 21  8 15  3 33  0.0000000  0 15G 6G12R24R18G29R14G20R19R16G 5G25R17
                                R15G 2G31
  24171993.758   127024667.029    24172004.348    98980292.5694   24172004.715  
                
  20689710.102   108725163.980    20689716.668    84720934.7014   20689716.781  
                
  23239908.062   124274212.266                    96657717.761    23239913.410  
  23239907.551  
  19998038.883   106750881.856                    83028456.034    19998042.766  
  19998037.434  
  21523161.531   113104971.849    21523168.379    88133775.3214   21523168.496  
                
  22948935.852   122330728.415                    95146107.428    22948941.348  
  22948935.340  
  22661129.453   119085039.197    22661136.102    92793563.3364                 
                
  23598478.305   126235973.123                    98183519.539    23598480.395  
                
  20557511.336   109814535.808                    85411294.229    20557513.348  
  20557511.023  
  23966539.477   125945022.214    23966547.266    98139001.8394   23966547.355  
                
  20066728.164   105451369.703    20066737.426    82169939.0204   20066737.934  
                
  19523910.297   104476398.448                    81259405.852    19523913.934  
  19523908.609  
  19486657.508   104130787.652                    80990605.472    19486662.289  
  19486657.836  
  22088338.336   116075002.837    22088343.184    90448070.0724                 
                
  23498033.773   123482996.567    23498040.184    96220532.0014   23498040.371  
                
 21  8 15  3 33 10.0000000  0 15G 6G12R24R18G29R14G20R19R16G 5G25R17
                                R15G 2G31
  24178523.367   127058980.217    24178533.875    99007030.1114   24178534.289  
                
  20692925.000   108742058.347    20692931.625    84734099.1364   20692931.711  
                
  23247053.305   124312420.797                    96687435.481    23247058.598  
  23247052.781  
  19994666.953   106732882.295                    83014456.372    19994670.855  
  19994665.520  
  21519628.562   113086405.958    21519635.445    88119308.3894   21519635.551  
                
  22956993.164   122373678.510                    95179513.033    22956998.699  
  22956992.672  
  22657728.078   119067164.840    22657734.734    92779635.2714                 
                
  23591562.273   126198976.746                    98154744.564    23591564.594  
                
  20552555.469   109788062.455                    85390703.836    20552557.492  
  20552555.152  
  23960278.891   125912123.582    23960286.883    98113366.5594   23960286.969  
                
  20065957.758   105447321.207    20065967.008    82166784.3424   20065967.520  
                
  19527139.500   104493678.485                    81272845.864    19527143.125  
  19527137.828  
  19489938.586   104148320.731                    81004242.295    19489943.375  
  19489938.891  
  22092237.711   116095494.181    22092242.574    90464037.3484                 
                
  23494502.195   123464438.002    23494508.652    96206070.7754   23494508.828  
                
 21  8 15  3 33 20.0000000  0 15G 6G12R24R18G29R14G20R19R16G 5G25R17
                                R15G 2G31
  24185056.453   127093311.582    24185066.906    99033781.8044   24185067.340  
                
  20696148.961   108759000.333    20696155.637    84747300.6784   20696155.699  
                
  23254198.844   124350630.734                    96717154.280    23254204.086  
  23254198.285  
  19991305.953   106714941.046                    83000502.068    19991309.871  
  19991304.520  
  21516101.219   113067869.633    21516108.129    88104864.5034   21516108.234  
                
  22965054.773   122416651.565                    95212936.466    22965060.371  
  22965054.273  
  22654335.953   119049339.123    22654342.602    92765745.1004                 
                
  23584650.539   126162004.338                    98125988.204    23584652.984  
                
  20547611.133   109761650.647                    85370161.325    20547613.160  
  20547610.805  
  23954021.016   125879238.461    23954029.023    98087741.8054   23954029.125  
                
  20065197.688   105443326.977    20065206.934    82163671.9554   20065207.457  
                
  19530378.047   104511008.576                    81286324.815    19530381.664  
  19530376.371  
  19493234.523   104165933.184                    81017940.862    19493239.320  
  19493234.809  
  22096144.219   116116023.000    22096149.109    90480033.8144                 
                
  23490981.148   123445934.731    23490987.605    96191652.6284   23490987.754  
                
 21  8 15  3 33 30.0000000  0 15G 6G12R24R18G29R14G20R19R16G 5G25R17
                                R15G 2G31
  24191592.836   127127660.339    24191603.250    99060547.0534   24191603.715  
                
  20699381.844   108775989.224    20699388.559    84760538.7564   20699388.598  
                
  23261344.492   124388841.355                    96746873.635    23261349.719  
  23261343.879  
  19987955.766   106697057.489                    82986592.637    19987959.672  
  19987954.332  
  21512579.391   113049362.236    21512586.285    88090443.1454   21512586.398  
                
  22973120.445   122459646.714                    95246377.120    22973126.211  
  22973120.023  
  22650952.938   119031561.265    22650959.566    92751892.2414                 
                
  23577743.312   126125055.122                    98097249.912    23577745.609  
  23577740.902  
  20542678.242   109735300.022                    85349666.391    20542680.273  
  20542677.914  
  23947765.797   125846366.451    23947773.672    98062127.2444   23947773.793  
                
  20064447.812   105439386.341    20064457.059    82160601.3204   20064457.586  
                
  19533625.828   104528388.037                    81299842.181    19533629.426  
  19533624.168  
  19496545.156   104183624.152                    81031700.491    19496549.953  
  19496545.434  
  22100057.703   116136588.454    22100062.605    90496058.8314                 
                
  23487470.500   123427486.044    23487476.910    96177277.0174   23487477.043  
                
 21  8 15  3 33 40.0000000  0 15G 6G12R24R18G29R14G20R19R16G 5G25R17
                                R15G 2G31
  24198132.555   127162026.593    24198142.938    99087325.9324   24198143.395  
                
  20702623.695   108793025.266    20702630.445    84773813.5914   20702630.477  
                
  23268490.219   124427052.525                    96776593.410    23268495.434  
  23268489.559  
  19984616.414   106679231.818                    82972728.228    19984620.312  
  19984614.980  
  21509063.070   113030883.908    21509069.930    88076044.4444   21509070.043  
                
  22981190.234   122502663.905                    95279834.915    22981196.176  
  22981189.926  
  22647579.094   119013831.608    22647585.691    92738076.9074                 
                
  23570840.398   126088129.735                    98068530.175    23570842.867  
  23570837.895  
  20537756.867   109709010.937                    85329219.325    20537758.887  
  20537756.555  
  23941513.102   125813507.578    23941520.844    98036522.9254   23941520.938  
                
  20063708.180   105435499.564    20063717.430    82157572.6624   20063717.953  
                
  19536882.844   104545816.921                    81313397.971    19536886.422  
  19536881.195  
  19499870.492   104201393.752                    81045521.280    19499875.285  
  19499870.770  
  22103978.164   116157190.655    22103983.066    90512112.4844                 
                
  23483970.266   123409092.148    23483976.656    96162944.0844   23483976.762  
                
 21  8 15  3 33 50.0000000  0 15G 6G12R24R18G29R14G20R19R16G 5G25R17
                                R15G 2G31
  24204675.648   127196410.596    24204685.992    99114118.6464   24204686.473  
                
  20705874.586   108810108.786    20705881.371    84787125.4194   20705881.387  
                
  23275636.133   124465264.707                    96806313.963    23275641.367  
  23275635.480  
  19981288.000   106661464.545                    82958909.245    19981291.898  
  19981286.574  
  21505552.375   113012435.080    21505559.176    88061668.7404   21505559.316  
                
  22989264.359   122545703.505                    95313310.148    22989270.340  
  22989264.035  
  22644214.523   118996150.640    22644221.094    92724299.5324                 
                
  23563941.930   126051228.255                    98039829.009    23563944.555  
  23563939.707  
  20532847.133   109682783.980                    85308820.575    20532849.148  
  20532846.816  
  23935263.000   125780662.367    23935270.613    98010929.2464   23935270.695  
                
  20062978.875   105431667.029    20062988.125    82154586.2654   20062988.645  
                
  19540149.148   104563295.576                    81326992.476    19540152.711  
  19540147.508  
  19503210.641   104219242.431                    81059403.584    19503215.422  
  19503210.918  
  22107905.711   116177830.001    22107910.602    90528195.0894                 
                
  23480480.555   123390753.534    23480486.957    96148654.2684   23480487.051  
                
 21  8 15  3 34  0.0000000  0 15G 6G12R24R18G29R14G20R19R16G 5G25R17
                                R15G 2G31
  24211221.992   127230811.679    24211232.312    99140924.6524   24211232.801  
                
  20709134.391   108827239.185    20709141.203    84800473.7744   20709141.211  
                
  23282782.109   124503477.284                    96836034.837    23282787.375  
  23282781.461  
  19977970.383   106643754.892                    82945135.065    19977974.258  
  19977968.961  
  21502047.180   112994015.157    21502053.941    88047315.5504   21502054.113  
                
  22997342.586   122588764.742                    95346802.205    22997348.590  
  22997342.246  
  22640859.117   118978517.818    22640865.625    92710559.6634                 
                
  23557048.031   126014350.296                    98011146.147    23557050.668  
  23557045.801  
  20527948.844   109656618.181                    85288469.403    20527950.883  
  20527948.520  
  23929015.359   125747830.323    23929022.832    97985345.8154   23929022.930  
                
  20062259.789   105427888.170    20062269.039    82151641.6934   20062269.566  
                
  19543424.602   104580823.152                    81340625.028    19543428.145  
  19543422.949  
  19506565.453   104237169.531                    81073346.881    19506570.227  
  19506565.723  
  22111840.188   116198505.777    22111845.066    90544306.0684                 
                
  23477001.250   123372469.641    23477007.684    96134407.0744   23477007.777  
                
 21  8 15  3 34 10.0000000  0 15G 6G12R24R18G29R14G20R19R16G 5G25R17
                                R15G 2G31
  24217771.641   127265230.144    24217781.930    99167744.2224   24217782.410  
                
  20712403.180   108844416.773    20712410.000    84813858.9004   20712410.016  
                
  23289928.195   124541690.403                    96865756.123    23289933.504  
  23289927.508  
  19974663.641   106626103.284                    82931406.041    19974667.504  
  19974662.223  
  21498547.555   112975624.529    21498554.301    88032985.1864   21498554.488  
                
  23005425.000   122631848.069                    95380311.454    23005430.969  
  23005424.602  
  22637512.961   118960933.665    22637519.438    92696857.7394                 
                
  23550158.398   125977496.415                    97982482.013    23550161.270  
  23550156.316  
  20523062.188   109630514.556                    85268166.584    20523064.242  
  20523061.859  
  23922770.289   125715011.996    23922777.668    97959773.0974   23922777.801  
                
  20061550.992   105424163.434    20061560.250    82148739.2984   20061560.777  
                
  19546709.266   104598400.067                    81354295.947    19546712.785  
  19546707.586  
  19509934.984   104255175.269                    81087351.333    19509939.750  
  19509935.234  
  22115781.656   116219218.350    22115786.531    90560445.7294                 
                
  23473532.453   123354240.971    23473538.898    96120202.9074   23473538.980  
                
 21  8 15  3 34 20.0000000  0 15G 6G12R24R18G29R14G20R19R16G 5G25R17
                                R15G 2G31
  24224324.562   127299665.875    24224334.820    99194577.2264   24224335.281  
                
  20715680.938   108861641.498    20715687.750    84827280.7554   20715687.770  
                
  23297074.383   124579904.209                    96895477.936    23297079.746  
  23297073.672  
  19971367.781   106608509.705                    82917722.148    19971371.637  
  19971366.398  
  21495053.523   112957263.206    21495060.289    88018677.6624   21495060.469  
                
  23013511.570   122674953.263                    95413837.710    23013517.426  
  23013511.109  
  22634176.094   118943398.262    22634182.531    92683193.7914                 
                
  23543273.273   125940666.614                    97953836.596    23543276.363  
  23543271.332  
  20518187.188   109604473.149                    85247912.153    20518189.250  
  20518186.852  
  23916527.812   125682207.478    23916535.105    97934211.1184   23916535.297  
                
  20060852.500   105420492.827    20060861.766    82145879.0824   20060862.289  
                
  19550003.133   104616026.173                    81368005.134    19550006.660  
  19550001.434  
  19513319.242   104273259.702                    81101416.995    19513324.000  
  19513319.484  
  22119730.109   116239967.566    22119734.969    90576613.9484                 
                
  23470074.172   123336067.534    23470080.602    96106041.7924   23470080.719  
                
 21  8 15  3 34 30.0000000  0 15G 6G12R24R18G29R14G20R19R16G 5G25R17
                                R15G 2G31
  24230880.727   127334118.655    24230890.922    99221423.5314   24230891.395  
                
  20718967.641   108878913.220    20718974.441    84840739.2334   20718974.473  
                
  23304220.594   124618118.145                    96925199.859    23304225.996  
  23304219.855  
  19968082.789   106590974.155                    82904083.385    19968086.633  
  19968081.426  
  21491565.023   112938931.013    21491571.824    88004392.8454   21491571.988  
                
  23021602.055   122718080.040                    95447380.748    23021607.910  
  23021601.617  
  22630848.500   118925911.593    22630854.836    92669567.8034                 
                
  23536393.008   125903860.731                    97925209.792    23536395.941  
  23536390.859  
  20513323.789   109578493.709                    85227705.921    20513325.852  
  20513323.438  
  23910287.938   125649416.787    23910295.195    97908659.9274   23910295.438  
                
  20060164.297   105416876.244    20060173.570    82143060.9614   20060174.102  
                
  19553306.125   104633701.154                    81381752.339    19553309.637  
  19553304.410  
  19516718.188   104291422.622                    81115543.701    19516722.945  
  19516718.414  
  22123685.484   116260753.176    22123690.293    90592810.5214                 
                
  23466626.391   123317949.271    23466632.758    96091923.6604   23466632.918  
                
 21  8 15  3 34 40.0000000  0 15G 6G12R24R18G29R14G20R19R16G 5G25R17
                                R15G 2G31
  24237440.031   127368587.968    24237450.137    99248282.7294   24237450.629  
                
  20722263.203   108896231.508    20722269.992    84854233.9994   20722270.035  
                
  23311366.805   124656332.036                    96954921.750    23311372.223  
  23311366.039  
  19964808.562   106573496.118                    82890489.354    19964812.406  
  19964807.215  
  21488081.992   112920627.606    21488088.828    87990130.4404   21488088.965  
                
  23029696.539   122761227.973                    95480940.221    23029702.363  
  23029696.113  
  22627530.086   118908473.244    22627536.301    92655979.4644                 
                
  23529516.836   125867078.378                    97896601.289    23529519.891  
  23529514.781  
  20508471.984   109552576.270                    85207547.903    20508474.066  
  20508471.633  
  23904050.562   125616639.665    23904057.891    97883119.3134   23904058.180  
                
  20059486.297   105413313.338    20059495.590    82140284.6674   20059496.109  
                
  19556618.188   104651424.668                    81395537.284    19556621.707  
  19556616.453  
  19520131.695   104309663.403                    81129730.960    19520136.449  
  19520131.914  
  22127647.703   116281574.722    22127652.457    90609035.0914                 
                
  23463189.055   123299885.905    23463195.340    96077848.2914   23463195.559  
                
 21  8 15  3 34 50.0000000  0 15G 6G12R24R18G29R14G20R19R16G 5G25R17
                                R15G 2G31
  24244002.578   127403074.228    24244012.645    99275155.1074   24244013.160  
                
  20725567.727   108913596.867    20725574.504    84867765.4354   20725574.566  
                
  23318513.000   124694546.019                    96984643.713    23318518.500  
  23318512.230  
  19961545.234   106556076.179                    82876940.507    19961549.070  
  19961543.887  
  21484604.531   112902353.413    21484611.371    87975890.8134   21484611.500  
                
  23037794.938   122804397.200                    95514516.266    23037800.824  
  23037794.594  
  22624220.977   118891083.762    22624227.086    92642429.2244                 
                
  23522645.422   125830320.158                    97868011.567    23522648.344  
  23522643.191  
  20503631.883   109526721.306                    85187438.508    20503633.957  
  20503631.523  
  23897815.875   125583876.560    23897823.324    97857589.6544   23897823.621  
                
  20058818.617   105409804.600    20058827.930    82137550.5804   20058828.434  
                
  19559939.375   104669196.955                    81409360.164    19559942.891  
  19559937.656  
  19523559.930   104327982.734                    81143979.312    19523564.676  
  19523560.141  
  22131616.828   116302432.564    22131621.531    90625287.9424                 
                
  23459762.266   123281877.912    23459768.484    96063816.0924   23459768.738  
                
 21  8 15  3 35  0.0000000  0 15G 6G12R24R18G29R14G20R19R16G 5G25R17
                                R15G 2G31
  24250568.312   127437577.283    24250578.395    99302040.5694   24250578.898  
                
  20728881.195   108931009.262    20728887.965    84881333.5294   20728888.039  
                
  23325659.156   124732760.062                    97014365.707    23325664.809  
  23325658.402  
  19958292.758   106538714.245                    82863436.786    19958296.578  
  19958291.410  
  21481132.648   112884108.531    21481139.457    87961674.0214   21481139.590  
                
  23045897.453   122847587.742                    95548108.908    23045903.246  
  23045897.055  
  22620921.188   118873743.264    22620927.188    92628917.1384                 
                
  23515778.273   125793586.000                    97839440.562    23515781.301  
  23515776.109  
  20498803.484   109500928.879                    85167377.731    20498805.566  
  20498803.117  
  23891583.867   125551127.734    23891591.438    97832071.0874   23891591.734  
                
  20058161.234   105406350.041    20058170.570    82134858.7104   20058171.059  
                
  19563269.656   104687017.936                    81423220.918    19563273.156  
  19563267.941  
  19527002.789   104346380.320                    81158288.540    19527007.523  
  19527003.012  
  22135592.844   116323326.676    22135597.496    90641569.0624                 
                
  23456346.008   123263925.339    23456352.195    96049827.0654   23456352.453  
                
 21  8 15  3 35 10.0000000  0 15G 6G12R24R18G29R14G20R19R16G 5G25R17
                                R15G 2G31
  24257137.195   127472096.841    24257147.281    99328938.8914   24257147.785  
                
  20732203.562   108948468.445    20732210.328    84894938.0814   20732210.395  
                
  23332805.359   124770974.219                    97044087.788    23332811.094  
  23332804.609  
  19955051.109   106521410.105                    82849978.015    19955054.914  
  19955049.773  
  21477666.266   112865892.593    21477673.027    87947479.7784   21477673.176  
                
  23054003.945   122890799.318                    95581717.917    23054009.629  
  23054003.480  
  22617630.695   118856451.638    22617636.648    92615443.1404                 
                
  23508915.766   125756875.683                    97810888.088    23508918.711  
  23508913.523  
  20493986.766   109475198.899                    85147365.516    20493988.848  
  20493986.383  
  23885354.555   125518393.081    23885362.238    97806563.5744   23885362.551  
                
  20057514.125   105402949.529    20057523.484    82132208.9574   20057523.957  
                
  19566608.961   104704887.196                    81437119.223    19566612.441  
  19566607.266  
  19530460.273   104364856.073                    81172658.566    19530464.996  
  19530460.496  
  22139575.711   116344256.791    22139580.316    90657878.2384                 
                
  23452940.250   123246027.985    23452946.379    96035881.0794   23452946.664  
                
 21  8 15  3 35 20.0000000  0 15G 6G12R24R18G29R14G20R19R16G 5G25R17
                                R15G 2G31
  24263709.273   127506633.170    24263719.348    99355850.3044   24263719.867  
                
  20735534.906   108965974.764    20735541.660    84908579.3604   20735541.730  
                
  23339951.633   124809188.591                    97073810.047    23339957.395  
  23339950.848  
  19951820.359   106504164.101                    82836564.453    19951824.156  
  19951819.027  
  21474205.500   112847706.103    21474212.230    87933308.4814   21474212.379  
                
  23062114.383   122934032.060                    95615343.371    23062119.988  
  23062113.879  
  22614349.570   118839209.276    22614355.566    92602007.5454                 
                
  23502057.688   125720189.745                    97782354.562    23502060.668  
  23502055.496  
  20489181.844   109449531.895                    85127402.285    20489183.934  
  20489181.465  
  23879128.031   125485673.072    23879135.836    97781067.4714   23879136.156  
                
  20056877.391   105399603.400    20056886.770    82129601.5784   20056887.227  
                
  19569957.375   104722805.187                    81451055.433    19569960.844  
  19569955.703  
  19533932.438   104383410.208                    81187089.553    19533937.156  
  19533932.668  
  22143565.500   116365223.180    22143570.070    90674215.6764                 
                
  23449545.109   123228186.403    23449551.145    96021978.5224   23449551.480  
                
 21  8 15  3 35 30.0000000  0 15G 6G12R24R18G29R14G20R19R16G 5G25R17
                                R15G 2G31
  24270284.492   127541186.046    24270294.559    99382774.6084   24270295.078  
                
  20738875.180   108983527.998    20738881.926    84922257.2024   20738881.996  
                
  23347097.836   124847402.646                    97103532.069    23347103.645  
  23347096.973  
  19948600.469   106486976.097                    82823195.996    19948604.277  
  19948599.137  
  21470750.312   112829548.978    21470757.051    87919160.0714   21470757.211  
                
  23070228.688   122977285.749                    95648985.112    23070234.281  
  23070228.211  
  22611077.828   118822016.167    22611083.891    92588610.3284                 
                
  23495204.258   125683528.200                    97753840.032    23495207.477  
  23495202.559  
  20484388.727   109423927.912                    85107488.085    20484390.805  
  20484388.328  
  23872904.359   125452967.720    23872912.242    97755582.7944   23872912.559  
                
  20056250.977   105396311.595    20056260.371    82127036.5354   20056260.832  
                
  19573314.828   104740771.540                    81465029.257    19573318.293  
  19573313.160  
  19537419.219   104402042.484                    81201581.318    19537423.949  
  19537419.445  
  22147562.117   116386225.527    22147566.668    90690581.1314                 
                
  23446160.547   123210400.425    23446166.520    96008119.3144   23446166.891  
                
 21  8 15  3 35 40.0000000  0 15G 6G12R24R18G29R14G20R19R16G 5G25R17
                                R15G 2G31
  24276862.797   127575755.194    24276872.852    99409711.5794   24276873.383  
                
  20742224.359   109001128.013    20742231.082    84935971.4934   20742231.168  
                
  23354243.938   124885616.440                    97133253.858    23354249.812  
  23354242.980  
  19945391.438   106469846.030                    82809872.612    19945395.238  
  19945390.113  
  21467300.641   112811420.816    21467307.402    87905034.2344   21467307.559  
                
  23078346.867   123020560.085                    95682642.905    23078352.449  
  23078346.387  
  22607815.414   118804872.099    22607821.531    92575251.2984                 
                
  23488355.414   125646891.005                    97725344.471    23488358.871  
  23488353.566  
  20479607.406   109398386.978                    85087622.915    20479609.484  
  20479607.039  
  23866683.453   125420276.782    23866691.414    97730109.3454   23866691.707  
                
  20055634.867   105393073.924    20055644.277    82124513.6684   20055644.738  
                
  19576681.258   104758785.997                    81479040.496    19576684.723  
  19576679.586  
  19540920.602   104420752.753                    81216133.734    19540925.348  
  19540920.848  
  22151565.539   116407263.610    22151570.082    90706974.4474                 
                
  23442786.562   123192669.939    23442792.500    95994303.3434   23442792.871  
                
 21  8 15  3 35 50.0000000  0 15G 6G12R24R18G29R14G20R19R16G 5G25R17
                                R15G 2G31
  24283444.195   127610340.687    24283454.262    99436661.2944   24283454.797  
                
  20745582.453   109018774.868    20745589.152    84949722.2814   20745589.262  
                
  23361390.055   124923829.958                    97162975.468    23361395.945  
  23361389.027  
  19942193.258   106452773.894                    82796594.282    19942197.074  
  19942191.926  
  21463856.562   112793322.019    21463863.352    87890931.2774   21463863.488  
                
  23086468.867   123063855.115                    95716316.780    23086474.527  
  23086468.414  
  22604562.406   118787777.445    22604568.570    92561930.8034                 
                
  23481511.188   125610278.141                    97696867.774    23481514.438  
  23481509.188  
  20474837.906   109372909.107                    85067806.790    20474839.957  
  20474837.559  
  23860465.477   125387600.732    23860473.449    97704647.4874   23860473.727  
                
  20055029.117   105389890.624    20055038.543    82122033.1694   20055038.992  
                
  19580056.719   104776848.664                    81493089.237    19580060.172  
  19580055.047  
  19544436.586   104439541.030                    81230746.828    19544441.355  
  19544436.840  
  22155575.797   116428337.539    22155580.332    90723395.6744                 
                
  23439423.172   123174995.124    23439429.102    95980530.7654   23439429.492  
                
 21  8 15  3 36  0.0000000  0 15G 6G12R24R18G29R14G20R19R16G 5G25R17
                                R15G 2G31
  24290028.641   127644942.260    24290038.715    99463623.5174   24290039.227  
                
  20748949.414   109036468.364    20748956.082    84963509.4134   20748956.203  
                
  23368536.016   124962042.673                    97192696.464    23368541.883  
  23368534.996  
  19939005.898   106435759.584                    82783360.935    19939009.711  
  19939004.559  
  21460418.016   112775252.338    21460424.805    87876851.0114   21460424.938  
                
  23094594.734   123107170.577                    95750006.563    23094600.418  
  23094594.270  
  22601318.766   118770732.042    22601324.992    92548648.6824                 
                
  23474671.391   125573689.401                    97668409.831    23474674.586  
  23474669.328  
  20470080.227   109347494.400                    85048039.803    20470082.273  
  20470079.879  
  23854250.320   125354939.397    23854258.242    97679197.0984   23854258.527  
                
  20054433.664   105386761.502    20054443.105    82119594.8924   20054443.543  
                
  19583441.117   104794959.203                    81507175.206    19583444.570  
  19583439.434  
  19547967.117   104458407.104                    81245420.432    19547971.895  
  19547967.383  
  22159592.820   116449447.119    22159597.352    90739844.6944                 
                
  23436070.352   123157375.944    23436076.285    95966801.5414   23436076.672  
                
 21  8 15  3 36 10.0000000  0 15G 6G12R24R18G29R14G20R19R16G 5G25R17
                                R15G 2G31
  24296616.188   127679560.126    24296626.262    99490598.4504   24296626.773  
                
  20752325.320   109054208.849    20752331.957    84977333.1614   20752332.094  
                
  23375681.953   125000255.221                    97222417.320    23375687.848  
  23375680.895  
  19935829.477   106418803.592                    82770172.942    19935833.293  
  19935828.137  
  21456985.062   112757212.019    21456991.824    87862793.6174   21456991.965  
                
  23102724.469   123150506.696                    95783712.410    23102730.133  
  23102724.008  
  22598084.602   118753736.359    22598090.902    92535405.2894                 
                
  23467835.844   125537125.532                    97639971.273    23467839.391  
  23467834.039  
  20465334.453   109322143.348                    85028322.319    20465336.516  
  20465334.105  
  23848037.961   125322293.249    23848045.891    97653758.5464   23848046.184  
                
  20053848.594   105383686.962    20053858.059    82117199.1454   20053858.484  
                
  19586834.508   104813117.866                    81521298.605    19586837.965  
  19586832.824  
  19551512.273   104477351.282                    81260154.782    19551517.055  
  19551512.547  
  22163616.680   116470592.622    22163621.211    90756321.6994                 
                
  23432728.203   123139812.809    23432734.113    95953115.9734   23432734.492  
                
 21  8 15  3 36 20.0000000  0 15G 6G12R24R18G29R14G20R19R16G 5G25R17
                                R15G 2G31
  24303206.836   127714194.122    24303216.875    99517585.9634   24303217.406  
                
  20755710.148   109071996.201    20755716.770    84991193.4334   20755716.910  
                
  23382827.820   125038467.533                    97252137.958    23382833.746  
  23382826.746  
