     2.11           OBSERVATION DATA    M (MIXED)           RINEX VERSION / TYPE
EFT-CORS.RU                             20210817 150639 UTC PGM / RUN BY / DATE 
MDNG                                                        MARKER NAME         
                                                            MARKER NUMBER       
MDNG                EFT-CORS.RU                             OBSERVER / AGENCY   
0                   TRIMBLE BD970       2.0                 REC # / TYPE / VERS 
0                   UNKNOWN EXT NONE                        ANT # / TYPE        
  3463911.2830  3030468.2400  4402179.3760                  APPROX POSITION XYZ 
        0.0000        0.0000        0.0000                  ANTENNA: DELTA H/E/N
     1     1                                                WAVELENGTH FACT L1/2
     6    C1    L1    P2    L2    C2    P1                  # / TYPES OF OBSERV 
    10.000                                                  INTERVAL            
  2021     8    14    14    30    0.0000000     GPS         TIME OF FIRST OBS   
  2021     8    14    15    30    0.0000000     GPS         TIME OF LAST OBS    
     0                                                      RCV CLOCK OFFS APPL 
                                                            END OF HEADER       
 21  8 14 14 30  0.0000000  0 19G 4G17R 7R22G26G 9R23G21G 1R15G22R 8
                                R16G 3R 6R21G19R 9G31
  21308313.250   111975966.787    21308320.871    87254052.9454   21308320.805  
                
  24416994.789   128312172.305    24417002.414    99983539.6314   24417002.492  
                
  19960067.133   106847833.010                    83103880.005    19960071.438  
  19960066.055  
  20926637.312   111707796.044                    86883872.024    20926640.645  
  20926635.762  
  24360357.438   128014535.328    24360368.082    99751637.2854   24360367.910  
                
  24142154.195   126867887.057    24142164.211    98858137.2494   24142164.164  
                
  22358498.180   119602894.834                                                  
  22358496.434  
  22922145.125   120456668.875    22922151.629    93862390.6454                 
                
  21431956.719   112625711.353    21431967.469    87760337.7454   21431966.961  
                
  23474717.906   125441796.599                    97565841.034    23474722.879  
  23474718.109  
  20726081.352   108916318.226    20726085.926    84869893.3804                 
                
  22878074.492   122511056.258                    95286400.267    22878078.078  
  22878073.816  
  20911167.805   111703726.161                    86880706.600    20911169.820  
  20911167.246  
  20296684.547   106659828.659    20296693.070    83111604.6074   20296693.434  
                
  20529637.609   109550096.643                                                  
  20529635.320  
  23213688.773   124221116.703                    96616411.448    23213693.914  
  23213686.527  
  24128639.672   126796860.884    24128646.133    98802774.5494                 
                
  21989755.477   117424082.394                    91329842.945    21989759.691  
  21989754.863  
  21755782.453   114327439.457    21755788.699    89086368.6204   21755789.039  
                
 21  8 14 14 30 10.0000000  0 19G 4G17R 7R22G26G 9R23G21G 1R15G22R 8
                                R16G 3R 6R21G19R 9G31
  21304815.516   111957586.142    21304823.098    87239730.3674   21304823.055  
                
  24420188.109   128328952.942    24420195.684    99996615.4484   24420195.746  
                
  19958279.711   106838264.797                    83096438.078    19958284.020  
  19958278.625  
  20931046.617   111731333.135                    86902178.627    20931049.934  
  20931045.082  
  24355457.672   127988786.909    24355468.305    99731573.5914   24355468.152  
                
  24136329.148   126837276.529    24136339.199    98834284.9244   24136339.156  
                
  22353947.773   119578553.242                                                  
  22353946.027  
  22927661.477   120485657.526    22927668.004    93884979.1924                 
                
  21437223.836   112653390.206    21437234.605    87781905.6684   21437234.090  
                
  23480356.656   125471928.288                    97589276.784    23480361.637  
  23480356.816  
  20727657.094   108924598.820    20727661.641    84876345.7894                 
                
  22872733.672   122482456.601                    95264156.130    22872737.312  
  22872732.988  
  20910129.148   111698177.884                    86876391.276    20910131.164  
  20910128.602  
  20295862.586   106655509.195    20295871.094    83108238.7854   20295871.453  
                
  20533141.289   109568792.957                                                  
  20533138.992  
  23222047.438   124265845.335                    96651200.339    23222052.555  
  23222045.176  
  24130139.719   126804743.580    24130146.180    98808916.8984                 
                
  21982827.695   117387088.730                    91301070.099    21982831.945  
  21982827.109  
  21759257.781   114345702.448    21759264.027    89100599.5114   21759264.363  
                
 21  8 14 14 30 20.0000000  0 19G 4G17R 7R22G26G 9R23G21G 1R15G22R 8
                                R16G 3R 6R21G19R 9G31
  21301324.531   111939240.963    21301332.074    87225435.4284   21301332.059  
                
  24423388.859   128345772.760    24423396.422   100009721.7994   24423396.461  
                
  19956498.141   106828727.905                    83089020.489    19956502.445  
  19956497.055  
  20935470.219   111754946.478                    86920544.568    20935473.562  
  20935468.691  
  24350562.180   127963060.922    24350572.762    99711527.3604   24350572.637  
                
  24130506.969   126806681.203    24130517.070    98810444.4364   24130517.023  
                
  22349411.469   119554287.101                                                  
  22349409.738  
  22933182.703   120514671.672    22933189.234    93907587.6114                 
                
  21442499.758   112681115.347    21442510.508    87803509.6764   21442510.008  
                
  23486006.359   125502118.579                    97612758.130    23486011.348  
  23486006.523  
  20729240.805   108932921.362    20729245.332    84882830.8744                 
                
  22867394.656   122453866.659                    95241919.512    22867398.324  
  22867393.977  
  20909107.469   111692720.311                    86872146.522    20909109.484  
  20909106.922  
  20295048.805   106651232.794    20295057.289    83104906.5204   20295057.668  
                
  20536649.820   109587515.221                                                  
  20536647.516  
  23230408.016   124310584.461                    96685997.402    23230413.152  
  23230405.785  
  24131651.594   126812688.489    24131658.031    98815107.7264                 
                
  21975907.234   117350133.455                    91272327.126    21975911.383  
  21975906.590  
  21762744.648   114364026.148    21762750.891    89114877.7154   21762751.246  
                
 21  8 14 14 30 30.0000000  0 19G 4G17R 7R22G26G 9R23G21G 1R15G22R 8
                                R16G 3R 6R21G19R 9G31
  21297840.320   111920931.273    21297847.828    87211168.1294   21297847.836  
                
  24426597.031   128362631.739    24426604.562   100022858.6624   24426604.602  
                
  19954722.453   106819222.472                    83081627.366    19954726.746  
  19954721.371  
  20939908.086   111778635.959                    86938969.697    20939911.418  
  20939906.555  
  24345670.977   127937357.465    24345681.543    99691498.6984   24345681.461  
                
  24124687.766   126776101.116    24124697.844    98786615.8034   24124697.812  
                
  22344889.289   119530096.403                                                  
  22344887.555  
  22938708.773   120543711.170    22938715.316    93930215.7824                 
                
  21447784.484   112708886.726    21447795.211    87825149.7044   21447794.730  
                
  23491667.039   125532367.396                    97636284.956    23491672.043  
  23491667.211  
  20730832.547   108941285.982    20730837.066    84889348.7574                 
                
  22862057.562   122425286.673                    95219690.651    22862061.215  
  22862056.859  
  20908102.812   111687353.630                    86867972.428    20908104.840  
  20908102.250  
  20294243.242   106646999.492    20294251.707    83101607.8414   20294252.094  
                
  20540163.250   109606263.502                                                  
  20540160.934  
  23238770.484   124355333.933                    96720802.495    23238775.703  
  23238768.324  
  24133175.305   126820695.530    24133181.715    98821346.9814                 
                
  21968994.008   117313216.703                    91243614.106    21968998.074  
  21968993.285  
  21766243.070   114382410.483    21766249.309    89129203.1734   21766249.656  
                
 21  8 14 14 30 40.0000000  0 19G 4G17R 7R22G26G 9R23G21G 1R15G22R 8
                                R16G 3R 6R21G19R 9G31
  21294362.859   111902657.129    21294370.367    87196928.5394   21294370.379  
                
  24429812.648   128379529.810    24429820.156   100036025.9574   24429820.191  
                
  19952952.633   106809748.428                    83074258.678    19952956.914  
  19952951.559  
  20944360.203   111802401.581                    86957454.060    20944363.531  
  20944358.680  
  24340784.094   127911676.704    24340794.676    99671487.7234   24340794.617  
                
  24118871.422   126745536.294    24118881.559    98762799.0934   24118881.535  
                
  22340381.250   119505981.451                                                  
  22340379.516  
  22944239.656   120572776.081    22944246.258    93952863.7454                 
                
  21453078.016   112736704.323    21453088.734    87846825.7324   21453088.246  
                
  23497338.633   125562674.526                    97659857.148    23497343.609  
  23497338.852  
  20732432.258   108949692.564    20732436.770    84895899.3374                 
                
  22856722.258   122396716.382                    95197469.344    22856725.914  
  22856721.551  
  20907115.148   111682077.738                    86863868.961    20907117.191  
  20907114.574  
  20293445.906   106642809.416    20293454.348    83098342.8444   20293454.742  
                
  20543681.531   109625037.698                                                  
  20543679.223  
  23247134.945   124400093.770                    96755615.658    23247140.184  
  23247132.758  
  24134710.859   126828764.780    24134717.246    98827634.7014                 
                
  21962087.977   117276338.810                    91214931.323    21962092.039  
  21962087.203  
  21769753.047   114400855.479    21769759.273    89143575.8874   21769759.609  
                
 21  8 14 14 30 50.0000000  0 19G 4G17R 7R22G26G 9R23G21G 1R15G22R 8
                                R16G 3R 6R21G19R 9G31
  21290892.211   111884418.764    21290899.734    87182716.8334   21290899.734  
                
  24433035.742   128396467.025    24433043.219   100049223.7874   24433043.246  
                
  19951188.695   106800305.944                    83066914.529    19951192.973  
  19951187.641  
  20948826.570   111826243.322                    86975997.634    20948829.918  
  20948825.062  
  24335901.586   127886018.954    24335912.184    99651494.6834   24335912.117  
                
  24113058.031   126714987.026    24113068.227    98738994.5134   24113068.219  
                
  22335887.406   119481942.488                                                  
  22335885.680  
  22949775.398   120601866.527    22949782.012    93975531.6074                 
                
  21458380.336   112764568.174    21458391.051    87868537.8224   21458390.551  
                
  23503021.164   125593040.150                    97683474.867    23503026.148  
  23503021.441  
  20734040.008   108958141.384    20734044.512    84902482.8264                 
                
  22851388.797   122368156.258                    95175255.961    22851392.508  
  22851388.043  
  20906144.570   111676893.162                    86859836.523    20906146.648  
  20906143.992  
  20292656.820   106638662.768    20292665.246    83095111.6914   20292665.660  
                
  20547204.766   109643838.256                                                  
  20547202.438  
  23255501.336   124444863.963                    96790436.888    23255506.594  
  23255499.109  
  24136258.266   126836896.314    24136264.641    98833970.9654                 
                
  21955189.180   117239500.052                    91186278.962    21955193.309  
  21955188.453  
  21773274.555   114419361.202    21773280.762    89157995.9394   21773281.125  
                
 21  8 14 14 31  0.0000000  0 19G 4G17R 7R22G26G 9R23G21G 1R15G22R 8
                                R16G 3R 6R21G19R 9G31
  21287428.328   111866215.950    21287435.883    87168532.8254   21287435.859  
                
  24436266.266   128413443.133    24436273.719   100062451.9194   24436273.734  
                
  19949430.641   106790894.874                    83059594.805    19949434.914  
  19949429.594  
  20953307.133   111850160.775                    86994600.096    20953310.496  
  20953305.656  
  24331023.438   127860384.131    24331034.082    99631519.5034   24331034.023  
                
  24107247.633   126684453.081    24107257.801    98715201.8564   24107257.789  
                
  22331407.781   119457979.498                                                  
  22331406.055  
  22955315.930   120630982.070    22955322.523    93998219.0314                 
                
  21463691.422   112792478.039    21463702.098    87890285.7594   21463701.613  
                
  23508714.578   125623463.826                    97707137.709    23508719.559  
  23508714.883  
  20735655.766   108966632.201    20735660.273    84909099.0494                 
                
  22846057.258   122339606.086                    95153050.285    22846060.969  
  22846056.504  
  20905191.062   111671799.697                    86855874.939    20905193.160  
  20905190.496  
  20291875.977   106634559.382    20291884.391    83091914.2514   20291884.816  
                
  20550732.906   109662665.012                                                  
  20550730.586  
  23263869.516   124489644.057                    96825265.801    23263874.898  
  23263867.348  
  24137817.484   126845089.955    24137823.766    98840355.6124                 
                
  21948297.734   117202700.395                    91157657.038    21948301.898  
  21948297.055  
  21776807.586   114437927.420    21776813.758    89172463.1184   21776814.152  
                
 21  8 14 14 31 10.0000000  0 19G 4G17R 7R22G26G 9R23G21G 1R15G22R 8
                                R16G 3R 6R21G19R 9G31
  21283971.180   111848048.567    21283978.758    87154376.4294   21283978.711  
                
  24439504.102   128430457.826    24439511.555   100075710.0934   24439511.555  
                
  19947678.422   106781515.129                    83052299.446    19947682.691  
  19947677.387  
  20957801.836   111874153.818                    87013261.346    20957805.191  
  20957800.352  
  24326149.664   127834772.226    24326160.332    99611562.1674   24326160.254  
                
  24101440.242   126653934.411    24101450.266    98691421.0854   24101450.254  
                
  22326942.352   119434092.444                                                  
  22326940.625  
  22960861.203   120660122.574    22960867.809    94020925.9144                 
                
  21469011.203   112820433.674    21469021.820    87912069.3604   21469021.367  
                
  23514418.805   125653945.364                    97730845.567    23514423.773  
  23514419.141  
  20737279.500   108975164.978    20737284.000    84915747.9644                 
                
  22840727.477   122311065.480                    95130852.031    22840731.168  
  22840726.691  
  20904254.555   111666797.075                    86851984.001    20904256.691  
  20904253.977  
  20291103.336   106630499.159    20291111.734    83088750.4384   20291112.164  
                
  20554265.867   109681517.545                                                  
  20554263.547  
  23272239.594   124534433.857                    96860102.258    23272245.012  
  23272237.469  
  24139388.469   126853345.493    24139394.578    98846788.5434                 
                
  21941413.648   117165939.860                    91129065.516    21941417.785  
  21941412.980  
  21780352.078   114456553.907    21780358.223    89186977.2644   21780358.629  
                
 21  8 14 14 31 20.0000000  0 19G 4G17R 7R22G26G 9R23G21G 1R15G22R 8
                                R16G 3R 6R21G19R 9G31
  21280520.836   111829916.909    21280528.414    87140247.8744   21280528.355  
                
  24442749.297   128447511.428    24442756.801   100088998.5984   24442756.770  
                
  19945932.125   106772166.981                    83045028.662    19945936.391  
  19945931.086  
  20962310.734   111898222.464                    87031981.398    20962314.066  
  20962309.234  
  24321280.336   127809183.630    24321291.008    99591622.9914   24321290.918  
                
  24095635.734   126623431.244    24095645.652    98667652.4134   24095645.648  
                
  22322491.203   119410281.666                                                  
  22322489.496  
  22966411.266   120689288.230    22966417.875    94043652.3844                 
                
  21474339.742   112848435.268    21474350.312    87933888.7824   21474349.875  
                
  23520133.906   125684485.012                    97754598.649    23520138.844  
  23520134.293  
  20738911.273   108983740.036    20738915.770    84922429.8244                 
                
  22835399.617   122282534.993                    95108661.708    22835403.320  
  22835398.805  
  20903335.102   111661885.534                    86848163.923    20903337.297  
  20903334.496  
  20290338.984   106626482.422    20290347.375    83085620.5184   20290347.812  
                
  20557803.719   109700396.224                                                  
  20557801.406  
  23280611.484   124579233.430                    96894946.343    23280616.945  
  23280609.418  
  24140971.258   126861663.101    24140977.203    98853269.7944                 
                
  21934536.969   117129218.968                    91100504.830    21934541.109  
  21934536.352  
  21783908.094   114475240.830    21783914.223    89201538.5034   21783914.625  
                
 21  8 14 14 31 30.0000000  0 19G 4G17R 7R22G26G 9R23G21G 1R15G22R 8
                                R16G 3R 6R21G19R 9G31
  21277077.242   111811820.743    21277084.793    87126146.9704   21277084.742  
                
  24446001.844   128464603.556    24446009.348   100102317.1174   24446009.293  
                
  19944191.672   106762850.178                    83037782.267    19944195.941  
  19944190.621  
  20966833.750   111922366.674                    87050760.202    20966837.102  
  20966832.281  
  24316415.391   127783618.222    24316426.070    99571701.8924   24316425.992  
                
  24089834.133   126592943.437    24089843.930    98643895.6954   24089843.938  
                
  22318054.297   119386547.096                                                  
  22318052.621  
  22971966.062   120718478.802    22971972.711    94066398.2744                 
                
  21479676.953   112876482.457    21479687.480    87955743.7284   21479687.055  
                
  23525859.781   125715082.205                    97778396.452    23525864.734  
  23525860.199  
  20740551.055   108992357.083    20740555.535    84929144.4084                 
                
  22830073.617   122254014.341                    95086478.956    22830077.234  
  22830072.797  
  20902432.711   111657065.155                    86844414.740    20902434.926  
  20902432.082  
  20289582.867   106622508.982    20289591.250    83082524.3354   20289591.691  
                
  20561346.461   109719300.757                                                  
  20561344.156  
  23288985.070   124624042.438                    96929797.759    23288990.609  
  23288983.047  
  24142565.812   126870042.500    24142571.703    98859799.1564                 
                
  21927667.695   117092537.555                    91071974.872    21927671.871  
  21927667.094  
  21787475.547   114493987.877    21787481.668    89216146.5864   21787482.070  
                
 21  8 14 14 31 40.0000000  0 19G 4G17R 7R22G26G 9R23G21G 1R15G22R 8
                                R16G 3R 6R21G19R 9G31
  21273640.430   111793760.209    21273647.949    87112073.8244   21273647.922  
                
  24449261.727   128481734.189    24449269.184   100115665.6624   24449269.098  
                
  19942457.094   106753564.836                    83030560.343    19942461.371  
  19942456.023  
  20971370.852   111946585.988                    87069597.448    20971374.223  
  20971369.402  
  24311554.883   127758076.209    24311565.598    99551799.0534   24311565.516  
                
  24084035.438   126562471.055    24084045.133    98620150.9994   24084045.145  
                
  22313631.680   119362888.962                                                  
  22313630.070  
  22977525.547   120747694.291    22977532.273    94089163.5614                 
                
  21485022.844   112904575.296    21485033.336    87977634.2474   21485032.926  
                
  23531596.422   125745737.019                    97802239.066    23531601.383  
  23531596.855  
  20742198.836   109001016.254    20742203.293    84935891.8094                 
                
  22824749.391   122225503.425                    95064303.850    22824752.980  
  22824748.605  
  20901547.359   111652335.830                    86840736.365    20901549.590  
  20901546.723  
  20288835.000   106618578.938    20288843.371    83079461.9664   20288843.816  
                
  20564894.055   109738231.296                                                  
  20564891.738  
  23297360.406   124668860.819                    96964656.477    23297366.039  
  23297358.414  
  24144172.117   126878483.608    24144178.012    98866376.6134                 
                
  21920805.875   117055896.026                    91043475.925    21920810.055  
  21920805.281  
  21791054.430   114512795.055    21791060.547    89230801.5344   21791060.949  
                
 21  8 14 14 31 50.0000000  0 19G 4G17R 7R22G26G 9R23G21G 1R15G22R 8
                                R16G 3R 6R21G19R 9G31
  21270210.375   111775735.135    21270217.891    87098028.3114   21270217.859  
                
  24452528.875   128498903.107    24452536.293   100129044.0284   24452536.238  
                
  19940728.352   106744310.786                    83023362.748    19940732.621  
  19940727.281  
  20975921.992   111970880.297                    87088493.014    20975925.363  
  20975920.535  
  24306698.852   127732557.552    24306709.566    99531914.3964   24306709.477  
                
  24078239.766   126532013.999    24078249.258    98596418.2214   24078249.293  
                
  22309223.352   119339307.197                                                  
  22309221.738  
  22983089.727   120776934.441    22983096.516    94111948.0704                 
                
  21490377.375   112932713.493    21490387.828    87999560.0964   21490387.430  
                
  23537343.789   125776449.113                    97826126.255    23537348.715  
  23537344.219  
  20743854.617   109009717.379    20743859.031    84942671.9044                 
                
  22819427.000   122197002.391                    95042136.377    22819430.559  
  22819426.238  
  20900679.070   111647697.621                    86837128.881    20900681.344  
  20900678.449  
  20288095.375   106614692.199    20288103.734    83076433.3374   20288104.188  
                
  20568446.500   109757187.760                                                  
  20568444.176  
  23305737.453   124713688.146                    96999522.125    23305743.152  
  23305735.496  
  24145790.148   126886986.315    24145796.113    98873002.0634                 
                
  21913951.578   117019294.305                    91015007.924    21913955.680  
  21913950.965  
  21794644.727   114531662.186    21794650.852    89245503.1914   21794651.234  
                
 21  8 14 14 32  0.0000000  0 19G 4G17R 7R22G26G 9R23G21G 1R15G22R 8
                                R16G 3R 6R21G19R 9G31
  21266787.109   111757745.778    21266794.637    87084010.6314   21266794.594  
                
  24455803.305   128516110.404    24455810.746   100142452.2994   24455810.703  
                
  19939005.531   106735088.285                    83016189.700    19939009.781  
  19939004.473  
  20980487.195   111995249.651                    87107446.941    20980490.566  
  20980485.758  
  24301847.336   127707062.587    24301858.051    99512048.2124   24301857.965  
                
  24072446.930   126501572.531    24072456.387    98572697.6164   24072456.441  
                
  22304829.344   119315802.128                                                  
  22304827.711  
  22988658.688   120806199.406    22988665.473    94134751.9254                 
                
  21495740.578   112960897.221    21495751.016    88021521.4414   21495750.613  
                
  23543101.891   125807218.652                    97850058.120    23543106.793  
  23543102.277  
  20745518.430   109018460.729    20745522.797    84949484.8964                 
                
  22814106.555   122168511.616                    95019976.911    22814110.082  
  22814105.730  
  20899827.906   111643150.858                    86833592.525    20899830.199  
  20899827.324  
  20287364.055   106610849.033    20287372.398    83073438.6594   20287372.863  
                
  20572003.773   109776169.976                                                  
  20572001.449  
  23314116.383   124758524.554                    97034394.833    23314121.984  
  23314114.316  
  24147419.953   126895550.769    24147425.973    98879675.6614                 
                
  21907104.773   116982732.673                    90986571.093    21907108.812  
  21907104.145  
  21798246.453   114550589.359    21798252.590    89260251.6314   21798252.957  
                
 21  8 14 14 32 10.0000000  0 19G 4G17R 7R22G26G 9R23G21G 1R15G22R 8
                                R16G 3R 6R21G19R 9G31
  21263370.625   111739792.061    21263378.191    87070020.7324   21263378.133  
                
  24459084.969   128533356.056    24459092.500   100155890.4764   24459092.453  
                
  19937288.609   106725897.450                    83009041.269    19937292.844  
  19937287.547  
  20985066.430   112019693.793                    87126459.052    20985069.754  
  20985064.977  
  24297000.305   127681591.379    24297011.102    99492200.5644   24297011.016  
                
  24066656.984   126471146.601    24066666.469    98548989.1374   24066666.535  
                
  22300449.688   119292373.931                                                  
  22300448.027  
  22994232.359   120835488.952    22994239.117    94157574.9464                 
                
  21501112.406   112989126.318    21501122.844    88043518.1244   21501122.438  
                
  23548870.664   125838045.258                    97874034.350    23548875.582  
  23548871.023  
  20747190.250   109027246.170    20747194.566    84956330.6874                 
                
  22808787.930   122140030.636                    94997825.047    22808791.457  
  22808787.043  
  20898993.766   111638695.018                    86830126.873    20898996.051  
  20898993.199  
  20286641.008   106607049.416    20286649.332    83070477.9124   20286649.805  
                
  20575565.953   109795178.326                                                  
  20575563.637  
  23322496.883   124803369.788                    97069274.415    23322502.465  
  23322494.793  
  24149061.469   126904176.853    24149067.512    98886397.2784                 
                
  21900265.484   116946211.430                    90958165.704    21900269.496  
  21900264.840  
  21801859.578   114569576.439    21801865.711    89275046.7624   21801866.062  
                
 21  8 14 14 32 20.0000000  0 19G 4G17R 7R22G26G 9R23G21G 1R15G22R 8
                                R16G 3R 6R21G19R 9G31
  21259960.961   111721874.196    21259968.570    87056058.7714   21259968.504  
                
  24462373.984   128550640.303    24462381.586   100169358.6934   24462381.504  
                
  19935577.594   106716738.263                    83001917.465    19935581.836  
  19935576.531  
  20989659.711   112044213.091                    87145529.612    20989662.984  
  20989658.250  
  24292157.859   127656144.206    24292168.727    99472371.6434   24292168.621  
                
  24060870.125   126440736.409    24060879.578    98525292.9054   24060879.641  
                
  22296084.445   119269022.874                                                  
  22296082.758  
  22999810.703   120864803.253    22999817.477    94180417.2384                 
                
  21506492.883   113017400.862    21506503.348    88065550.2224   21506502.926  
                
  23554650.180   125868929.226                    97898055.216    23554655.082  
  23554650.531  
  20748870.125   109036073.935    20748874.383    84963209.4634                 
                
  22803471.227   122111559.861                    94975681.127    22803474.758  
  22803470.371  
  20898176.797   111634330.961                    86826732.611    20898179.117  
  20898176.242  
  20285926.289   106603293.543    20285934.602    83067551.2544   20285935.070  
                
  20579132.961   109814212.560                                                  
  20579130.672  
  23330879.086   124848223.987                    97104160.971    23330884.613  
  23330876.938  
  24150714.734   126912864.693    24150720.785    98893167.0314                 
                
  21893433.828   116909730.756                    90929791.840    21893437.809  
  21893433.195  
  21805484.125   114588623.509    21805490.238    89289888.6374   21805490.590  
                
 21  8 14 14 32 30.0000000  0 19G 4G17R 7R22G26G 9R23G21G 1R15G22R 8
                                R16G 3R 6R21G19R 9G31
  21256558.094   111703992.054    21256565.750    87042124.6374   21256565.656  
                
  24465670.227   128567962.556    24465677.863   100182856.5444   24465677.773  
                
  19933872.469   106707610.595                    82994818.163    19933876.715  
  19933871.422  
  20994266.992   112068806.906                    87164658.124    20994270.262  
  20994265.500  
  24287319.984   127630721.091    24287330.863    99452561.4344   24287330.766  
                
  24055086.258   126410341.864    24055095.637    98501608.8734   24055095.695  
                
  22291733.602   119245748.835                                                  
  22291731.918  
  23005393.711   120894142.046    23005400.543    94203278.6154                 
                
  21511881.969   113045720.608    21511892.469    88087617.5524   21511892.039  
                
  23560440.359   125899870.151                    97922120.385    23560445.254  
  23560440.711  
  20750558.039   109044943.916    20750562.242    84970121.1264                 
                
  22798156.344   122083098.800                    94953544.745    22798159.879  
  22798155.527  
  20897376.945   111630058.260                    86823409.396    20897379.250  
  20897376.391  
  20285219.875   106599581.338    20285228.172    83064658.6204   20285228.652  
                
  20582704.883   109833272.887                                                  
  20582702.609  
  23339262.914   124893086.727                    97139054.157    23339268.316  
  23339260.648  
  24152379.703   126921614.104    24152385.715    98899984.7394                 
                
  21886609.758   116873290.747                    90901449.615    21886613.770  
  21886609.137  
  21809120.047   114607730.380    21809126.145    89304777.1084   21809126.492  
                
 21  8 14 14 32 40.0000000  0 19G 4G17R 7R22G26G 9R23G21G 1R15G22R 8
                                R16G 3R 6R21G19R 9G31
  21253161.984   111686145.387    21253169.664    87028218.1574   21253169.551  
                
  24468973.586   128585322.498    24468981.281   100196383.7474   24468981.227  
                
  19932173.195   106698514.216                    82987743.212    19932177.445  
  19932172.164  
  20998888.172   112093475.049                    87183844.449    20998891.457  
  20998886.707  
  24282486.656   127605321.893    24282497.559    99432769.8734   24282497.465  
                
  24049305.281   126379962.747    24049314.625    98477936.8574   24049314.684  
                
  22287397.156   119222551.737                                                  
  22287395.484  
  23010981.344   120923505.064    23010988.227    94226158.8684                 
                
  21517279.586   113074085.206    21517290.086    88109719.8284   21517289.672  
                
  23566241.117   125930867.584                    97946229.489    23566246.004  
  23566241.457  
  20752253.938   109053855.889    20752258.094    84977065.5254                 
                
  22792843.344   122054647.883                    94931416.276    22792846.934  
  22792842.562  
  20896594.156   111625876.766                    86820157.128    20896596.457  
  20896593.637  
  20284521.734   106595912.578    20284530.023    83061799.8424   20284530.504  
                
  20586281.594   109852358.875                                                  
  20586279.320  
  23347648.109   124937957.743                    97173953.811    23347653.531  
  23347645.941  
  24154056.312   126930424.761    24154062.227    98906850.2064                 
                
  21879793.242   116836891.290                    90873138.961    21879797.375  
  21879792.648  
  21812767.320   114626896.827    21812773.406    89319712.0024   21812773.754  
                
 21  8 14 14 32 50.0000000  0 19G 4G17R 7R22G26G 9R23G21G 1R15G22R 8
                                R16G 3R 6R21G19R 9G31
  21249772.703   111668334.587    21249780.371    87014339.6054   21249780.266  
                
  24472284.203   128602720.425    24472291.934   100209940.5814   24472291.918  
                
  19930479.867   106689449.645                    82980692.993    19930484.117  
  19930478.855  
  21003523.297   112118217.569                    87203088.631    21003526.586  
  21003521.840  
  24277658.000   127579947.088    24277668.891    99412997.2954   24277668.785  
                
  24043527.273   126349599.458    24043536.613    98454277.1554   24043536.660  
                
  22283075.203   119199432.082                                                  
  22283073.543  
  23016573.609   120952892.504    23016580.539    94249058.1544                 
                
  21522685.805   113102494.986    21522696.297    88131857.3044   21522695.887  
                
  23572052.531   125961921.944                    97970382.876    23572057.383  
  23572052.906  
  20753957.898   109062810.172    20753962.008    84984042.8844                 
                
  22787532.203   122026206.917                    94909295.560    22787535.824  
  22787531.438  
  20895828.516   111621786.866                    86816976.108    20895830.844  
  20895828.008  
  20283831.945   106592287.684    20283840.223    83058975.2464   20283840.703  
                
  20589863.211   109871470.946                                                  
  20589860.934  
  23356034.969   124982837.123                    97208859.975    23356040.344  
  23356032.793  
  24155744.656   126939296.993    24155750.512    98913763.6364                 
                
  21872984.461   116800532.906                    90844860.235    21872988.637  
  21872983.867  
  21816425.961   114646123.074    21816432.043    89334693.4934   21816432.391  
                
 21  8 14 14 33  0.0000000  0 19G 4G17R 7R22G26G 9R23G21G 1R15G22R 8
                                R16G 3R 6R21G19R 9G31
  21246390.180   111650559.325    21246397.828    87000488.7574   21246397.734  
                
  24475601.992   128620156.005    24475609.766   100223526.7154   24475609.793  
                
  19928792.391   106680416.449                    82973667.182    19928796.648  
  19928791.383  
  21008172.289   112143034.158                    87222390.412    21008175.586  
  21008170.832  
  24272833.922   127554596.420    24272844.781    99393243.5224   24272844.648  
                
  24037752.172   126319251.649    24037761.531    98430629.5354   24037761.570  
                
  22278767.664   119176389.579                                                  
  22278766.051  
  23022170.406   120982303.962    23022177.363    94271976.1594                 
                
  21528100.523   113130949.472    21528111.035    88154029.6284   21528110.621  
                
  23577874.469   125993032.576                    97994580.022    23577879.297  
  23577874.863  
  20755669.859   109071806.565    20755673.922    84991053.0624                 
                
  22782222.930   121997775.974                    94887182.597    22782226.555  
  22782222.191  
  20895079.961   111617788.225                    86813866.062    20895082.293  
  20895079.477  
  20283150.430   106588706.326    20283158.684    83056184.5754   20283159.176  
                
  20593449.602   109890608.586                                                  
  20593447.328  
  23364423.281   125027724.365                    97243772.227    23364428.625  
  23364421.129  
  24157444.648   126948230.373    24157450.484    98920724.7224                 
                
  21866183.336   116764215.394                    90816613.297    21866187.512  
  21866182.719  
  21820095.883   114665408.612    21820101.973    89349721.1824   21820102.316  
                
 21  8 14 14 33 10.0000000  0 19G 4G17R 7R22G26G 9R23G21G 1R15G22R 8
                                R16G 3R 6R21G19R 9G31
  21243014.445   111632819.754    21243022.078    86986665.7134   21243021.988  
                
  24478926.977   128637629.297    24478934.809   100237142.2354   24478934.879  
                
  19927110.812   106671414.828                    82966665.925    19927115.062  
  19927109.797  
  21012835.141   112167924.817                    87241749.788    21012838.488  
  21012833.648  
  24268014.461   127529270.166    24268025.348    99373508.7944   24268025.207  
                
  24031980.164   126288919.506    24031989.426    98406994.1174   24031989.461  
                
  22274474.617   119153424.538                                                  
  22274473.016  
  23027771.797   121011739.550    23027778.754    94294912.9664                 
                
  21533523.758   113159448.723    21533534.293    88176236.8234   21533533.867  
                
  23583706.969   126024199.624                    98018821.049    23583711.785  
  23583707.320  
  20757389.852   109080845.111    20757393.871    84998096.0874                 
                
  22776915.477   121969355.000                    94865077.420    22776919.125  
  22776914.770  
  20894348.500   111613880.917                    86810827.061    20894350.836  
  20894348.023  
  20282477.250   106585168.709    20282485.492    83053427.9894   20282485.992  
                
  20597040.844   109909772.115                                                  
  20597038.562  
  23372813.117   125072619.498                    97278690.627    23372818.422  
  23372810.977  
  24159156.289   126957225.052    24159162.113    98927733.5394                 
                
  21859389.930   116727939.258                    90788398.558    21859394.129  
  21859389.324  
  21823777.102   114684753.491    21823783.184    89364795.0994   21823783.535  
                
 21  8 14 14 33 20.0000000  0 19G 4G17R 7R22G26G 9R23G21G 1R15G22R 8
                                R16G 3R 6R21G19R 9G31
  21239645.516   111615115.899    21239653.152    86972870.5054   21239653.062  
                
  24482259.141   128655140.166    24482267.027   100250787.0354   24482267.129  
                
  19925435.117   106662444.674                    82959689.136    19925439.367  
  19925434.090  
  21017511.875   112192889.488                    87261166.746    21017515.242  
  21017510.320  
  24263199.664   127503968.461    24263210.594    99353793.2044   24263210.465  
                
  24026211.141   126258603.095    24026220.359    98383370.9604   24026220.391  
                
  22270196.078   119130537.060                                                  
  22270194.480  
  23033377.773   121041199.280    23033384.730    94317868.5864                 
                
  21538955.508   113187992.662    21538966.082    88198478.8394   21538965.633  
                
  23589549.977   126055422.862                    98043105.765    23589554.766  
  23589550.324  
  20759117.852   109089925.773    20759121.836    85005171.9174                 
                
  22771609.875   121940943.888                    94842979.893    22771613.465  
  22771609.141  
  20893634.172   111610065.089                    86807859.183    20893636.512  
  20893633.680  
  20281812.391   106581674.880    20281820.621    83050705.5244   20281821.121  
                
  20600636.922   109928961.456                                                  
  20600634.605  
  23381204.523   125117522.501                    97313615.135    23381209.680  
  23381202.262  
  24160879.570   126966280.969    24160885.402    98934790.0764                 
                
  21852604.289   116691704.346                    90760215.845    21852608.469  
  21852603.703  
  21827469.617   114704157.745    21827475.707    89379915.2964   21827476.059  
                
 21  8 14 14 33 30.0000000  0 19G 4G17R 7R22G26G 9R23G21G 1R15G22R 8
                                R16G 3R 6R21G19R 9G31
  21236283.375   111597447.742    21236291.035    86959103.1254   21236290.938  
                
  24485598.484   128672688.569    24485606.387   100264461.1234   24485606.512  
                
  19923765.312   106653506.041                    82952736.869    19923769.566  
  19923764.285  
  21022202.406   112217927.905                    87280641.066    21022205.789  
  21022200.789  
  24258389.578   127478691.440    24258400.504    99334096.8384   24258400.410  
                
  24020445.047   126228302.391    24020454.309    98359760.0364   24020454.324  
                
  22265932.031   119107727.239                                                  
  22265930.426  
  23038988.328   121070682.954    23038995.258    94340842.8544                 
                
  21544395.734   113216581.186    21544406.340    88220755.5924   21544405.859  
                
  23595403.477   126086702.128                    98067434.087    23595408.238  
  23595403.832  
  20760853.883   109099048.560    20760857.844    85012280.5864                 
                
  22766306.164   121912542.816                    94820890.192    22766309.750  
  22766305.426  
  20892937.023   111606341.045                    86804962.751    20892939.367  
  20892936.523  
  20281155.875   106578224.858    20281164.098    83048017.1904   20281164.602  
                
  20604237.828   109948176.535                                                  
  20604235.500  
  23389597.148   125162432.950                    97348545.443    23389602.332  
  23389594.867  
  24162614.469   126975397.911    24162620.254    98941894.1544                 
                
  21845826.477   116655511.235                    90732065.655    21845830.633  
  21845825.902  
  21831173.406   114723621.208    21831179.520    89395081.6324   21831179.859  
                
 21  8 14 14 33 40.0000000  0 19G 4G17R 7R22G26G 9R23G21G 1R15G22R 8
                                R16G 3R 6R21G19R 9G31
  21232928.039   111579815.347    21232935.730    86945363.6014   21232935.621  
                
  24488944.938   128690274.447    24488952.863   100278164.3884   24488953.023  
                
  19922101.438   106644599.161                    82945809.292    19922105.691  
  19922100.410  
  21026906.766   112243039.998                    87300172.677    21026910.160  
  21026905.125  
  24253584.227   127453439.217    24253595.207    99314419.8084   24253595.102  
                
  24014681.875   126198017.474    24014691.281    98336161.4394   24014691.293  
                
  22261682.531   119084995.262                                                  
  22261680.879  
  23044603.453   121100190.492    23044610.348    94363835.7124                 
                
  21549844.438   113245214.225    21549855.023    88243067.0354   21549854.551  
                
  23601267.469   126118037.442                    98091806.004    23601272.195  
  23601267.746  
  20762597.930   109108213.568    20762601.875    85019422.1394                 
                
  22761004.375   121884151.939                    94798808.430    22761007.930  
  22761003.648  
  20892257.008   111602708.530                    86802137.441    20892259.324  
  20892256.516  
  20280507.711   106574818.710    20280515.922    83045363.0504   20280516.430  
                
  20607843.578   109967417.547                                                  
  20607841.254  
  23397991.133   125207350.876                    97383481.569    23397996.371  
  23397988.844  
  24164360.992   126984575.924    24164366.676    98949045.8944                 
                
  21839056.500   116619359.868                    90703947.935    21839060.613  
  21839055.918  
  21834888.445   114743143.788    21834894.582    89410294.0264   21834894.918  
                
 21  8 14 14 33 50.0000000  0 19G 4G17R 7R22G26G 9R23G21G 1R15G22R 8
                                R16G 3R 6R21G19R 9G31
  21229579.516   111562218.753    21229587.242    86931651.9694   21229587.109  
                
  24492298.562   128707897.740    24492306.508   100291896.7984   24492306.680  
                
  19920443.453   106635723.798                    82938906.234    19920447.699  
  19920442.430  
  21031624.891   112268225.597                    87319761.473    21031628.266  
  21031623.195  
  24248783.617   127428211.932    24248794.660    99294762.1984   24248794.496  
                
  24008921.781   126167748.395    24008931.273    98312575.1684   24008931.266  
                
  22257447.594   119062341.301                                                  
  22257445.875  
  23050223.148   121129721.877    23050229.980    94386847.1904                 
                
  21555301.594   113273891.698    21555312.129    88265413.1174   21555311.672  
                
  23607141.875   126149428.584                    98116221.327    23607146.609  
  23607142.055  
  20764350.023   109117420.865    20764353.953    85026596.6464                 
                
  22755704.453   121855771.214                    94776734.531    22755707.988  
  22755703.746  
  20891594.133   111599167.628                    86799383.400    20891596.418  
  20891593.641  
  20279867.891   106571456.494    20279876.094    83042743.1404   20279876.605  
                
  20611454.203   109986684.506                                                  
  20611451.863  
  23406386.367   125252276.202                    97418423.455    23406391.797  
  23406384.211  
  24166119.141   126993814.998    24166124.727    98956245.1764                 
                
  21832294.336   116583250.345                    90675862.748    21832298.391  
  21832293.727  
  21838614.727   114762725.471    21838620.895    89425552.4884   21838621.211  
                
 21  8 14 14 34  0.0000000  0 19G 4G17R 7R22G26G 9R23G21G 1R15G22R 8
                                R16G 3R 6R21G19R 9G31
  21226237.812   111544657.966    21226245.570    86917968.2454   21226245.422  
                
  24495659.344   128725558.323    24495667.289   100305658.2684   24495667.449  
                
  19918791.406   106626880.203                    82932027.898    19918795.660  
  19918790.375  
  21036356.773   112293484.717                    87339407.456    21036360.129  
  21036355.090  
  24243987.766   127403009.707    24243998.859    99275124.1284   24243998.660  
                
  24003164.688   126137495.187    24003174.297    98289001.2774   24003174.277  
                
  22253227.266   119039765.416                                                  
  22253225.496  
  23055847.414   121159277.096    23055854.129    94409877.2274                 
                
  21560767.203   113302613.548    21560777.711    88287793.7784   21560777.254  
                
  23613026.719   126180875.374                    98140679.930    23613031.445  
  23613026.871  
  20766110.164   109126670.413    20766114.090    85033804.0824                 
                
  22750406.414   121827400.556                    94754668.493    22750409.926  
  22750405.699  
  20890948.438   111595718.396                    86796700.694    20890950.715  
  20890947.938  
  20279236.461   106568138.268    20279244.656    83040157.5094   20279245.195  
                
  20615069.633   110005977.071                                                  
  20615067.277  
  23414782.789   125297208.525                    97453370.786    23414788.535  
  23414780.848  
  24167888.914   127003115.104    24167894.438    98963492.0194                 
                
  21825540.055   116547182.959                    90647810.337    21825544.090  
  21825539.445  
  21842352.266   114782366.273    21842358.469    89440857.0144   21842358.770  
                
 21  8 14 14 34 10.0000000  0 19G 4G17R 7R22G26G 9R23G21G 1R15G22R 8
                                R16G 3R 6R21G19R 9G31
  21222902.914   111527132.940    21222910.680    86904312.3794   21222910.535  
                
  24499027.148   128743256.260    24499035.160   100319448.8444   24499035.293  
                
  19917145.234   106618068.131                    82925174.055    19917149.477  
  19917144.191  
  21041102.359   112318816.968                    87359110.307    21041105.719  
  21041100.680  
  24239196.711   127377832.649    24239207.852    99255505.6614   24239207.652  
                
  23997410.609   126107257.795    23997420.320    98265439.7074   23997420.281  
                
  22249021.523   119017267.667                                                  
  22249019.738  
  23061476.172   121188855.973    23061482.766    94432925.6954                 
                
  21566241.211   113331379.612    21566251.719    88310208.8804   21566251.262  
                
  23618921.938   126212377.689                    98165181.751    23618926.645  
  23618922.066  
  20767878.328   109135962.179    20767882.250    85041044.4084                 
                
  22745110.258   121799039.959                    94732610.267    22745113.734  
  22745109.523  
  20890319.898   111592360.849                    86794089.255    20890322.156  
  20890319.414  
  20278613.391   106564864.006    20278621.574    83037606.1354   20278622.109  
                
  20618689.875   110025295.343                                                  
  20618687.559  
  23423180.375   125342147.956                    97488323.624    23423186.602  
  23423178.785  
  24169670.250   127012476.138    24169675.750    98970786.3054                 
                
  21818793.688   116511157.751                    90619790.739    21818797.699  
  21818793.109  
  21846100.992   114802065.945    21846107.246    89456207.3974   21846107.508  
                
 21  8 14 14 34 20.0000000  0 19G 4G17R 7R22G26G 9R23G21G 1R15G22R 8
                                R16G 3R 6R21G19R 9G31
  21219574.789   111509643.568    21219582.562    86890684.3064   21219582.410  
                
  24502401.977   128760991.097    24502410.051   100333268.1774   24502410.156  
                
  19915504.992   106609287.746                    82918344.870    19915509.219  
  19915503.941  
  21045861.633   112344222.234                    87378869.957    21045864.941  
  21045859.941  
  24234410.461   127352680.717    24234421.590    99235906.7484   24234421.395  
                
  23991659.727   126077036.196    23991669.375    98241890.4424   23991669.340  
                
  22244830.406   118994848.129                                                  
  22244828.613  
  23067109.359   121218458.230    23067115.855    94455992.3834                 
                
  21571723.594   113360189.694    21571734.082    88332658.2814   21571733.641  
                
  23624827.523   126243935.365                    98189726.605    23624832.227  
  23624827.656  
  20769654.523   109145296.092    20769658.453    85048317.5764                 
                
  22739815.953   121770689.360                    94710559.827    22739819.441  
  22739815.219  
  20889708.492   111589094.815                    86791549.013    20889710.766  
  20889708.016  
  20277998.664   106561633.633    20278006.832    83035088.9594   20278007.383  
                
  20622314.930   110044639.314                                                  
  20622312.629  
  23431579.484   125387093.994                    97523281.577    23431585.871  
  23431577.984  
  24171463.148   127021897.845    24171468.672    98978127.8424                 
                
  21812055.242   116475174.851                    90591804.063    21812059.266  
  21812054.652  
  21849860.898   114821824.368    21849867.195    89471603.5674   21849867.430  
                
 21  8 14 14 34 30.0000000  0 19G 4G17R 7R22G26G 9R23G21G 1R15G22R 8
                                R16G 3R 6R21G19R 9G31
  21216253.445   111492189.786    21216261.215    86877083.9554   21216261.066  
                
  24505783.828   128778762.596    24505791.906   100347116.0764   24505792.012  
                
  19913870.594   106600538.649                    82911540.012    19913874.809  
  19913869.535  
  21050634.516   112369700.255                    87398686.175    21050637.816  
  21050632.832  
  24229629.016   127327553.966    24229640.137    99216327.4534   24229639.930  
                
  23985911.789   126046830.282    23985921.398    98218353.3824   23985921.359  
                
  22240653.914   118972506.698                                                  
  22240652.152  
  23072746.969   121248083.786    23072753.422    94479077.2214                 
                
  21577214.312   113389043.586    21577224.746    88355141.8264   21577224.336  
                
  23630743.438   126275548.149                    98214314.302    23630748.133  
  23630743.574  
  20771438.727   109154672.161    20771442.664    85055623.6024                 
                
  22734523.539   121742348.735                    94688517.136    22734527.020  
  22734522.770  
  20889114.203   111585920.239                    86789079.911    20889116.473  
  20889113.766  
  20277392.289   106558447.099    20277400.438    83032605.9404   20277401.000  
                
  20625944.766   110064008.803                                                  
  20625942.496  
  23439980.164   125432046.493                    97558244.589    23439986.324  
  23439978.434  
  24173267.578   127031380.156    24173273.133    98985516.6504                 
                
  21805324.758   116439234.413                    90563850.405    21805328.770  
  21805324.148  
  21853631.961   114841641.358    21853638.281    89487045.3734   21853638.504  
                
 21  8 14 14 34 40.0000000  0 18G 4G17R 7R22G26G 9R23G21G 1G22R 8R16
                                G 3R 6R21G19R 9G31
  21212938.852   111474771.495    21212946.621    86863511.2714   21212946.477  
                
  24509172.641   128796570.593    24509180.738   100360992.4364   24509180.820  
                
  19912242.039   106591820.908                    82904759.544    19912246.262  
  19912240.977  
  21055420.984   112395250.752                    87418558.781    21055424.305  
  21055419.336  
  24224852.320   127302452.377    24224863.461    99196767.7884   24224863.250  
                
  23980166.797   126016639.973    23980176.371    98194828.4914   23980176.305  
                
  22236492.078   118950243.559                                                  
  22236490.320  
  23078388.977   121277732.436    23078395.410    94502180.0534                 
                
  21582713.328   113417941.111    21582723.719    88377659.3644   21582723.324  
                
  20773230.930   109164090.192    20773234.871    85062962.3204                 
                
  22729232.953   121714017.885                    94666482.047    22729236.430  
  22729232.109  
  20888537.039   111582837.181                    86786681.985    20888539.320  
  20888536.613  
  20276794.242   106555304.326    20276802.371    83030157.0164   20276802.957  
                
  20629579.367   110083403.680                                                  
  20629577.113  
  23448381.961   125477005.182                    97593212.427    23448387.941  
  23448380.062  
  24175083.484   127040922.819    24175089.016    98992952.5224                 
                
  21798602.219   116403336.399                    90535929.746    21798606.215  
  21798601.602  
  21857414.133   114861516.766    21857420.445    89502532.6984   21857420.664  
                
 21  8 14 14 34 50.0000000  0 18G 4G17R 7R22G26G 9R23G21G 1G22R 8R16
                                G 3R 6R21G19R 9G31
  21209631.086   111457389.085    21209638.867    86849966.5374   21209638.715  
                
  24512568.438   128814415.515    24512576.574   100374897.5434   24512576.645  
                
  19910619.438   106583134.961                    82898003.811    19910623.664  
  19910618.363  
  21060221.109   112420874.093                    87438488.036    21060224.391  
  21060219.465  
  24220080.523   127277376.464    24220091.652    99177228.1104   24220091.477  
                
  23974424.898   125986465.708    23974434.422    98171316.0984   23974434.312  
                
  22232344.898   118928058.908                                                  
  22232343.137  
  23084035.359   121307404.533    23084041.871    94525301.1504                 
                
  21588220.703   113446882.553    21588231.043    88400211.1274   21588230.664  
                
  20775031.172   109173550.515    20775035.117    85070333.9974                 
                
  22723944.250   121685697.171                    94644454.822    22723947.691  
  22723943.391  
