     2.11           OBSERVATION DATA    M (MIXED)           RINEX VERSION / TYPE
EFT-CORS.RU                             20210817 145204 UTC PGM / RUN BY / DATE 
MDNG                                                        MARKER NAME         
                                                            MARKER NUMBER       
MDNG                EFT-CORS.RU                             OBSERVER / AGENCY   
0                   TRIMBLE BD970       2.0                 REC # / TYPE / VERS 
0                   UNKNOWN EXT NONE                        ANT # / TYPE        
  3463911.2830  3030468.2400  4402179.3760                  APPROX POSITION XYZ 
        0.0000        0.0000        0.0000                  ANTENNA: DELTA H/E/N
     1     1                                                WAVELENGTH FACT L1/2
     6    C1    L1    P2    L2    C2    P1                  # / TYPES OF OBSERV 
    10.000                                                  INTERVAL            
  2021     8    15     7    30    0.0000000     GPS         TIME OF FIRST OBS   
  2021     8    15     8    30    0.0000000     GPS         TIME OF LAST OBS    
     0                                                      RCV CLOCK OFFS APPL 
                                                            END OF HEADER       
 21  8 15  7 30  0.0000000  0 18G15R20R 4G26R 9G18R18G29R 3R 5R19G27
                                G 5G13G16R10G23G10
  22687599.977   119224171.808    22687608.090    92901992.5234   22687607.801  
                
  20804493.570   111251009.553                    86528594.920    20804500.465  
  20804492.719  
  20086966.438   107564819.071                    83661532.455    20086969.660  
  20086965.586  
  21993426.508   115576240.570    21993437.145    90059445.8054   21993436.938  
                
  23207458.000   123926519.806                    96387271.493    23207462.199  
  23207456.797  
  20399186.172   107198456.399    20399193.242    83531301.7944   20399193.281  
                
  23109969.922   123362548.549                    95948634.312    23109974.703  
  23109967.789  
  22852037.281   120088245.209    22852044.934    93575283.1934   22852045.039  
                
  21925422.797   117368474.737                    91286661.221    21925428.070  
  21925421.648  
  22082384.234   118043004.712                    91811232.118    22082389.910  
  22082384.414  
  20185808.133   107980496.115                    83984815.754    20185812.188  
  20185806.488  
  23261255.445   122238704.193    23261265.090    95251003.0674   23261265.145  
                
  24510859.328   128805433.417    24510867.770   100367891.1384   24510868.086  
                
  24069466.148   126485893.525    24069474.402    98560488.7064                 
                
  21877653.000   114967853.014    21877659.652    89585374.0764                 
                
  21998157.703   117262558.553                                                  
  21998156.887  
  20516785.016   107816467.520    20516792.645    84012879.1204   20516792.488  
                
  22419384.875   117814668.202    22419394.949    91803697.4974   22419394.414  
                
 21  8 15  7 30 10.0000000  0 18G15R20R 4G26R 9G18R18G29R 3R 5R19G27
                                G 5G13G16R10G23G10
  22686095.625   119216266.408    22686103.734    92895832.4834   22686103.453  
                
  20800484.812   111229573.034                    86511922.064    20800491.703  
  20800484.000  
  20084808.211   107553261.894                    83652543.534    20084811.402  
  20084807.355  
  21996979.672   115594912.537    21996990.246    90073995.3724   21996990.070  
                
  23214722.109   123965309.490                    96417441.235    23214726.250  
  23214720.871  
  20400834.242   107207117.080    20400841.305    83538050.3654   20400841.348  
                
  23115426.844   123391678.018                    95971290.543    23115431.660  
  23115424.723  
  22857656.586   120117774.922    22857664.242    93598293.3514   22857664.344  
                
  21930465.758   117395469.987                    91307657.500    21930471.031  
  21930464.602  
  22074452.891   118000607.452                    91778256.507    22074458.586  
  22074453.062  
  20187996.359   107992201.632                    83993920.037    20188000.434  
  20187994.715  
  23255172.203   122206736.645    23255181.832    95226093.2954   23255181.922  
                
  24517736.484   128841572.972    24517744.953   100396051.8224   24517745.250  
                
  24069420.930   126485655.891    24069429.148    98560303.5334                 
                
  21877054.523   114964707.998    21877061.199    89582923.4134                 
                
  22001458.922   117280155.968                                                  
  22001458.109  
  20514264.547   107803222.453    20514272.172    84002558.2934   20514272.008  
                
  22413614.367   117784344.048    22413624.488    91780068.2904   22413623.938  
                
 21  8 15  7 30 20.0000000  0 18G15R20R 4G26R 9G18R18G29R 3R 5R19G27
                                G 5G13G16R10G23G10
  22684603.773   119208426.574    22684611.902    92889723.5304   22684611.637  
                
  20796480.008   111208157.535                    86495265.590    20796486.898  
  20796479.195  
  20082666.875   107541795.011                    83643624.849    20082670.039  
  20082666.023  
  22000542.664   115613636.093    22000553.188    90088585.1594   22000553.055  
                
  23221989.438   124004116.422                    96447624.393    23221993.582  
  23221988.168  
  20402488.594   107215810.698    20402495.660    83544824.6144   20402495.695  
                
  23120886.555   123420822.890                    95993958.778    23120891.480  
  23120884.566  
  22863281.383   120147333.435    22863289.059    93621325.9454   22863289.160  
                
  21935521.445   117422533.389                    91328706.799    21935526.727  
  21935520.305  
  22066527.156   117958240.645                    91745304.581    22066532.977  
  22066527.375  
  20190191.062   108003941.720                    84003051.209    20190195.145  
  20190189.430  
  23249092.062   122174785.419    23249101.668    95201196.2534   23249101.801  
                
  24524616.383   128877726.925    24524624.895   100424223.7114   24524625.180  
                
  24069387.922   126485482.332    24069396.090    98560168.2814                 
                
  21876469.195   114961632.016    21876475.895    89580526.5394                 
                
  22004774.219   117297828.195                                                  
  22004773.402  
  20511755.430   107790036.904    20511763.043    83992283.8434   20511762.879  
                
  22407850.211   117754053.215    22407860.340    91756465.0454   22407859.801  
                
 21  8 15  7 30 30.0000000  0 18G15R20R 4G26R 9G18R18G29R 3R 5R19G27
                                G 5G13G16R10G23G10
  22683124.336   119200652.080    22683132.520    92883665.4864   22683132.234  
                
  20792479.070   111186762.766                    86478625.205    20792485.961  
  20792478.254  
  20080542.305   107530418.011                    83634776.065    20080545.457  
  20080541.449  
  22004115.398   115632410.929    22004125.898    90103214.8974   22004125.805  
                
  23229259.852   124042940.392                    96477820.766    23229264.070  
  23229258.637  
  20404149.148   107224536.993    20404156.207    83551624.3224   20404156.238  
                
  23126349.078   123449982.726                    96016638.614    23126354.098  
  23126347.207  
  22868911.602   120176920.486    22868919.320    93644380.8024   22868919.406  
                
  21940589.789   117449664.498                    91349808.759    21940595.051  
  21940588.652  
  22058607.070   117915904.023                    91712376.128    22058612.965  
  22058607.309  
  20192392.164   108015716.132                    84012209.088    20192396.254  
  20192390.504  
  23243014.977   122142850.290    23243024.566    95176311.7564   23243024.730  
                
  24531498.969   128913895.043    24531507.539   100452406.6304   24531507.797  
                
  24069367.062   126485372.662    24069375.188    98560082.8134                 
                
  21875896.938   114958624.848    21875903.672    89578183.3054                 
                
  22008103.531   117315575.345                                                  
  22008102.762  
  20509257.570   107776910.654    20509265.184    83982055.5994   20509265.023  
                
  22402092.328   117723795.507    22402102.457    91732887.6164   22402101.934  
                
 21  8 15  7 30 40.0000000  0 18G15R20R 4G26R 9G18R18G29R 3R 5R19G27
                                G 5G13G16R10G23G10
  22681657.367   119192943.101    22681665.625    92877658.4914   22681665.301  
                
  20788482.070   111165388.944                    86462001.133    20788488.941  
  20788481.207  
  20078434.578   107519131.206                    83625997.434    20078437.727  
  20078433.691  
  22007697.914   115651237.128    22007708.434    90117884.6434   22007708.359  
                
  23236533.445   124081781.172                    96508030.225    23236537.730  
  23236532.305  
  20405815.945   107233296.070    20405822.996    83558449.5694   20405823.035  
                
  23131814.500   123479157.651                    96039330.189    23131819.590  
  23131812.648  
  22874547.273   120206536.177    22874555.012    93667457.9574   22874555.102  
                
  21945670.789   117476863.354                    91370963.436    21945676.047  
  21945669.641  
  22050692.805   117873597.963                    91679471.416    22050698.734  
  22050692.996  
  20194599.719   108027525.017                    84021393.762    20194603.828  
  20194598.039  
  23236941.016   122110931.488    23236950.629    95151439.9744   23236950.797  
                
  24538384.211   128950077.052    24538392.828   100480600.3884   24538393.059  
                
  24069358.344   126485326.841    24069366.480    98560047.1074                 
                
  21875337.812   114955686.642    21875344.574    89575893.7884                 
                
  22011446.852   117333397.025                                                  
  22011446.098  
  20506771.039   107763843.857    20506778.656    83971873.6854   20506778.488  
                
  22396340.812   117693571.148    22396350.945    91709336.1764   22396350.426  
                
 21  8 15  7 30 50.0000000  0 18G15R20R 4G26R 9G18R18G29R 3R 5R19G27
                                G 5G13G16R10G23G10
  22680202.914   119185299.919    22680211.246    92871702.7674   22680210.898  
                
  20784488.984   111144036.134                    86445393.405    20784495.867  
  20784488.125  
  20076343.727   107507934.819                    83617289.149    20076346.875  
  20076342.824  
  22011290.219   115670114.749    22011300.758    90132594.4604   22011300.676  
                
  23243810.383   124120638.967                    96538252.936    23243814.629  
  23243809.164  
  20407489.000   107242088.041    20407496.043    83565300.4584   20407496.094  
                
  23137282.750   123508347.915                    96062033.702    23137287.980  
  23137280.945  
  22880188.430   120236180.733    22880196.230    93690557.5934   22880196.305  
                
  21950764.422   117504129.902                    91392170.736    21950769.680  
  21950763.238  
  22042784.320   117831322.777                    91646590.743    22042790.285  
  22042784.516  
  20196813.750   108039368.568                    84030605.405    20196817.871  
  20196812.066  
  23230870.188   122079029.249    23230879.836    95126581.1114   23230880.012  
                
  24545272.133   128986273.231    24545280.785   100508805.1814   24545280.980  
                
  24069361.828   126485345.103    24069370.004    98560061.3194                 
                
  21874791.828   114952817.448    21874798.602    89573658.0534                 
                
  22014804.156   117351293.198                                                  
  22014803.441  
  20504295.859   107750836.719    20504303.488    83961738.2644   20504303.316  
                
  22390595.672   117663380.343    22390605.785    91685810.8804   22390605.273  
                
 21  8 15  7 31  0.0000000  0 18G15R20R 4G26R 9G18R18G29R 3R 5R19G27
                                G 5G13G16R10G23G10
  22678760.953   119177722.357    22678769.320    92865798.1854   22678768.977  
                
  20780499.836   111122704.341                    86428802.019    20780506.715  
  20780498.941  
  20074269.711   107496828.605                    83608650.976    20074272.867  
  20074268.785  
  22014892.227   115689043.434    22014902.781    90147344.0784   22014902.695  
                
  23251090.258   124159513.268                    96568488.470    23251094.562  
  23251089.039  
  20409168.273   107250912.656    20409175.312    83572176.7784   20409175.367  
                
  23142753.953   123537553.318                    96084749.021    23142759.207  
  23142752.102  
  22885835.000   120265853.776    22885842.867    93713679.4254   22885842.922  
                
  21955870.656   117531463.939                    91413430.526    21955875.902  
  21955869.453  
  22034881.625   117789078.369                    91613734.007    22034887.605  
  22034881.785  
  20199034.148   108051246.189                    84039843.538    20199038.285  
  20199032.457  
  23224802.500   122047143.383    23224812.141    95101734.9964   23224812.340  
                
  24552162.680   129022483.218    24552171.348   100537020.7404   24552171.504  
                
  24069377.469   126485427.315    24069385.648    98560125.3694                 
                
  21874258.930   114950017.062    21874265.711    89571475.9304                 
                
  22018175.414   117369263.789                                                  
  22018174.719  
  20501831.984   107737889.008    20501839.613    83951649.1364   20501839.434  
                
  22384856.891   117633222.924    22384866.965    91662311.5994   22384866.480  
                
 21  8 15  7 31 10.0000000  0 18G15R20R 4G26R 9G18R18G29R 3R 5R19G27
                                G 5G13G16R10G23G10
  22677331.508   119170210.614    22677339.871    92859944.8864   22677339.535  
                
  20776514.625   111101393.678                    86412227.067    20776521.523  
  20776513.730  
  20072212.570   107485812.775                    83600083.116    20072215.738  
  20072211.602  
  22018503.992   115708023.331    22018514.566    90162133.5994   22018514.480  
                
  23258373.172   124198404.108                    96598736.849    23258377.602  
  23258372.055  
  20410853.789   107259770.063    20410860.832    83579078.6514   20410860.883  
                
  23148227.961   123566774.117                    96107476.262    23148233.285  
  23148226.129  
  22891487.031   120295555.487    22891494.969    93736823.5984   22891495.008  
                
  21960989.508   117558865.459                    91434742.824    21960994.734  
  21960988.305  
  22026984.852   117746865.190                    91580901.577    22026990.770  
  22026984.957  
  20201261.023   108063158.478                    84049108.661    20201265.164  
  20201259.328  
  23218737.992   122015274.189    23218747.590    95076901.8634   23218747.801  
                
  24559055.883   129058707.139    24559064.570   100565247.1464   24559064.715  
                
  24069405.328   126485573.721    24069413.504    98560239.4374                 
                
  21873739.172   114947285.728    21873745.941    89569347.6094                 
                
  22021560.656   117387308.803                                                  
  22021559.957  
  20499379.469   107725000.940    20499387.105    83941606.4914   20499386.926  
                
  22379124.531   117603099.169    22379134.551    91638838.5404   22379134.094  
                
 21  8 15  7 31 20.0000000  0 18G15R20R 4G26R 9G18R18G29R 3R 5R19G27
                                G 5G13G16R10G23G10
  22675914.602   119162764.696    22675922.941    92854142.8784   22675922.633  
                
  20772533.383   111080104.118                    86395668.517    20772540.246  
  20772532.477  
  20070172.352   107474887.559                    83591585.719    20070175.531  
  20070171.348  
  22022125.469   115727054.308    22022136.059    90176962.9234   22022135.969  
                
  23265659.211   124237311.239                    96628997.954    23265663.684  
  23265658.129  
  20412545.531   107268660.216    20412552.586    83586006.0424   20412552.625  
                
  23153704.828   123596010.003                    96130215.271    23153710.203  
  23153702.992  
  22897144.469   120325285.720    22897152.430    93759990.0024   22897152.492  
                
  21966120.938   117586334.296                    91456107.456    21966126.141  
  21966119.734  
  22019093.859   117704683.176                    91548093.370    22019099.750  
  22019093.938  
  20203494.352   108075105.257                    84058400.592    20203498.488  
  20203492.648  
  23212676.648   121983421.693    23212686.207    95052081.7344   23212686.422  
                
  24565951.703   129094944.935    24565960.387   100593484.3704   24565960.543  
                
  24069445.398   126485784.294    24069453.590    98560403.5304                 
                
  21873232.570   114944623.515    21873239.320    89567273.1574                 
                
  22024959.789   117405428.075                                                  
  22024959.105  
  20496938.297   107712172.520    20496945.961    83931610.3264   20496945.770  
                
  22373398.578   117573009.107    22373408.551    91615391.7454   22373408.105  
                
 21  8 15  7 31 30.0000000  0 18G15R20R 4G26R 9G18R18G29R 3R 5R19G27
                                G 5G13G16R10G23G10
  22674510.234   119155384.687    22674518.539    92848392.2314   22674518.246  
                
  20768556.102   111058835.900                    86379126.576    20768562.957  
  20768555.188  
  20068149.039   107464052.819                    83583158.698    20068152.234  
  20068147.996  
  22025756.656   115746136.272    22025767.270    90191831.9734   22025767.172  
                
  23272948.219   124276234.530                    96659271.591    23272952.781  
  23272947.203  
  20414243.492   107277583.067    20414250.562    83592958.9134   20414250.594  
                
  23159184.602   123625261.268                    96152966.234    23159190.004  
  23159182.762  
  22902807.352   120355044.492    22902815.266    93783178.6304   22902815.367  
                
  21971264.906   117613870.261                    91477524.305    21971270.086  
  21971263.684  
  22011208.648   117662532.545                    91515309.562    22011214.574  
  22011208.750  
  20205734.141   108087086.567                    84067719.372    20205738.277  
  20205732.445  
  23206618.461   121951585.884    23206628.059    95027274.6334   23206628.277  
                
  24572850.148   129131196.419    24572858.812   100621732.2684   24572858.996  
                
  24069497.656   126486058.945    24069505.859    98560617.5424                 
                
  21872739.102   114942030.336    21872745.820    89565252.4834                 
                
  22028372.812   117423621.403                                                  
  22028372.125  
  20494508.477   107699403.727    20494516.164    83921660.6204   20494515.961  
                
  22367679.047   117542952.767    22367688.957    91591971.2094   22367688.531  
                
 21  8 15  7 31 40.0000000  0 18G15R20R 4G26R 9G18R18G29R 3R 5R19G27
                                G 5G13G16R10G23G10
  22673118.422   119148070.595    22673126.688    92842692.9474   22673126.414  
                
  20764582.742   111037588.575                    86362600.883    20764589.559  
  20764581.840  
  20066142.609   107453308.480                    83574801.979    20066145.801  
  20066141.535  
  22029397.516   115765269.107    22029408.164    90206740.6714   22029408.062  
                
  23280240.234   124315173.793                    96689557.662    23280244.910  
  23280239.305  
  20415947.680   107286538.563    20415954.777    83599937.2214   20415954.789  
                
  23164667.336   123654527.735                    96175729.004    23164672.641  
  23164665.410  
  22908475.680   120384831.751    22908483.527    93806389.4944   22908483.664  
                
  21976421.391   117641473.226                    91498993.274    21976426.543  
  21976420.168  
  22003329.359   117620413.483                    91482550.311    22003335.320  
  22003329.480  
  20207980.383   108099102.443                    84077065.049    20207984.492  
  20207978.703  
  23200563.500   121919766.907    23200573.105    95002480.6534   23200573.309  
                
  24579751.180   129167461.450    24579759.840   100649990.7364   24579760.039  
                
  24069562.109   126486397.665    24069570.316    98560881.4754                 
                
  21872258.758   114939506.125    21872265.449    89563285.5724                 
                
  22031799.750   117441888.845                                                  
  22031799.055  
  20492090.000   107686694.572    20492097.707    83911757.3904   20492097.492  
                
  22361965.945   117512930.207    22361975.820    91568577.0044   22361975.398  
                
 21  8 15  7 31 50.0000000  0 18G15R20R 4G26R 9G18R18G29R 3R 5R19G27
                                G 5G13G16R10G23G10
  22671739.156   119140822.536    22671747.352    92837045.1084   22671747.125  
                
  20760613.391   111016362.728                    86346091.898    20760620.188  
  20760612.477  
  20064153.117   107442654.897                    83566515.853    20064156.316  
  20064152.016  
  22033048.039   115784452.748    22033058.719    90221688.9544   22033058.617  
                
  23287535.273   124354128.783                    96719855.962    23287539.961  
  23287534.273  
  20417658.062   107295526.709    20417665.188    83606940.9734   20417665.191  
                
  23170152.750   123683809.295                    96198503.515    23170158.090  
  23170150.809  
  22914149.414   120414647.441    22914157.262    93829622.5164   22914157.398  
                
  21981590.367   117669143.084                    91520514.245    21981595.516  
  21981589.148  
  21995456.039   117578326.044                    91449815.659    21995461.992  
  21995456.105  
  20210233.062   108111152.827                    84086437.570    20210237.172  
  20210231.406  
  23194511.773   121887964.835    23194521.336    94977699.8014   23194521.527  
                
  24586654.773   129203740.037    24586663.457   100678259.7274   24586663.684  
                
  24069638.758   126486800.484    24069646.988    98561195.3754                 
                
  21871791.539   114937050.893    21871798.219    89561372.4054                 
                
  22035240.477   117460229.955                                                  
  22035239.723  
  20489682.883   107674045.105    20489690.617    83901900.6674   20489690.387  
                
  22356259.273   117482941.507    22356269.180    91545209.2034   22356268.754  
                
 21  8 15  7 32  0.0000000  0 18G15R20R 4G26R 9G18R18G29R 3R 5R19G27
                                G 5G13G16R10G23G10
  22670372.438   119133640.389    22670380.566    92831448.6394   22670380.348  
                
  20756647.961   110995157.831                    86329599.196    20756654.762  
  20756647.047  
  20062180.508   107432091.685                    83558300.035    20062183.727  
  20062179.379  
  22036708.203   115803686.967    22036718.910    90236676.6364   22036718.805  
                
  23294833.211   124393099.180                    96750166.253    23294837.891  
  23294832.156  
  20419374.633   107304547.305    20419381.789    83613970.0094   20419381.770  
                
  23175640.992   123713105.848                    96221289.687    23175646.348  
  23175639.055  
  22919828.539   120444491.494    22919836.434    93852877.6004   22919836.566  
                
  21986771.781   117696879.447                    91542086.951    21986776.926  
  21986770.543  
  21987588.617   117536270.424                    91417105.748    21987594.578  
  21987588.727  
  20212492.203   108123237.646                    84095836.873    20212496.305  
  20212490.566  
  23188463.219   121856179.529    23188472.773    94952932.0514   23188472.938  
                
  24593560.891   129240031.862    24593569.598   100706539.0414   24593569.836  
                
  24069727.594   126487267.311    24069735.875    98561559.1734                 
                
  21871337.414   114934664.436    21871344.086    89559512.8284                 
                
  22038695.031   117478644.775                                                  
  22038694.207  
  20487287.109   107661455.189    20487294.879    83892090.3504   20487294.637  
                
  22350559.031   117452986.577    22350568.980    91521867.7054   22350568.535  
                
 21  8 15  7 32 10.0000000  0 18G15R20R 4G26R 9G18R18G29R 3R 5R19G27
                                G 5G13G16R10G23G10
  22669018.305   119126524.359    22669026.375    92825903.6904   22669026.164  
                
  20752686.539   110973974.412                    86313123.217    20752693.352  
  20752685.641  
  20060224.859   107421619.320                    83550154.867    20060228.098  
  20060223.711  
  22040378.008   115822971.915    22040388.734    90251703.8564   22040388.613  
                
  23302134.023   124432085.303                    96780488.752    23302138.746  
  23302132.984  
  20421097.422   107313600.579    20421104.621    83621024.5134   20421104.578  
                
  23181132.180   123742417.752                    96244087.841    23181137.535  
  23181130.207  
  22925513.070   120474364.050    22925521.055    93876154.8774   22925521.164  
                
  21991965.648   117724682.523                    91563711.561    21991970.809  
  21991964.402  
  21979727.234   117494246.833                    91384420.751    21979733.148  
  21979727.367  
  20214757.820   108135357.109                    84105263.120    20214761.902  
  20214756.188  
  23182417.922   121824411.369    23182427.492    94928177.6634   23182427.648  
                
  24600469.562   129276337.114    24600478.285   100734828.8064   24600478.527  
                
  24069828.648   126487798.389    24069836.980    98561973.0064                 
                
  21870896.445   114932347.133    21870903.105    89557707.1374                 
                
  22042163.414   117497133.244                                                  
  22042162.555  
  20484902.711   107648925.107    20484910.504    83882326.6484   20484910.254  
                
  22344865.281   117423065.742    22344875.262    91498552.7654   22344874.805  
                
 21  8 15  7 32 20.0000000  0 18G15R20R 4G26R 9G18R18G29R 3R 5R19G27
                                G 5G13G16R10G23G10
  22667676.727   119119474.296    22667684.734    92820410.1304   22667684.551  
                
  20748729.102   110952812.207                    86296663.732    20748735.906  
  20748728.184  
  20058286.125   107411237.570                    83542080.176    20058289.391  
  20058284.941  
  22044057.406   115842307.245    22044068.152    90266770.3454   22044068.023  
                
  23309437.688   124471086.524                    96810822.986    23309442.441  
  23309436.645  
  20422826.383   107322686.269    20422833.621    83628104.2664   20422833.555  
                
  23186626.164   123771744.643                    96266897.655    23186631.461  
  23186624.180  
  22931202.938   120504264.706    22931211.016    93899454.0804   22931211.113  
                
  21997171.906   117752551.917                    91585387.742    21997177.059  
  21997170.641  
  21971871.930   117452255.265                    91351760.655    21971877.734  
  21971871.988  
  20217029.836   108147510.856                    84114716.015    20217033.883  
  20217028.215  
  23176375.844   121792660.138    23176385.426    94903436.4534   23176385.566  
                
  24607380.750   129312655.581    24607389.480   100763128.8854   24607389.723  
                
  24069941.891   126488393.526    24069950.258    98562436.7354                 
                
  21870468.602   114930098.760    21870475.242    89555955.1614                 
                
  22045645.539   117515694.873                                                  
  22045644.680  
  20482529.656   107636454.617    20482537.473    83872609.3884   20482537.211  
                
  22339177.977   117393178.803    22339188.004    91475264.2424   22339187.531  
                
 21  8 15  7 32 30.0000000  0 18G15R20R 4G26R 9G18R18G29R 3R 5R19G27
                                G 5G13G16R10G23G10
  22666347.742   119112490.502    22666355.719    92814968.2154   22666355.547  
                
  20744775.672   110931671.520                    86280220.979    20744782.496  
  20744774.746  
  20056364.391   107400946.815                    83534076.243    20056367.672  
  20056363.191  
  22047746.430   115861693.163    22047757.195    90281876.2424   22047757.043  
                
  23316744.227   124510102.995                    96841169.128    23316749.023  
  23316743.195  
  20424561.547   107331804.598    20424568.836    83635209.4554   20424568.746  
                
  23192122.930   123801086.738                    96289719.281    23192128.230  
  23192120.938  
  22936898.234   120534193.781    22936906.395    93922775.4304   22936906.480  
                
  22002390.570   117780487.720                    91607115.569    22002395.754  
  22002389.305  
  21964022.586   117410296.198                    91319125.834    21964028.406  
  21964022.648  
  20219308.352   108159699.309                    84124195.914    20219312.359  
  20219306.754  
  23170337.055   121760926.207    23170346.664    94878708.7344   23170346.781  
                
  24614294.430   129348987.189    24614303.164   100791439.2074   24614303.402  
                
  24070067.367   126489052.948    24070075.719    98562950.5474                 
                
  21870053.914   114927919.562    21870060.543    89554257.0744                 
                
  22049141.461   117534330.086                                                  
  22049140.605  
  20480168.000   107624044.016    20480175.828    83862938.7954   20480175.555  
                
  22333497.188   117363326.105    22333507.305    91452002.4144   22333506.801  
                
 21  8 15  7 32 40.0000000  0 18G15R20R 4G26R 9G18R18G29R 3R 5R19G27
                                G 5G13G16R10G23G10
  22665031.328   119105572.703    22665039.293    92809577.7364   22665039.102  
                
  20740826.195   110910552.011                    86263794.708    20740833.055  
  20740825.254  
  20054459.570   107390746.614                    83526142.739    20054462.875  
  20054458.375  
  22051445.016   115881129.275    22051455.789    90297021.2544   22051455.625  
                
  23324053.516   124549134.282                    96871526.752    23324058.398  
  23324052.516  
  20426302.859   107340955.233    20426310.191    83642339.8164   20426310.074  
                
  23197622.586   123830443.831                    96312552.517    23197627.797  
  23197620.500  
  22942598.867   120564150.873    22942607.137    93946118.6054   22942607.215  
                
  22007621.594   117808489.657                    91628894.845    22007626.789  
  22007620.328  
  21956179.195   117368369.429                    91286516.147    21956185.145  
  21956179.352  
  20221593.305   108171922.263                    84133702.655    20221597.293  
  20221591.699  
  23164301.523   121729209.334    23164311.141    94853994.3064   23164311.258  
                
  24621210.570   129385331.683    24621219.328   100819759.5674   24621219.555  
                
  24070205.039   126489776.444    24070213.355    98563514.3084                 
                
  21869652.336   114925809.205    21869658.945    89552612.6314                 
                
  22052651.109   117553038.463                                                  
  22052650.262  
  20477817.680   107611693.012    20477825.523    83853314.6444   20477825.234  
                
  22327822.867   117333507.414    22327833.031    91428767.0794   22327832.508  
                
 21  8 15  7 32 50.0000000  0 18G15R20R 4G26R 9G18R18G29R 3R 5R19G27
                                G 5G13G16R10G23G10
  22663727.516   119098721.095    22663735.465    92804238.8304   22663735.281  
                
  20736880.719   110889453.880                    86247385.059    20736887.598  
  20736879.770  
  20052571.742   107380637.400                    83518280.031    20052575.078  
  20052570.543  
  22055153.156   115900615.664    22055163.930    90312205.4414   22055163.754  
                
  23331365.633   124588180.347                    96901895.887    23331370.488  
  23331364.574  
  20428050.352   107350138.328    20428057.742    83649495.4704   20428057.602  
                
  23203124.914   123859815.986                    96335397.505    23203130.172  
  23203122.898  
  22948304.852   120594136.173    22948313.238    93969483.7744   22948313.309  
                
  22012864.945   117836557.645                    91650725.491    22012870.152  
  22012863.652  
  21948342.023   117326475.299                    91253931.842    21948347.961  
  21948342.156  
  20223884.703   108184179.701                    84143236.225    20223888.695  
  20223883.094  
  23158269.289   121697509.757    23158278.883    94829293.3544   23158279.004  
                
  24628129.172   129421689.068    24628137.945   100848089.9784   24628138.141  
                
  24070354.945   126490564.163    24070363.227    98564128.1164                 
                
  21869263.883   114923767.873    21869270.465    89551021.9864                 
                
  22056174.508   117571820.045                                                  
  22056173.684  
  20475478.742   107599401.807    20475486.578    83843737.0824   20475486.285  
                
  22322155.070   117303722.965    22322165.238    91405558.4184   22322164.707  
                
 21  8 15  7 33  0.0000000  0 18G15R20R 4G26R 9G18R18G29R 3R 5R19G27
                                G 5G13G16R10G23G10
  22662436.320   119091935.811    22662444.246    92798951.6124   22662444.086  
                
  20732939.250   110868377.195                    86230992.080    20732946.172  
  20732938.305  
  20050700.883   107370619.039                    83510487.953    20050704.227  
  20050699.691  
  22058870.836   115920152.231    22058881.590    90327428.7224   22058881.414  
                
  23338680.469   124627241.092                    96932276.435    23338685.336  
  23338679.395  
  20429804.008   107359353.823    20429811.449    83656676.3724   20429811.301  
                
  23208630.055   123889203.138                    96358254.154    23208635.387  
  23208628.113  
  22954016.180   120624149.626    22954024.668    93992870.8614   22954024.734  
                
  22018120.594   117864691.563                    91672607.403    22018125.832  
  22018119.305  
  21940510.945   117284613.835                    91221372.943    21940516.891  
  21940511.074  
  20226182.547   108196471.628                    84152796.587    20226186.523  
  20226180.938  
  23152240.352   121665827.544    23152249.914    94804605.9184   23152250.055  
                
  24635050.219   129458059.326    24635059.020   100876430.4264   24635059.184  
                
  24070517.039   126491416.040    24070525.281    98564791.8984                 
                
  21868888.570   114921795.552    21868895.141    89549485.1104                 
                
  22059711.555   117590674.479                                                  
  22059710.754  
  20473151.180   107587170.391    20473159.000    83834206.1104   20473158.707  
                
  22316493.789   117273972.793    22316503.988    91382376.4754   22316503.457  
                
 21  8 15  7 33 10.0000000  0 17G15R20R 4G26R 9G18R18G29R 3R 5R19G27
                                G13G16R10G23G10
  22661157.820   119085217.208    22661165.711    92793716.3354   22661165.559  
                
  20729001.883   110847322.319                    86214616.069    20729008.797  
  20729000.977  
  20048847.070   107360691.970                    83502766.904    20048850.430  
  20048845.879  
  22062598.109   115939739.150    22062608.824    90342691.2564   22062608.660  
                
  23345998.117   124666316.484                    96962668.407    23346002.945  
  23345997.023  
  20431563.875   107368601.995    20431571.363    83663882.7364   20431571.188  
                
  23214138.031   123918605.770                    96381122.845    23214143.496  
  23214136.215  
  22959732.914   120654191.432    22959741.508    94016280.0334   22959741.566  
                
  22023388.586   117892891.515                    91694540.689    22023393.832  
  22023387.316  
  21932686.086   117242785.573                    91188839.870    21932692.016  
  21932686.191  
  20228486.930   108208798.562                    84162384.202    20228490.898  
  20228485.336  
  23146214.766   121634163.022    23146224.336    94779932.2884   23146224.492  
                
  24070691.430   126492332.430    24070699.605    98565505.9714                 
                
  21868526.430   114919892.514    21868532.973    89548002.2154                 
                
  22063262.320   117609602.020                                                  
  22063261.559  
  20470835.055   107574999.093    20470842.859    83824721.9874   20470842.578  
                
  22310839.109   117244257.269    22310849.367    91359221.5294   22310848.816  
                
 21  8 15  7 33 20.0000000  0 17G15R20R 4G26R 9G18R18G29R 3R 5R19G27
                                G13G16R10G23G10
  22659891.977   119078565.122    22659899.820    92788532.8964   22659899.691  
                
  20725068.547   110826289.024                    86198256.845    20725075.461  
  20725067.664  
  20047010.297   107350856.118                    83495116.798    20047013.668  
  20047009.094  
  22066334.922   115959376.174    22066345.609    90357992.8324   22066345.445  
                
  23353318.477   124705406.429                    96993071.660    23353323.254  
  23353317.340  
  20433329.922   107377882.613    20433337.449    83671114.3904   20433337.266  
                
  23219649.133   123948023.660                    96404003.433    23219654.445  
  23219647.234  
  22965455.008   120684261.332    22965463.703    94039711.1184   22965463.750  
                
  22028668.828   117921156.979                    91716524.933    22028674.059  
  22028667.535  
  21924867.383   117200990.573                    91156332.674    21924873.336  
  21924867.500  
  20230797.805   108221160.174                    84171998.775    20230801.746  
  20230796.219  
  23140192.570   121602516.128    23140202.160    94755272.3714   23140202.281  
                
  24070878.062   126493313.199    24070886.141    98566270.2034                 
                
  21868177.438   114918058.568    21868183.953    89546573.1714                 
                
  22066826.758   117628602.450                                                  
  22066826.027  
  20468530.336   107562887.739    20468538.129    83815284.5714   20468537.844  
                
  22305190.992   117214576.280    22305201.289    91336093.4834   22305200.719  
                
 21  8 15  7 33 30.0000000  0 17G15R20R 4G26R 9G18R18G29R 3R 5R19G27
                                G13G16R10G23G10
  22658638.695   119071979.065    22658646.500    92783400.9124   22658646.371  
                
  20721139.148   110805276.761                    86181913.979    20721146.047  
  20721138.277  
  20045190.438   107341110.862                    83487537.165    20045193.844  
  20045189.242  
  22070081.148   115979062.686    22070091.836    90373332.9634   22070091.656  
                
  23360641.305   124744509.938                    97023485.480    23360646.117  
  23360640.141  
  20435102.031   107387195.118    20435109.582    83678370.8844   20435109.379  
                
  23225162.883   123977456.099                    96426895.334    23225168.156  
  23225160.902  
  22971182.344   120714358.792    22971191.117    94063163.6664   22971191.168  
                
  22033961.227   117949487.599                    91738559.857    22033966.473  
  22033959.879  
  21917054.828   117159228.326                    91123850.932    21917060.781  
  21917054.930  
  20233115.055   108233555.813                    84181639.843    20233118.977  
  20233113.473  
  23134173.617   121570886.344    23134183.219    94730625.8014   23134183.320  
                
  24071076.852   126494357.810    24071084.855    98567084.1954                 
                
  21867841.508   114916293.255    21867847.984    89545197.5934                 
                
  22070404.766   117647675.156                                                  
  22070404.074  
  20466236.922   107550835.800    20466244.691    83805893.4584   20466244.430  
                
  22299549.344   117184929.313    22299559.652    91312991.9594   22299559.078  
                
 21  8 15  7 33 40.0000000  0 17G15R20R 4G26R 9G18R18G29R 3R 5R19G27
                                G13G16R10G23G10
  22657398.086   119065459.593    22657405.863    92778320.7994   22657405.719  
                
  20717213.836   110784286.330                    86165588.097    20717220.738  
  20717212.953  
  20043387.609   107331456.796                    83480028.445    20043391.031  
  20043386.418  
  22073836.875   115998799.110    22073847.570    90388711.9794   22073847.387  
                
  23367966.891   124783627.524                    97053910.226    23367971.641  
  23367965.641  
  20436880.312   107396540.009    20436887.859    83685652.6154   20436887.664  
                
  23230679.391   124006903.606                    96449798.919    23230684.711  
  23230677.438  
  22976915.055   120744484.297    22976923.879    94086638.0764   22976923.922  
                
  22039265.867   117977883.757                    91760645.726    22039271.137  
  22039264.512  
  21909248.531   117117499.659                    91091395.316    21909254.543  
  21909248.656  
  20235438.789   108245986.170                    84191307.881    20235442.684  
  20235437.203  
  23128158.039   121539274.282    23128167.637    94705993.0414   23128167.750  
                
  24071287.867   126495466.716    24071295.797    98567948.2634                 
                
  21867518.727   114914596.986    21867525.180    89543875.8324                 
                
  22073996.367   117666820.276                                                  
  22073995.660  
  20463954.922   107538843.829    20463962.660    83796549.0654   20463962.418  
                
  22293914.297   117155316.976    22293924.629    91289917.4194   22293924.031  
                
 21  8 15  7 33 50.0000000  0 17G15R20R 4G26R 9G18R18G29R 3R 5R19G27
                                G13G16R10G23G10
  22656170.094   119059006.475    22656177.828    92773292.4004   22656177.695  
                
  20713292.523   110763317.306                    86149278.862    20713299.418  
  20713291.645  
  20041601.773   107321893.727                    83472590.503    20041605.211  
  20041600.586  
  22077602.039   116018585.106    22077612.746    90404129.6304   22077612.562  
                
  23375294.906   124822758.673                    97084345.543    23375299.676  
  23375293.715  
  20438664.695   107405917.003    20438672.223    83692959.3634   20438672.031  
                
  23236198.812   124036365.968                    96472714.049    23236204.043  
  23236196.781  
  22982653.047   120774637.567    22982661.898    94110134.1164   22982661.941  
                
  22044582.641   118006344.934                    91782782.176    22044587.949  
  22044581.238  
  21901448.547   117075804.300                    91058965.597    21901454.574  
  21901448.645  
  20237768.961   108258450.981                    84201002.733    20237772.832  
  20237767.371  
  23122145.805   121507679.795    23122155.383    94681373.9594   23122155.527  
                
  24071511.102   126496639.771    24071518.980    98568862.3284                 
                
  21867209.047   114912969.590    21867215.480    89542607.7264                 
                
  22077601.531   117686037.861                                                  
  22077600.785  
  20461684.289   107526911.591    20461691.992    83787251.2234   20461691.781  
                
  22288285.812   117125739.095    22288296.156    91266869.7334   22288295.570  
                
 21  8 15  7 34  0.0000000  0 17G15R20R 4G26R 9G18R18G29R 3R 5R19G27
                                G13G16R10G23G10
  22654954.805   119052620.040    22654962.516    92768315.9544   22654962.383  
                
  20709375.305   110742370.153                    86132986.639    20709382.195  
  20709374.434  
  20039833.008   107312422.087                    83465223.665    20039836.465  
  20039831.840  
  22081376.664   116038420.893    22081387.383    90419586.0714   22081387.199  
                
  23382625.578   124861903.599                    97114791.577    23382630.309  
  23382624.375  
  20440455.242   107415326.363    20440462.727    83700291.3314   20440462.551  
                
  23241721.000   124065843.505                    96495640.995    23241726.246  
  23241718.969  
  22988396.352   120804818.782    22988405.191    94133651.9364   22988405.250  
                
  22049911.602   118034871.341                    91804969.381    22049916.906  
  22049910.137  
  21893654.938   117034142.749                    91026562.188    21893660.930  
  21893654.969  
  20240105.625   108270950.495                    84210724.577    20240109.473  
  20240104.047  
  23116136.977   121476103.214    23116146.582    94656768.8524   23116146.742  
                
  24071746.570   126497877.215    24071754.406    98569826.5554                 
                
  21866912.539   114911411.435    21866918.984    89541393.5794                 
                
  22081220.227   117705327.560                                                  
  22081219.453  
  20459425.078   107515039.394    20459432.754    83778000.1694   20459432.562  
                
  22282663.953   117096196.034    22282674.273    91243849.1664   22282673.695  
                
 21  8 15  7 34 10.0000000  0 17G15R20R 4G26R 9G18R18G29R 3R 5R19G27
                                G13G16R10G23G10
  22653752.195   119046300.295    22653759.922    92763391.4914   22653759.766  
                
  20705462.164   110721444.873                    86116711.429    20705469.066  
  20705461.316  
  20038081.305   107303041.782                    83457927.871    20038084.777  
  20038080.156  
  22085160.750   116058306.344    22085171.469    90435081.2174   22085171.285  
                
  23389958.688   124901062.013                    97145248.092    23389963.441  
  23389957.473  
  20442251.945   107424768.066    20442259.391    83707648.5034   20442259.246  
                
  23247246.047   124095336.140                    96518579.698    23247251.242  
  23247244.023  
  22994144.969   120835027.966    22994153.793    94157191.5484   22994153.852  
                
  22055252.727   118063462.792                    91827207.162    22055258.027  
  22055251.262  
  21885867.664   116992515.197                    90994185.225    21885873.645  
  21885867.625  
  20242448.742   108283484.570                    84220473.297    20242452.582  
  20242447.164  
  23110131.570   121444544.614    23110141.191    94632177.7364   23110141.344  
                
  24071994.297   126499179.022    24072002.105    98570840.9574                 
                
  21866629.164   114909922.310    21866635.629    89540233.2194                 
                
  22084852.484   117724689.477                                                  
  22084851.691  
  20457177.305   107503227.255    20457184.945    83768795.9064   20457184.773  
                
  22277048.727   117066687.831    22277059.020    91220855.7594   22277058.445  
                
 21  8 15  7 34 20.0000000  0 17G15R20R 4G26R 9G18R18G29R 3R 5R19G27
                                G13G16R10G23G10
  22652562.297   119040047.383    22652570.059    92758519.0874   22652569.859  
                
  20701553.117   110700541.539                    86100453.297    20701560.008  
  20701552.285  
  20036346.672   107293752.933                    83450703.226    20036350.164  
  20036345.547  
  22088954.273   116078241.387    22088965.023    90450615.0114   22088964.824  
                
  23397294.195   124940233.927                    97175715.102    23397299.113  
  23397293.125  
  20444054.789   107434242.073    20444062.203    83715030.8474   20444062.082  
                
  23252773.828   124124843.796                    96541530.079    23252779.035  
  23252771.852  
  22999898.898   120865265.004    22999907.637    94180752.8724   22999907.734  
                
  22060605.992   118092119.154                    91849495.417    22060611.270  
  22060604.531  
  21878086.695   116950921.675                    90961834.721    21878092.715  
  21878086.641  
  20244798.375   108296053.438                    84230249.082    20244802.203  
  20244796.805  
  23104129.594   121413004.063    23104139.219    94607600.6974   23104139.355  
                
  24072254.281   126500545.281    24072262.074    98571905.5854                 
                
  21866358.969   114908502.390    21866365.449    89539126.7884                 
                
  22088498.273   117744123.640                                                  
  22088497.539  
  20454940.953   107491475.200    20454948.559    83759638.4614   20454948.406  
                
  22271440.133   117037214.530    22271450.375    91197889.5544   22271449.832  
                
 21  8 15  7 34 30.0000000  0 17G15R20R 4G26R 9G18R18G29R 3R 5R19G27
                                G13G16R10G23G10
  22651385.102   119033861.182    22651392.902    92753698.6694   22651392.676  
                
  20697648.141   110679659.869                    86084211.991    20697655.004  
  20697647.332  
  20034629.109   107284555.441                    83443549.605    20034632.629  
  20034627.996  
  22092757.195   116098225.848    22092768.008    90466187.3024   22092767.785  
                
  23404632.336   124979418.929                    97206192.287    23404637.250  
  23404631.277  
  20445863.758   107443748.246    20445871.145    83722438.2534   20445871.035  
                
  23258304.367   124154366.572                    96564492.185    23258309.664  
  23258302.523  
  23005658.125   120895529.783    23005666.793    94204335.8004   23005666.922  
                
  22065971.359   118120840.323                    91871834.114    22065976.656  
  22065969.883  
  21870312.227   116909362.570                    90929510.986    21870318.242  
  21870312.117  
  20247154.477   108308656.905                    84240051.773    20247158.281  
  20247152.906  
  23098131.062   121381481.518    23098140.664    94583037.6934   23098140.805  
                
  24072526.516   126501975.877    24072534.285    98573020.3334                 
                
  21866101.898   114907151.505    21866108.383    89538074.1544                 
                
  22092157.562   117763629.606                                                  
  22092156.809  
  20452716.023   107479783.129    20452723.594    83750527.7574   20452723.453  
                
  22265838.195   117007776.129    22265848.375    91174950.5394   22265847.848  
                
 21  8 15  7 34 40.0000000  0 17G15R20R 4G26R 9G18R18G29R 3R 5R19G27
                                G13G16R10G23G10
  22650220.578   119027741.638    22650228.391    92748930.2034   22650228.164  
                
  20693747.227   110658799.942                    86067987.613    20693754.066  
  20693746.469  
  20032928.602   107275449.309                    83436467.066    20032932.137  
  20032927.512  
  22096569.484   116118259.536    22096580.344    90481797.9614   22096580.094  
                
  23411972.797   125018616.796                    97236679.504    23411977.777  
  23411971.773  
  20447678.820   107453286.490    20447686.195    83729870.6544   20447686.102  
                
  23263837.961   124183904.397                    96587466.015    23263843.125  
  23263836.004  
  23011422.586   120925822.158    23011431.262    94227940.2344   23011431.383  
                
  22071348.742   118149625.954                    91894222.929    22071354.035  
  22071347.250  
  21862544.039   116867837.598                    90897213.803    21862550.129  
  21862543.969  
  20249517.016   108321294.928                    84249881.342    20249520.820  
  20249515.453  
  23092135.969   121349977.013    23092145.547    94558488.7244   23092145.680  
                
  24072810.961   126503470.725    24072818.688    98574185.1554                 
                
  21865857.961   114905869.601    21865864.434    89537075.2754                 
                
  22095830.328   117783207.352                                                  
  22095829.602  
  20450502.492   107468150.997    20450510.031    83741463.7644   20450509.910  
                
  22260242.883   116978372.602    22260253.023    91152038.6944   22260252.496  
                
 21  8 15  7 34 50.0000000  0 17G15R20R 4G26R 9G18R18G29R 3R 5R19G27
                                G13G16R10G23G10
  22649068.797   119021689.027    22649076.594    92744213.9014   22649076.387  
                
  20689850.461   110637962.097                    86051780.403    20689857.262  
  20689849.734  
  20031245.211   107266434.765                    83429455.759    20031248.762  
  20031244.129  
  22100391.164   116138342.573    22100402.059    90497447.0704   22100401.789  
                
  23419315.742   125057827.607                    97267176.796    23419320.719  
  23419314.684  
  20449500.031   107462856.972    20449507.395    83737328.1784   20449507.305  
                
  23269374.195   124213457.170                    96610451.514    23269379.402  
  23269372.266  
  23017192.352   120956142.318    23017201.039    94251566.3044   23017201.141  
                
  22076738.203   118178476.068                    91916661.877    22076743.453  
  22076736.641  
  21854782.445   116826347.233                    90864943.538    21854788.512  
  21854782.336  
  20251886.078   108333967.788                    84259738.011    20251889.887  
  20251884.512  
  23086144.367   121318490.814    23086153.941    94533954.0144   23086154.070  
                
  24073107.688   126505030.027    24073115.379    98575400.1984                 
                
  21865627.180   114904656.829    21865633.633    89536130.2434                 
                
  22099516.578   117802856.916                                                  
  22099515.871  
  20448300.414   107456579.006    20448307.934    83732446.6374   20448307.820  
                
  22254654.266   116949004.218    22254664.398    91129154.2394   22254663.859  
                
 21  8 15  7 35  0.0000000  0 17G15R20R 4G26R 9G18R18G29R 3R 5R19G27
                                G13G16R10G23G10
  22647929.758   119015703.367    22647937.535    92739549.7434   22647937.344  
                
  20685957.781   110617146.217                    86035590.264    20685964.562  
  20685957.086  
  20029578.914   107257511.773                    83422515.651    20029582.484  
  20029577.836  
  22104222.211   116158474.782    22104233.117    90513134.4934   22104232.840  
                
  23426661.031   125097051.030                    97297683.875    23426666.020  
  23426659.934  
  20451327.352   107472459.574    20451334.711    83744810.7204   20451334.625  
                
  23274913.211   124243024.935                    96633448.674    23274918.457  
  23274911.340  
  23022967.398   120986490.135    23022976.043    94275213.9444   23022976.121  
                
  22082139.656   118207390.412                    91939150.802    22082144.902  
  22082138.090  
  21847027.375   116784891.685                    90832700.321    21847033.375  
  21847027.246  
  20254261.625   108346675.331                    84269621.640    20254265.414  
  20254260.059  
  23080156.195   121287022.852    23080165.828    94509433.5424   23080165.953  
                
  24073416.688   126506653.746    24073424.297    98576665.4274                 
                
  21865409.523   114903513.031    21865415.949    89535238.9664                 
                
  22103216.180   117822577.781                                                  
  22103215.473  
  20446109.766   107445067.083    20446117.266    83723476.3084   20446117.152  
                
  22249072.328   116919670.946    22249082.438    91106297.1434   22249081.887  
                
 21  8 15  7 35 10.0000000  0 17G15R20R 4G26R 9G18R18G29R 3R 5R19G27
                                G13G16R10G23G10
  22646803.453   119009784.699    22646811.270    92734937.7964   22646811.070  
                
  20682069.227   110596352.424                    86019417.312    20682076.016  
  20682068.543  
  20027929.703   107248680.339                    83415646.762    20027933.297  
  20027928.633  
  22108062.602   116178656.155    22108073.512    90528860.2354   22108073.246  
                
  23434008.531   125136287.194                    97328200.864    23434013.746  
  23434007.598  
  20453160.789   107482094.373    20453168.141    83752318.3534   20453168.059  
                
  23280454.953   124272607.773                    96656457.502    23280460.312  
  23280453.191  
  23028747.719   121016865.680    23028756.324    94298883.1914   23028756.383  
                
  22087553.102   118236369.067                    91961689.740    22087558.371  
  22087551.492  
  21839278.844   116743471.029                    90800484.263    21839284.766  
  21839278.664  
  20256643.656   108359417.614                    84279532.302    20256647.461  
  20256642.047  
  23074171.531   121255573.335    23074181.199    94484927.4434   23074181.332  
                
  24073737.945   126508341.937    24073745.484    98577980.9054                 
                
  21865205.031   114902438.435    21865211.434    89534401.6204                 
                
