     2.11           OBSERVATION DATA    M (MIXED)           RINEX VERSION / TYPE
EFT-CORS.RU                             20210817 145353 UTC PGM / RUN BY / DATE 
MDNG                                                        MARKER NAME         
                                                            MARKER NUMBER       
MDNG                EFT-CORS.RU                             OBSERVER / AGENCY   
0                   TRIMBLE BD970       2.0                 REC # / TYPE / VERS 
0                   UNKNOWN EXT NONE                        ANT # / TYPE        
  3463911.2830  3030468.2400  4402179.3760                  APPROX POSITION XYZ 
        0.0000        0.0000        0.0000                  ANTENNA: DELTA H/E/N
     1     1                                                WAVELENGTH FACT L1/2
     6    C1    L1    P2    L2    C2    P1                  # / TYPES OF OBSERV 
    10.000                                                  INTERVAL            
  2021     8    15    18    30    0.0000000     GPS         TIME OF FIRST OBS   
  2021     8    15    19    30    0.0000000     GPS         TIME OF LAST OBS    
     0                                                      RCV CLOCK OFFS APPL 
                                                            END OF HEADER       
 21  8 15 18 30  0.0000000  0 14G16R 1G 4R12G20G 7G 5G 8G27R 3G30G 9
                                R13R 2
  24082754.422   126555764.289    24082760.262    98614918.6814                 
                
  21004625.422   112281782.127                    87330291.071    21004631.070  
  21004624.820  
  23112177.883   121455358.501    23112185.902    94640598.6544   23112185.797  
                
  19175081.641   102429884.370                    79667694.665    19175085.188  
  19175080.949  
  22193870.039   116629584.941    22193875.895    90880231.2464                 
                
  20565285.672   108071346.499    20565292.035    84211496.8784   20565291.684  
                
  24479471.992   128640494.527    24479480.379   100239376.8064   24479480.297  
                
  24256158.617   127466968.358    24256168.543    99324958.4504   24256169.062  
                
  24156895.812   126945337.934    24156904.512    98918491.1554   24156904.570  
                
  22687504.914   121447994.692                    94459565.489    22687509.406  
  22687503.730  
  21774618.602   114426430.099    21774627.457    89163510.1484   21774627.734  
                
  20757249.188   109080120.419    20757257.176    84997550.7884   20757256.973  
                
  22216865.570   118636776.620                    92273117.650    22216869.480  
  22216863.746  
  19208032.633   102497772.101                    79720488.106    19208035.664  
  19208030.629  
 21  8 15 18 30 10.0000000  0 14G16R 1G 4R12G20G 7G 5G 8G27R 3G30G 9
                                R13R 2
  24089099.398   126589107.412    24089105.273    98640900.3354                 
                
  21010683.984   112314168.626                    87355480.553    21010689.609  
  21010683.387  
  23117574.180   121483716.158    23117582.234    94662695.5334   23117582.074  
                
  19173728.805   102422657.823                    79662074.017    19173732.355  
  19173728.129  
  22191051.641   116614774.170    22191057.496    90868690.3844                 
                
  20565059.438   108070157.629    20565065.781    84210570.4804   20565065.441  
                
  24473569.016   128609474.294    24473577.453   100215205.2374   24473577.367  
                
  24251585.383   127442936.248    24251595.383    99306232.1454   24251595.879  
                
  24154448.461   126932477.129    24154457.203    98908469.7714   24154457.270  
                
  22680137.500   121408556.498                    94428891.350    22680142.023  
  22680136.355  
  21770697.703   114405825.686    21770706.547    89147454.7784   21770706.832  
                
  20759826.117   109093662.290    20759834.098    85008102.9124   20759833.895  
                
  22209898.016   118599569.253                    92244178.592    22209901.734  
  22209896.012  
  19205676.312   102485198.337                    79710708.511    19205679.359  
  19205674.324  
 21  8 15 18 30 20.0000000  0 15G16R 1G 4G14R12G20G 7G 5G 8G27R 3G30
                                G 9R13R 2
  24095451.195   126622486.363    24095457.145    98666909.8854                 
                
  21016751.945   112346605.376                    87380709.154    21016757.570  
  21016751.336  
  23122974.977   121512097.600    23122983.055    94684810.9434   23122982.891  
                
  24680265.180   129695670.781    24680272.859   101061593.4644   24680273.359  
                
  19172389.969   102415506.056                    79656511.538    19172393.535  
  19172389.309  
  22188245.055   116600025.460    22188250.941    90857197.8924                 
                
  20564839.703   108069002.894    20564846.023    84209670.6784   20564845.699  
                
  24467672.617   128578488.675    24467681.027   100191060.6244   24467680.973  
                
  24247018.203   127418935.943    24247028.312    99287530.6204   24247028.773  
                
  24152011.906   126919673.055    24152020.695    98898492.5794   24152020.762  
                
  22672772.727   121369132.496                    94398228.264    22672777.293  
  22672771.598  
  21766782.695   114385252.244    21766791.535    89131423.5364   21766791.824  
                
  20762411.297   109107247.452    20762419.273    85018688.7724   20762419.062  
                
  22202936.891   118562397.539                    92215267.288    22202940.691  
  22202934.910  
  19203332.867   102472693.282                    79700982.354    19203335.918  
  19203330.879  
 21  8 15 18 30 30.0000000  0 15G16R 1G 4G14R12G20G 7G 5G 8G27R 3G30
                                G 9R13R 2
  24101810.016   126655902.193    24101816.035    98692948.2164                 
                
  21022829.516   112379093.475                    87405977.665    21022835.102  
  21022828.887  
  23128380.516   121540503.976    23128388.652    94706945.7634   23128388.461  
                
  24672977.008   129657370.020    24672984.422   101031748.7004   24672985.012  
                
  19171065.367   102408430.286                    79651008.161    19171068.938  
  19171064.723  
  22185450.516   116585340.064    22185456.438    90845754.7344                 
                
  20564626.680   108067883.435    20564632.984    84208798.3724   20564632.680  
                
  24461783.055   128547538.894    24461791.484   100166943.9634   24461791.422  
                
  24242457.367   127394968.870    24242467.500    99268854.9724   24242467.949  
                
  24149586.383   126906926.917    24149595.227    98888560.5364   24149595.242  
                
  22665410.898   121329724.016                    94367577.254    22665415.457  
  22665409.746  
  21762873.805   114364710.932    21762882.645    89115417.3364   21762882.941  
                
  20765004.938   109120877.108    20765012.922    85029309.2944   20765012.699  
                
  22195982.625   118525263.207                    92186385.036    22195986.609  
  22195980.855  
  19201002.539   102460258.205                    79691310.622    19201005.598  
  19201000.551  
 21  8 15 18 30 40.0000000  0 15G16R 1G 4G14R12G20G 7G 5G 8G27R 3G30
                                G 9R13R 2
  24108175.125   126689351.080    24108181.234    98719012.2844                 
                
  21028915.961   112411629.009                    87431283.069    21028921.543  
  21028915.281  
  23133790.094   121568931.492    23133798.238    94729097.0734   23133798.043  
                
  24665689.031   129619070.817    24665696.371   101001905.1584   24665696.926  
                
  19169754.281   102401426.718                    79645560.954    19169757.871  
  19169753.660  
  22182667.336   116570714.332    22182673.285    90834358.0584                 
                
  20564419.656   108066795.529    20564425.953    84207950.6564   20564425.652  
                
  24455899.609   128516621.305    24455908.027   100142852.3524   24455907.949  
                
  24237902.211   127371031.491    24237912.312    99250202.5104   24237912.793  
                
  24147171.180   126894235.051    24147180.023    98878670.7614   24147180.055  
                
  22658051.281   121290327.327                    94336935.384    22658055.816  
  22658050.102  
  21758970.328   114344198.061    21758979.184    89099433.2924   21758979.477  
                
  20767606.328   109134547.483    20767614.312    85039961.5434   20767614.082  
                
  22189034.836   118488162.272                    92157528.775    22189038.766  
  22189033.090  
  19198684.625   102447889.357                    79681690.409    19198687.676  
  19198682.645  
 21  8 15 18 30 50.0000000  0 15G16R 1G 4G14R12G20G 7G 5G 8G27R 3G30
                                G 9R13R 2
  24114546.852   126722834.749    24114553.043    98745103.4554                 
                
  21035011.641   112444213.894                    87456626.867    21035017.199  
  21035010.949  
  23139204.078   121597382.007    23139212.195    94751266.2954   23139211.992  
                
  24658401.695   129580775.164    24658408.984   100972064.3884   24658409.531  
                
  19168457.039   102394497.063                    79640171.215    19168460.629  
  19168456.418  
  22179895.867   116556150.170    22179901.840    90823009.3574                 
                
  20564218.992   108065740.986    20564225.289    84207128.9394   20564225.004  
                
  24450022.672   128485737.813    24450031.047   100118787.3354   24450031.047  
                
  24233353.102   127347125.617    24233363.117    99231574.5644   24233363.645  
                
  24144766.688   126881599.451    24144775.570    98868824.8494   24144775.594  
                
  22650694.180   121250944.323                    94306304.178    22650698.699  
  22650693.027  
  21755072.625   114323715.483    21755081.523    89083472.8584   21755081.785  
                
  20770215.836   109148260.482    20770223.824    85050647.0004   20770223.586  
                
  22182093.680   118451096.861                    92128700.131    22182097.621  
  22182091.953  
  19196379.562   102435589.112                    79672123.558    19196382.617  
  19196377.602  
 21  8 15 18 31  0.0000000  0 15G16R 1G 4G14R12G20G 7G 5G 8G27R 3G30
                                G 9R13R 2
  24120925.172   126756353.079    24120931.445    98771221.6254                 
                
  21041116.508   112476847.923                    87482008.888    21041122.062  
  21041115.816  
  23144622.406   121625855.459    23144630.465    94773453.4104   23144630.270  
                
  24651115.031   129542483.074    24651122.270   100942226.4044   24651122.820  
                
  19167173.648   102387641.468                    79634839.092    19167177.254  
  19167173.039  
  22177136.125   116541647.574    22177142.141    90811708.6344                 
                
  20564024.672   108064719.868    20564030.977    84206333.2614   20564030.680  
                
  24444152.227   128454888.510    24444160.559   100094748.9324   24444160.555  
                
  24228810.047   127323251.390    24228819.980    99212971.2864   24228820.520  
                
  24142372.883   126869020.094    24142381.840    98859022.7834   24142381.832  
                
  22643339.719   121211575.367                    94275683.875    22643344.227  
  22643338.559  
  21751180.672   114303263.171    21751189.609    89067536.0044   21751189.859  
                
  20772833.430   109162016.029    20772841.422    85061365.6104   20772841.172  
                
  22175159.125   118414066.724                    92099898.928    22175163.062  
  22175157.438  
  19194087.328   102423357.314                    79662609.933    19194090.367  
  19194085.375  
 21  8 15 18 31 10.0000000  0 15G16R 1G 4G14R12G20G 7G 5G 8G27R 3G30
                                G 9R13R 2
  24127310.055   126789905.905    24127316.422    98797366.6774                 
                
  21047230.547   112509531.056                    87507429.101    21047236.105  
  21047229.848  
  23150045.086   121654351.855    23150053.070    94795658.4014   23150052.930  
                
  24643829.070   129504194.706    24643836.250   100912391.2764   24643836.750  
                
  19165904.109   102380859.865                    79629564.516    19165907.703  
  19165903.516  
  22174388.102   116527206.643    22174394.160    90800455.9704                 
                
  20563836.727   108063732.195    20563843.043    84205563.6484   20563842.750  
                
  24438288.305   128424073.574    24438296.621   100070737.3394   24438296.629  
                
  24224273.078   127299409.175    24224282.930    99194392.9354   24224283.430  
                
  24139989.812   126856497.125    24139998.801    98849264.6414   24139998.793  
                
  22635987.828   121172220.297                    94245074.394    22635992.371  
  22635986.641  
  21747294.492   114282841.196    21747303.457    89051622.7834   21747303.684  
                
  20775459.133   109175814.174    20775467.133    85072117.4174   20775466.883  
                
  22168231.125   118377071.974                    92071125.244    22168235.098  
  22168229.477  
  19191807.930   102411193.990                    79653149.577    19191810.957  
  19191805.984  
 21  8 15 18 31 20.0000000  0 15G16R 1G 4G14R12G20G 7G 5G 8G27R 3G30
                                G 9R13R 2
  24133701.547   126823493.361    24133708.008    98823538.7264                 
                
  21053353.797   112542263.327                    87532887.516    21053359.379  
  21053353.094  
  23155472.148   121682871.341    23155480.125    94817881.3574   23155480.027  
                
  24636543.820   129465910.288    24636551.000   100882559.2804   24636551.469  
                
  19164648.461   102374152.397                    79624347.603    19164652.047  
  19164647.891  
  22171651.875   116512827.677    22171657.965    90789251.5824                 
                
  20563655.156   108062778.019    20563661.477    84204820.1324   20563661.184  
                
  24432431.000   128393293.214    24432439.273   100046752.6724   24432439.254  
                
  24219742.203   127275598.955    24219751.934    99175839.5154   24219752.441  
                
  24137617.539   126844030.805    24137626.535    98839550.6544   24137626.547  
                
  22628638.641   121132879.641                    94214476.120    22628643.258  
  22628637.445  
  21743414.117   114262449.722    21743423.102    89035733.3344   21743423.297  
                
  20778092.977   109189655.079    20778100.973    85082902.5424   20778100.715  
                
  22161310.000   118340112.851                    92042379.271    22161313.844  
  22161308.207  
  19189541.461   102399099.670                    79643742.877    19189544.480  
  19189539.531  
 21  8 15 18 31 30.0000000  0 15G16R 1G 4G14R12G20G 7G 5G 8G27R 3G30
                                G 9R13R 2
  24140099.594   126857115.323    24140106.086    98849737.6384                 
                
  21059486.242   112575044.790                    87558384.226    21059491.816  
  21059485.531  
  23160903.562   121711413.842    23160911.621    94840122.2504   23160911.520  
                
  24629259.336   129427629.867    24629266.508   100852730.3794   24629266.934  
                
  19163406.703   102367519.112                    79619188.385    19163410.289  
  19163406.152  
  22168927.438   116498510.633    22168933.562    90778095.4504                 
                
  20563479.953   108061857.297    20563486.277    84204102.6804   20563485.980  
                
  24426580.305   128362547.565    24426588.527   100022795.0384   24426588.496  
                
  24215217.445   127251820.865    24215227.066    99157311.1574   24215227.578  
                
  24135256.062   126831621.167    24135265.023    98829880.8074   24135265.051  
                
  22621292.156   121093553.352                    94183889.018    22621296.781  
  22621290.977  
  21739539.547   114242088.757    21739548.535    89019867.6534   21739548.711  
                
  20780734.945   109203538.707    20780742.941    85093720.9604   20780742.688  
                
  22154395.562   118303189.902                    92013661.424    22154399.391  
  22154393.719  
  19187287.945   102387074.415                    79634389.905    19187290.957  
  19187286.016  
 21  8 15 18 31 40.0000000  0 15G16R 1G 4G14R12G20G 7G 5G 8G27R 3G30
                                G 9R13R 2
  24146504.125   126890771.436    24146510.629    98875963.1144                 
                
  21065627.852   112607875.219                    87583918.990    21065633.410  
  21065627.133  
  23166339.305   121739979.172    23166347.484    94862380.9464   23166347.344  
                
  24621975.617   129389353.371    24621982.746   100822904.5424   24621983.152  
                
  19162178.758   102360959.716                    79614086.644    19162182.340  
  19162178.227  
  22166214.750   116484255.371    22166220.914    90766987.4594                 
                
  20563311.055   108060969.779    20563317.371    84203411.1044   20563317.082  
                
  24420736.180   128331836.503    24420744.340    99998864.3734   24420744.320  
                
  24210698.781   127228074.993    24210708.359    99138807.9024   24210708.871  
                
  24132905.344   126819268.112    24132914.242    98820255.0624   24132914.316  
                
  22613948.344   121054241.433                    94153313.102    22613952.953  
  22613947.168  
  21735670.734   114221758.101    21735679.723    89004025.5874   21735679.895  
                
  20783385.008   109217464.881    20783393.000    85104572.5314   20783392.758  
                
  22147487.844   118266302.641                    91984971.330    22147491.555  
  22147485.953  
  19185047.289   102375117.844                    79625090.340    19185050.285  
  19185045.363  
 21  8 15 18 31 50.0000000  0 15G16R 1G 4G14R12G20G 7G 5G 8G27R 3G30
                                G 9R13R 2
  24152915.156   126924461.822    24152921.688    98902215.2804                 
                
  21071778.617   112640754.579                    87609491.811    21071784.215  
  21071777.891  
  23171779.438   121768567.499    23171787.719    94884657.5484   23171787.578  
                
  24614692.648   129351081.100    24614699.793   100793081.9914   24614700.203  
                
  19160964.711   102354474.463                    79609042.562    19160968.285  
  19160964.195  
  22163513.875   116470062.178    22163520.047    90755927.8284                 
                
  20563148.539   108060115.719    20563154.840    84202745.5954   20563154.574  
                
  24414898.719   128301160.341    24414906.828    99974960.8974   24414906.812  
                
  24206186.320   127204361.667    24206195.887    99120329.9884   24206196.371  
                
  24130565.461   126806971.939    24130574.312    98810673.6354   24130574.414  
                
  22606607.227   121014944.170                    94122748.598    22606611.848  
  22606606.039  
  21731807.750   114201458.007    21731816.734    88988207.3434   21731816.906  
                
  20786043.203   109231433.817    20786051.199    85115457.4224   20786050.973  
                
  22140586.758   118229451.398                    91956309.287    22140590.523  
  22140584.863  
  19182819.602   102363230.470                    79615844.613    19182822.582  
  19182817.676  
 21  8 15 18 32  0.0000000  0 15G16R 1G 4G14R12G20G 7G 5G 8G27R 3G30
                                G 9R13R 2
  24159332.703   126958186.322    24159339.285    98928494.0574                 
                
  21077938.516   112673682.803                    87635102.641    21077944.168  
  21077937.809  
  23177223.938   121797178.868    23177232.281    94906952.0704   23177232.156  
                
  24607410.438   129312813.116    24607417.648   100763262.7874   24607418.047  
                
  19159764.523   102348063.275                    79604056.086    19159768.090  
  19159764.039  
  22160824.836   116455931.137    22160831.004    90744916.6324                 
                
  20562992.375   108059295.066    20562998.652    84202106.1264   20562998.418  
                
  24409067.898   128270519.134    24409075.961    99951084.6564   24409075.953  
                
  24201680.047   127180680.813    24201689.617    99101877.3984   24201690.062  
                
  24128236.398   126794732.694    24128245.215    98801136.5644   24128245.316  
                
  22599268.883   120975661.687                    94092195.552    22599273.527  
  22599267.676  
  21727950.570   114181188.474    21727959.551    88972412.9064   21727959.715  
                
  20788709.523   109245445.470    20788717.531    85126375.6014   20788717.305  
                
  22133692.641   118192636.323                    91927675.351    22133696.238  
  22133690.598  
  19180604.898   102351412.356                    79606652.747    19180607.883  
  19180602.973  
 21  8 15 18 32 10.0000000  0 15G16R 1G 4G14R12G20G 7G 5G 8G27R 3G30
                                G 9R13R 2
  24165756.766   126991945.016    24165763.387    98954799.5254                 
                
  21084107.562   112706659.895                    87660751.482    21084113.227  
  21084106.848  
  23182672.844   121825813.061    23182681.199    94929264.4254   23182681.078  
                
  24600128.992   129274549.475    24600136.363   100733446.9774   24600136.727  
                
  19158578.195   102341726.113                    79599127.174    19158581.754  
  19158577.715  
  22158147.602   116441862.185    22158153.770    90733953.8164                 
                
  20562842.555   108058507.758    20562848.809    84201492.6384   20562848.594  
                
  24403243.750   128239912.965    24403251.781    99927235.7454   24403251.781  
                
  24197180.000   127157032.589    24197189.445    99083450.2124   24197189.895  
                
  24125918.180   126782550.409    24125926.945    98791643.8914   24125927.039  
                
  22591933.344   120936394.052                    94061654.048    22591938.004  
  22591932.133  
  21724099.203   114160949.449    21724108.176    88956642.2474   21724108.363  
                
  20791383.977   109259499.820    20791392.008    85137327.0424   20791391.773  
                
  22126805.164   118155857.539                    91899069.635    22126808.750  
  22126803.082  
  19178403.156   102339663.451                    79597514.712    19178406.145  
  19178401.234  
 21  8 15 18 32 20.0000000  0 15G16R 1G 4G14R12G20G 7G 5G 8G27R 3G30
                                G 9R13R 2
  24172187.328   127025737.746    24172193.973    98981131.5724                 
                
  21090285.695   112739685.531                    87686438.090    21090291.387  
  21090284.980  
  23188126.117   121854470.103    23188134.453    94951594.6034   23188134.320  
                
  24592848.453   129236290.253    24592855.906   100703634.6034   24592856.227  
                
  19157405.703   102335462.867                    79594255.769    19157409.266  
  19157405.238  
  22155482.203   116427855.438    22155488.387    90723039.4714                 
                
  20562699.078   108057753.791    20562705.305    84200905.1444   20562705.117  
                
  24397426.289   128209341.961    24397434.285    99903414.2254   24397434.293  
                
  24192686.148   127133417.007    24192695.449    99065048.4654   24192695.934  
                
  24123610.820   126770425.189    24123619.586    98782195.6794   24123619.676  
                
  22584600.617   120897141.286                    94031124.158    22584605.281  
  22584599.375  
  21720253.648   114140740.975    21720262.621    88940895.3944   21720262.812  
                
  20794066.539   109273596.833    20794074.598    85148311.7354   20794074.355  
                
  22119924.297   118119114.981                    91870492.117    22119928.027  
  22119922.348  
  19176214.375   102327983.678                    79588430.447    19176217.375  
  19176212.449  
 21  8 15 18 32 30.0000000  0 15G16R 1G 4G14R12G20G 7G 5G 8G27R 3G30
                                G 9R13R 2
  24178624.328   127059564.299    24178631.000    99007489.9884                 
                
  21096472.906   112772759.784                    87712162.519    21096478.633  
  21096472.172  
  23193583.742   121883149.949    23193592.086    94973942.5324   23193591.934  
                
  24585568.797   129198035.510    24585576.316   100673825.7084   24585576.605  
                
  19156247.055   102329273.588                    79589441.895    19156250.613  
  19156246.590  
  22152828.641   116413910.864    22152834.852    90712173.5764                 
                
  20562561.938   108057033.101    20562568.141    84200343.5784   20562567.973  
                
  24391615.523   128178806.164    24391623.461    99879620.1074   24391623.477  
                
  24188198.508   127109834.296    24188207.781    99046672.3294   24188208.242  
                
  24121314.328   126758357.041    24121323.109    98772791.9544   24121323.168  
                
  22577270.648   120857903.572                    94000605.969    22577275.340  
  22577269.406  
  21716413.898   114120562.976    21716422.891    88925172.2864   21716423.062  
                
  20796757.219   109287736.470    20796765.301    85159329.6304   20796765.055  
                
  22113050.125   118082408.322                    91841942.510    22113054.074  
  22113048.320  
  19174038.648   102316373.582                    79579400.371    19174041.645  
  19174036.719  
 21  8 15 18 32 40.0000000  0 15G16R 1G 4G14R12G20G 7G 5G 8G27R 3G30
                                G 9R13R 2
  24185067.688   127093424.300    24185074.352    99033874.4814                 
                
  21102669.164   112805882.399                    87737924.530    21102674.898  
  21102668.398  
  23199045.672   121911852.476    23199054.059    94996308.1054   23199053.848  
                
  24578290.047   129159785.220    24578297.578   100644020.2934   24578297.840  
                
  19155102.211   102323157.985                    79584685.313    19155105.754  
  19155101.750  
  22150186.898   116400028.417    22150193.168    90701356.0814                 
                
  20562431.109   108056345.573    20562437.289    84199807.8454   20562437.141  
                
  24385811.453   128148305.569    24385819.328    99855853.4454   24385819.375  
                
  24183717.172   127086284.383    24183726.438    99028321.7544   24183726.871  
                
  24119028.703   126746345.944    24119037.449    98763432.6484   24119037.508  
                
  22569943.500   120818680.894                    93970099.475    22569948.203  
  22569942.270  
  21712579.945   114100415.394    21712588.973    88909472.8634   21712589.129  
                
  20799455.984   109301918.605    20799464.094    85170380.6484   20799463.840  
                
  22106182.789   118045738.071                    91813421.223    22106186.941  
  22106181.133  
  19171875.891   102304832.632                    79570424.072    19171878.883  
  19171873.969  
 21  8 15 18 32 50.0000000  0 15G16R 1G 4G14R12G20G 7G 5G 8G27R 3G30
                                G 9R13R 2
  24191517.430   127127317.899    24191524.039    99060285.1064                 
                
  21108874.484   112839053.447                    87763724.222    21108880.219  
  21108873.711  
  23204511.961   121940577.841    23204520.324    95018691.4954   23204520.105  
                
  24571012.133   129121539.676    24571019.758   100614218.5894   24571019.973  
                
  19153971.211   102317116.417                    79579986.322    19153974.746  
  19153970.754  
  22147557.016   116386208.340    22147563.344    90690587.2104                 
                
  20562306.625   108055691.398    20562312.789    84199298.0954   20562312.641  
                
  24380014.141   128117840.435    24380021.891    99832114.3894   24380021.977  
                
  24179242.141   127062767.495    24179251.363    99009996.9114   24179251.750  
                
  24116753.977   126734392.173    24116762.656    98754118.0484   24116762.754  
                
  22562619.172   120779473.607                    93939604.932    22562623.926  
  22562617.992  
  21708751.820   114080298.514    21708760.879    88893797.4034   21708761.027  
                
  20802162.875   109316143.474    20802171.000    85181464.9554   20802170.730  
                
  22099322.453   118009104.484                    91784928.458    22099326.613  
  22099320.789  
  19169726.219   102293361.576                    79561502.147    19169729.203  
  19169724.277  
 21  8 15 18 33  0.0000000  0 15G16R 1G 4G14R12G20G 7G 5G 8G27R 3G30
                                G 9R13R 2
  24197973.547   127161245.033    24197980.098    99086721.8324                 
                
  21115088.883   112872273.033                    87789561.677    21115094.621  
  21115088.090  
  23209982.617   121969326.081    23209990.914    95041092.7024   23209990.738  
                
  24563735.195   129083299.020    24563742.887   100584420.6824   24563743.020  
                
  19152854.062   102311148.823                    79575344.865    19152857.582  
  19152853.613  
  22144939.047   116372450.828    22144945.426    90679867.0744                 
                
  20562188.492   108055070.585    20562194.652    84198814.3524   20562194.496  
                
  24374223.602   128087410.885    24374231.297    99808403.0944   24374231.398  
                
  24174773.375   127039283.895    24174782.617    98991698.0164   24174782.969  
                
  24114490.195   126722495.890    24114498.859    98744848.2244   24114498.961  
                
  22555297.781   120740281.810                    93909122.442    22555302.570  
  22555296.617  
  21704929.516   114060212.258    21704938.574    88878145.7694   21704938.730  
                
  20804877.906   109330411.104    20804886.043    85192582.5844   20804885.762  
                
  22092468.961   117972507.516                    91756464.157    22092473.168  
  22092467.320  
  19167589.641   102281960.362                    79552634.529    19167592.637  
  19167587.703  
 21  8 15 18 33 10.0000000  0 15G16R 1G 4G14R12G20G 7G 5G 8G27R 3G30
                                G 9R13R 2
  24204436.000   127195205.354    24204442.516    99113184.4054                 
                
  21121312.312   112905540.850                    87815436.637    21121318.055  
  21121311.480  
  23215457.625   121998096.897    23215465.789    95063511.5294   23215465.652  
                
  24556459.117   129045063.070    24556466.906   100554626.4364   24556466.980  
                
  19151750.727   102305254.993                    79570760.782    19151754.234  
  19151750.281  
  22142332.953   116358755.709    22142339.375    90669195.5634                 
                
  20562076.680   108054482.977    20562082.848    84198356.4814   20562082.688  
                
  24368439.836   128057016.883    24368447.484    99784719.4784   24368447.582  
                
  24170310.945   127015833.670    24170320.184    98973425.1304   24170320.551  
                
  24112237.328   126710656.907    24112245.984    98735623.0414   24112246.055  
                
  22547979.305   120701105.363                    93878651.888    22547984.066  
  22547978.121  
  21701113.039   114040156.554    21701122.078    88862517.9654   21701122.227  
                
  20807601.031   109344721.261    20807609.172    85203733.3464   20807608.902  
                
  22085622.352   117935946.937                    91728028.173    22085626.531  
  22085620.707  
  19165466.109   102270628.771                    79543821.086    19165469.094  
  19165464.164  
 21  8 15 18 33 20.0000000  0 15G16R 1G 4G14R12G20G 7G 5G 8G27R 3G30
                                G 9R13R 2
  24210904.773   127229198.922    24210911.258    99139672.9084                 
                
  21127544.766   112938856.876                    87841349.092    21127550.516  
  21127543.906  
  23220936.938   122026890.464    23220945.016    95085948.0574   23220944.910  
                
  24549184.016   129006832.091    24549191.871   100524836.1004   24549191.871  
                
  19150661.211   102299434.985                    79566234.107    19150664.711  
  19150660.770  
  22139738.766   116345123.129    22139745.230    90658572.7784                 
                
  20561971.180   108053928.579    20561977.359    84197924.4874   20561977.184  
                
  24362662.852   128026658.671    24362670.531    99761063.7754   24362670.609  
                
  24165854.867   126992416.867    24165864.078    98955178.2734   24165864.473  
                
  24109995.406   126698875.472    24110004.016    98726442.6904   24110004.062  
                
  22540663.758   120661944.677                    93848193.579    22540668.488  
  22540662.578  
  21697302.367   114020131.419    21697311.375    88846913.9724   21697311.535  
                
  20810332.273   109359074.091    20810340.418    85214917.3674   20810340.156  
                
  22078782.594   117899423.091                    91699620.740    22078786.816  
  22078780.977  
  19163355.672   102259367.088                    79535061.995    19163358.648  
  19163353.730  
 21  8 15 18 33 30.0000000  0 15G16R 1G 4G14R12G20G 7G 5G 8G27R 3G30
                                G 9R13R 2
  24217379.828   127263225.485    24217386.219    99166187.1164                 
                
  21133786.195   112972220.908                    87867298.878    21133791.953  
  21133785.332  
  23226420.547   122055706.568    23226428.602    95108402.1654   23226428.480  
                
  24541909.898   128968606.046    24541917.754   100495049.5774   24541917.684  
                
  19149585.492   102293688.683                    79561764.769    19149588.984  
  19149585.051  
  22137156.438   116331552.912    22137162.902    90647998.5844                 
                
  20561871.969   108053407.226    20561878.160    84197518.2404   20561877.973  
                
  24356892.656   127996336.138    24356900.355    99737435.8704   24356900.422  
                
  24161405.195   126969033.573    24161414.387    98936957.5294   24161414.754  
                
  24107764.406   126687151.511    24107772.969    98717307.1304   24107773.031  
                
  22533351.133   120622799.680                    93817747.485    22533355.828  
  22533349.996  
  21693497.523   114000136.848    21693506.504    88831333.8054   21693506.680  
                
  20813071.609   109373469.432    20813079.750    85226134.5104   20813079.492  
                
  22071949.742   117862935.801                    91671241.737    22071953.898  
  22071948.066  
  19161258.375   102248175.489                    79526357.419    19161261.344  
  19161256.434  
 21  8 15 18 33 40.0000000  0 15G16R 1G 4G14R12G20G 7G 5G 8G27R 3G30
                                G 9R13R 2
  24223861.188   127297285.137    24223867.453    99192727.1134                 
                
  21140036.625   113005633.061                    87893286.111    21140042.387  
  21140035.766  
  23231908.445   122084545.436    23231916.457    95130873.9904   23231916.332  
                
  24534636.711   128930385.205    24534644.625   100465267.1104   24534644.520  
                
  19148523.617   102288016.335                    79557352.959    19148527.098  
  19148523.172  
  22134586.047   116318045.422    22134592.488    90637473.2644                 
                
  20561779.086   108052919.124    20561785.289    84197137.9034   20561785.094  
                
  24351129.305   127966049.595    24351137.027    99713836.0094   24351137.078  
                
  24156961.938   126945683.818    24156971.098    98918762.9344   24156971.445  
                
  24105544.375   126675485.275    24105552.957    98708216.5744   24105553.031  
                
  22526041.500   120583670.626                    93787313.793    22526046.125  
  22526040.422  
  21689698.516   113980172.966    21689707.480    88815777.5354   21689707.664  
                
  20815819.070   109387907.494    20815827.207    85237384.9394   20815826.949  
                
  22065123.812   117826485.590                    91642891.592    22065127.953  
  22065122.113  
  19159174.266   102237054.263                    79517707.574    19159177.219  
  19159172.320  
 21  8 15 18 33 50.0000000  0 15G16R 1G 4G14R12G20G 7G 5G 8G27R 3G30
                                G 9R13R 2
  24230348.797   127331377.626    24230354.922    99219292.7154                 
                
  21146296.023   113039092.977                    87919310.485    21146301.711  
  21146295.215  
  23237400.641   122113406.813    23237408.570    95153363.3674   23237408.461  
                
  24527364.461   128892169.489    24527372.473   100435488.6504   24527372.336  
                
  19147475.539   102282417.699                    79552998.477    19147479.008  
  19147475.094  
  22132027.562   116304600.515    22132033.980    90626996.7274                 
                
  20561692.500   108052464.097    20561698.711    84196783.3504   20561698.504  
                
  24345372.836   127935799.148    24345380.555    99690264.2744   24345380.582  
                
  24152525.039   126922367.879    24152534.254    98900594.6964   24152534.582  
                
  24103335.320   126663876.677    24103343.934    98699170.9494   24103344.004  
                
  22518734.844   120544557.390                    93756892.418    22518739.398  
  22518733.789  
  21685905.328   113960239.653    21685914.289    88800245.0824   21685914.461  
                
  20818574.633   109402388.086    20818582.762    85248668.5134   20818582.520  
                
  22058304.875   117790072.129                    91614570.032    22058308.883  
  22058303.031  
  19157103.266   102226003.017                    79509112.159    19157106.199  
  19157101.320  
 21  8 15 18 34  0.0000000  0 15G16R 1G 4G14R12G20G 7G 5G 8G27R 3G30
                                G 9R13R 2
  24236842.625   127365502.816    24236848.645    99245883.7604                 
                
  21152564.359   113072600.814                    87945372.134    21152570.023  
  21152563.562  
  23242897.125   122142290.709    23242904.984    95175870.3004   23242904.902  
                
  24520093.180   128853959.001    24520101.332   100405714.2694   24520101.145  
                
  19146441.250   102276892.709                    79548701.263    19146444.711  
  19146440.797  
  22129480.984   116291218.190    22129487.379    90616568.9464                 
                
  20561612.195   108052042.100    20561618.406    84196454.5264   20561618.195  
                
  24339623.250   127905584.839    24339630.941    99666720.6814   24339630.945  
                
  24148094.570   126899085.757    24148103.844    98882452.8134   24148104.172  
                
  24101137.273   126652325.854    24101145.883    98690170.3154   24101145.965  
                
  22511431.180   120505460.281                    93726483.564    22511435.703  
  22511430.121  
  21682117.969   113940336.975    21682126.914    88784736.5144   21682127.074  
                
  20821338.281   109416911.246    20821346.402    85259985.2564   20821346.168  
                
  22051492.727   117753695.730                    91586277.309    22051496.758  
  22051490.887  
  19155045.359   102215021.611                    79500571.072    19155048.293  
  19155043.395  
 21  8 15 18 34 10.0000000  0 15G16R 1G 4G14R12G20G 7G 5G 8G27R 3G30
                                G 9R13R 2
  24243342.672   127399660.616    24243348.594    99272500.2334                 
                
  21158841.602   113106156.316                    87971470.855    21158847.293  
  21158840.824  
  23248397.875   122171197.099    23248405.688    95198394.7444   23248405.629  
                
  24512822.945   128815753.811    24512831.215   100375944.0044   24512830.949  
                
  19145420.750   102271441.371                    79544461.340    19145424.203  
  19145420.289  
  22126946.336   116277898.535    22126952.703    90606189.9984                 
                
  20561538.188   108051653.141    20561544.395    84196151.4364   20561544.176  
                
  24333880.531   127875406.572    24333888.195    99643205.1844   24333888.195  
                
  24143670.570   126875837.533    24143679.891    98864337.3294   24143680.234  
                
  24098950.227   126640832.797    24098958.816    98681214.6934   24098958.910  
                
  22504130.547   120466379.370                    93696087.342    22504135.086  
  22504129.453  
  21678336.430   113920464.875    21678345.332    88769251.7804   21678345.500  
                
  20824110.039   109431476.928    20824118.148    85271335.1314   20824117.914  
                
  22044687.266   117717356.185                    91558013.247    22044691.508  
  22044685.609  
  19153000.719   102204111.012                    79492085.050    19153003.645  
  19152998.754  
 21  8 15 18 34 20.0000000  0 15G16R 1G 4G14R12G20G 7G 5G 8G27R 3G30
                                G 9R13R 2
  24249848.930   127433851.092    24249854.785    99299142.1804                 
                
  21165127.828   113139759.746                    87997606.842    21165133.535  
  21165127.066  
  23253902.938   122200126.135    23253910.723    95220936.8404   23253910.680  
                
  24505553.758   128777554.208    24505562.090   100346178.0924   24505561.809  
                
  19144414.055   102266063.775                    79540278.774    19144417.500  
  19144413.594  
  22124423.664   116264641.818    22124430.008    90595860.0904                 
                
  20561470.500   108051297.407    20561476.703    84195874.2504   20561476.480  
                
  24328144.742   127845264.723    24328152.387    99619718.0554   24328152.375  
                
  24139253.031   126852623.495    24139262.430    98846248.5004   24139262.777  
                
  24096774.234   126629397.849    24096782.816    98672304.3464   24096782.910  
                
  22496832.930   120427314.883                    93665703.902    22496837.527  
  22496831.820  
  21674560.750   113900623.597    21674569.613    88753791.0544   21674569.816  
                
  20826889.922   109446085.325    20826898.012    85282718.2984   20826897.793  
                
  22037888.992   117681054.061                    91529778.260    22037893.254  
  22037887.352  
  19150969.273   102193270.844                    79483653.812    19150972.195  
  19150967.305  
 21  8 15 18 34 30.0000000  0 15G16R 1G 4G14R12G20G 7G 5G 8G27R 3G30
                                G 9R13R 2
  24256361.359   127468074.005    24256367.133    99325809.3964                 
                
  21171422.945   113173410.603                    88023779.716    21171428.648  
  21171422.215  
  23259412.297   122229077.665    23259420.023    95243496.4694   23259420.004  
                
  24498285.617   128739360.152    24498294.016   100316416.5274   24498293.711  
                
  19143421.141   102260759.826                    79536153.482    19143424.582  
  19143420.672  
  22121912.961   116251447.981    22121919.270    90585579.1694                 
                
  20561409.086   108050974.672    20561415.281    84195622.7734   20561415.066  
                
  24322415.859   127815159.256    24322423.484    99596259.2844   24322423.477  
                
  24134842.000   126829443.684    24134851.496    98828186.3444   24134851.836  
                
  24094609.281   126618020.912    24094617.828    98663439.2044   24094617.910  
                
  22489538.383   120388266.810                    93635333.211    22489543.047  
  22489537.285  
  21670790.906   113880812.976    21670799.742    88738354.2174   21670799.953  
                
  20829677.906   109460736.317    20829685.973    85294134.6434   20829685.754  
                
  22031097.664   117644789.160                    91501572.236    22031101.930  
  22031096.039  
  19148950.961   102182500.748                    79475277.076    19148953.895  
  19148948.988  
 21  8 15 18 34 40.0000000  0 15G16R 1G 4G14R12G20G 7G 5G 8G27R 3G30
                                G 9R13R 2
  24262879.930   127502329.161    24262885.641    99352501.7294                 
                
  21177726.961   113207109.087                    88049989.648    21177732.648  
  21177726.242  
  23264925.898   122258051.617    23264933.566    95266073.5634   23264933.590  
                
  24491018.586   128701171.676    24491026.953   100286659.2754   24491026.648  
                
  19142442.000   102255529.462                    79532085.425    19142445.430  
  19142441.535  
  22119414.227   116238317.036    22119420.516    90575347.2664                 
                
  20561353.953   108050684.949    20561360.145    84195397.0264   20561359.922  
                
  24316693.922   127785090.242    24316701.520    99572828.9154   24316701.504  
                
  24130437.531   126806298.100    24130447.062    98810150.8354   24130447.445  
                
  24092455.375   126606702.024    24092463.895    98654619.3034   24092463.980  
                
  22482246.961   120349235.305                    93604975.381    22482251.641  
  22482245.922  
  21667026.891   113861033.027    21667035.707    88722941.2794   21667035.918  
                
  20832473.984   109475429.830    20832482.027    85305584.1314   20832481.809  
                
  22024313.516   117608561.442                    91473395.150    22024317.609  
  22024311.668  
  19146945.969   102171801.732                    79466955.630    19146948.883  
  19146943.992  
 21  8 15 18 34 50.0000000  0 15G16R 1G 4G14R12G20G 7G 5G 8G27R 3G30
                                G 9R13R 2
  24269404.633   127536616.605    24269410.273    99379219.2334                 
                
  21184039.859   113240855.107                    88076236.544    21184045.535  
  21184039.160  
  23270443.773   122287048.041    23270451.445    95288668.1684   23270451.480  
                
  24483752.602   128662988.981    24483760.977   100256906.5424   24483760.676  
                
  19141476.656   102250372.767                    79528074.669    19141480.078  
  19141476.188  
  22116927.484   116225249.090    22116933.754    90565164.4414                 
                
  20561305.141   108050428.381    20561311.316    84195197.1144   20561311.098  
                
  24310978.984   127755057.905    24310986.480    99549427.0924   24310986.469  
                
  24126039.562   126783186.921    24126049.160    98792142.1364   24126049.562  
                
  24090312.531   126595441.351    24090321.094    98645844.7614   24090321.172  
                
  22474958.688   120310220.500                    93574630.534    22474963.316  
  22474957.680  
  21663268.742   113841283.839    21663277.555    88707552.3104   21663277.773  
                
  20835278.180   109490165.965    20835286.199    85317066.8354   20835285.984  
                
  22017536.273   117572371.211                    91445247.206    22017540.332  
  22017534.387  
  19144954.180   102161173.155                    79458688.956    19144957.082  
  19144952.199  
 21  8 15 18 35  0.0000000  0 15G16R 1G 4G14R12G20G 7G 5G 8G27R 3G30
                                G 9R13R 2
  24275935.469   127570936.279    24275941.020    99405961.8574                 
                
  21190361.617   113274648.529                    88102520.295    21190367.285  
  21190360.895  
  23275965.945   122316067.007    23275973.633    95311280.3244   23275973.641  
                
  24476487.727   128624812.192    24476496.137   100227158.3994   24476495.836  
                
  19140525.109   102245289.803                    79524121.264    19140528.523  
  19140524.633  
  22114452.742   116212244.255    22114458.996    90555030.8104                 
                
  20561262.617   108050204.914    20561268.781    84195022.9924   20561268.574  
                
  24305271.023   127725062.388    24305278.430    99526053.9764   24305278.410  
                
  24121648.195   126760110.388    24121657.832    98774160.4264   24121658.234  
                
  24088180.805   126584239.037    24088189.410    98637115.7024   24088189.480  
                
  22467673.531   120271222.671                    93544298.934    22467678.172  
  22467672.520  
  21659516.461   113821565.511    21659525.258    88692187.3894   21659525.473  
                
  20838090.500   109504944.800    20838098.492    85328582.7924   20838098.281  
                
  22010766.195   117536218.645                    91417128.570    22010770.094  
  22010764.164  
  19142975.758   102150615.900                    79450477.762    19142978.652  
  19142973.781  
 21  8 15 18 35 10.0000000  0 15G16R 1G 4G14R12G20G 7G 5G 8G27R 3G30
                                G 9R13R 2
  24282472.398   127605288.007    24282477.895    99432729.4494                 
                
  21196692.266   113308489.443                    88128840.993    21196697.957  
  21196691.555  
  23281492.383   122345108.443    23281500.059    95333910.0194   23281500.090  
                
  24469223.938   128586641.386    24469232.438   100197414.9434   24469232.133  
                
  19139587.359   102240280.506                    79520225.145    19139590.758  
  19139586.871  
  22111990.031   116199302.584    22111996.289    90544946.3904                 
                
  20561226.383   108050014.479    20561232.523    84194874.6034   20561232.336  
                
  24299570.070   127695103.700    24299577.395    99502709.5694   24299577.391  
                
  24117263.445   126737068.678    24117273.121    98756205.8624   24117273.566  
                
  24086060.188   126573095.138    24086068.789    98628432.1464   24086068.875  
                
  22460391.578   120232241.841                    93513980.534    22460396.195  
  22460390.539  
  21655770.055   113801878.028    21655778.828    88676846.5124   21655779.055  
                
  20840910.938   109519766.279    20840918.906    85340131.9854   20840918.691  
                
  22004002.984   117500103.564                    91389039.064    22004006.898  
  22004000.949  
  19141010.648   102140129.658                    79442321.801    19141013.531  
  19141008.672  
 21  8 15 18 35 20.0000000  0 15G16R 1G 4G14R12G20G 7G 5G 8G27R 3G30
                                G 9R13R 2
  24289015.414   127639671.685    24289020.871    99459521.9284                 
                
  21203031.766   113342377.689                    88155198.514    21203037.496  
  21203031.059  
  23287023.070   122374172.333    23287030.781    95356557.1914   23287030.828  
                
  24461961.375   128548476.664    24461969.852   100167676.1934   24461969.582  
                
  19138663.367   102235344.802                    79516386.270    19138666.773  
  19138662.863  
  22109539.336   116186424.090    22109545.598    90534911.1994                 
                
  20561196.422   108049857.092    20561202.539    84194751.9744   20561202.367  
                
  24293876.188   127665182.073    24293883.438    99479394.0344   24293883.453  
                
  24112885.328   126714061.792    24112895.043    98738278.4284   24112895.484  
                
  24083950.688   126562009.709    24083959.293    98619794.1594   24083959.375  
                
  22453112.844   120193278.181                    93483675.489    22453117.430  
  22453111.793  
  21652029.508   113782221.392    21652038.266    88661529.6704   21652038.508  
                
  20843739.477   109534630.404    20843747.422    85351714.4184   20843747.207  
                
  21997246.680   117464026.206                    91360978.913    21997250.727  
  21997244.820  
  19139058.820   102129714.339                    79434220.993    19139061.680  
  19139056.844  
 21  8 15 18 35 30.0000000  0 15G16R 1G 4G14R12G20G 7G 5G 8G27R 3G30
                                G 9R13R 2
  24295564.445   127674087.006    24295569.902    99486339.0664                 
                
  21209380.016   113376312.760                    88181592.445    21209385.844  
  21209379.254  
  23292557.984   122403258.435    23292565.758    95379221.6724   23292565.824  
                
  24454699.922   128510317.869    24454708.418   100137942.1024   24454708.191  
                
  19137753.117   102230482.398                    79512604.405    19137756.504  
  19137752.594  
  22107100.633   116173608.614    22107106.906    90524925.1254                 
                
  20561172.719   108049732.518    20561178.816    84194654.9164   20561178.641  
                
  24288189.312   127635297.272    24288196.547    99456107.2134   24288196.590  
                
  24108513.828   126691089.549    24108523.539    98720377.9874   24108523.984  
                
  24081852.312   126550982.625    24081860.949    98611201.6344   24081861.020  
                
  22445837.289   120154331.570                    93453383.732    22445841.855  
  22445836.223  
  21648294.805   113762595.419    21648303.551    88646236.7244   21648303.793  
                
  20846576.102   109549536.966    20846584.012    85363329.9114   20846583.805  
                
  21990497.695   117427986.577                    91332948.117    21990501.664  
  21990495.773  
  19137120.297   102119369.963                    79426175.363    19137123.164  
  19137118.320  
 21  8 15 18 35 40.0000000  0 15G16R 1G 4G14R12G20G 7G 5G 8G27R 3G30
                                G 9R13R 2
  24302119.500   127708533.939    24302124.977    99513180.8444                 
                
  21215737.039   113410294.806                    88208022.887    21215742.926  
  21215736.270  
  23298097.094   122432366.756    23298104.992    95401903.4364   23298105.062  
                
  24447439.586   128472165.151    24447448.156   100108212.7454   24447447.949  
                
  19136856.602   102225693.418                    79508879.644    19136859.984  
  19136856.070  
  22104673.953   116160856.298    22104680.223    90514988.2474                 
                
  20561155.258   108049640.795    20561161.336    84194583.4434   20561161.176  
                
  24282509.469   127605449.513    24282516.668    99432849.2324   24282516.730  
                
  24104149.008   126668152.279    24104158.672    98702504.7994   24104159.125  
                
  24079765.055   126540014.003    24079773.688    98602654.6654   24079773.750  
                
  22438564.922   120115402.157                    93423105.326    22438569.461  
  22438563.844  
  21644565.930   113743000.113    21644574.672    88630967.6724   21644574.914  
                
  20849420.805   109564485.981    20849428.684    85374978.4824   20849428.500  
                
  21983755.688   117391984.461                    91304946.501    21983759.625  
  21983753.766  
  19135195.039   102109096.414                    79418184.824    19135197.902  
  19135193.070  
 21  8 15 18 35 50.0000000  0 15G16R 1G 4G14R12G20G 7G 5G 8G27R 3G30
                                G 9R13R 2
  24308680.555   127743012.402    24308686.059    99540047.1834                 
                
  21222102.883   113444323.840                    88234489.921    21222108.801  
  21222102.133  
  23303640.469   122461497.351    23303648.512    95424602.5834   23303648.559  
                
  24440180.508   128434018.664    24440189.098   100078488.2154   24440188.879  
                
  19135973.828   102220977.796                    79505211.942    19135977.207  
  19135973.297  
  22102259.289   116148167.149    22102265.555    90505100.6054                 
                
  20561144.062   108049581.927    20561150.125    84194537.5794   20561149.973  
                
  24276836.688   127575638.935    24276843.883    99409620.2524   24276843.969  
                
  24099790.930   126645250.341    24099800.504    98684659.1144   24099800.992  
                
  24077688.961   126529103.980    24077697.562    98594153.3534   24077697.617  
                
  22431295.781   120076490.017                    93392840.351    22431300.332  
  22431294.703  
  21640842.914   113723435.566    21640851.652    88615722.5864   21640851.883  
                
  20852273.602   109579477.533    20852281.449    85386660.2084   20852281.273  
                
  21977020.867   117356020.066                    91276974.181    21977024.637  
  21977018.852  
  19133283.188   102098894.402                    79410249.920    19133286.039  
  19133281.219  
 21  8 15 18 36  0.0000000  0 15G16R 1G 4G14R12G20G 7G 5G 8G27R 3G30
                                G 9R13R 2
  24315247.562   127777522.155    24315253.043    99566937.8964                 
                
  21228477.477   113478399.689                    88260993.363    21228483.418  
  21228476.727  
  23309188.055   122490650.002    23309196.199    95447318.9304   23309196.188  
                
  24432922.711   128395878.365    24432931.223   100048768.5344   24432930.996  
                
  19135104.750   102216335.377                    79501601.173    19135108.117  
  19135104.207  
  22099856.648   116135541.195    22099862.898    90495262.1914                 
                
  20561139.078   108049555.772    20561145.137    84194517.1974   20561144.980  
                
  24271170.969   127545865.600    24271178.133    99386420.2604   24271178.258  
                
  24095439.477   126622383.442    24095449.008    98666840.7714   24095449.512  
                
  24075623.984   126518252.490    24075632.574    98585697.6464   24075632.613  
                
  22424029.930   120037595.466                    93362589.049    22424034.473  
  22424028.859  
  21637125.727   113703901.693    21637134.453    88600501.4074   21637134.688  
                
  20855134.461   109594511.443    20855142.273    85398374.9334   20855142.109  
                
  21970293.023   117320093.612                    91249031.378    21970296.750  
  21970291.031  
  19131384.672   102088763.547                    79402370.370    19131387.523  
  19131382.707  
 21  8 15 18 36 10.0000000  0 15G16R 1G 4G14R12G20G 7G 5G 8G27R 3G30
                                G 9R13R 2
  24321820.508   127812063.242    24321825.953    99593853.0444                 
                
  21234860.812   113512522.241                    88287533.105    21234866.809  
  21234860.035  
  23314739.914   122519824.880    23314748.059    95470052.5904   23314748.008  
                
