     2.11           OBSERVATION DATA    M (MIXED)           RINEX VERSION / TYPE
EFT-CORS.RU                             20210817 144756 UTC PGM / RUN BY / DATE 
MDNG                                                        MARKER NAME         
                                                            MARKER NUMBER       
MDNG                EFT-CORS.RU                             OBSERVER / AGENCY   
0                   TRIMBLE BD970       2.0                 REC # / TYPE / VERS 
0                   UNKNOWN EXT NONE                        ANT # / TYPE        
  3463911.2830  3030468.2400  4402179.3760                  APPROX POSITION XYZ 
        0.0000        0.0000        0.0000                  ANTENNA: DELTA H/E/N
     1     1                                                WAVELENGTH FACT L1/2
     6    C1    L1    P2    L2    C2    P1                  # / TYPES OF OBSERV 
    10.000                                                  INTERVAL            
  2021     8    16     1    30    0.0000000     GPS         TIME OF FIRST OBS   
  2021     8    16     2    30    0.0000000     GPS         TIME OF LAST OBS    
     0                                                      RCV CLOCK OFFS APPL 
                                                            END OF HEADER       
 21  8 16  1 30  0.0000000  0 13G 6R14R16G12R15R18G24R24R17G19G32G 2
                                G25
  21447487.227   112707317.620    21447495.871    87823925.3994   21447496.148  
                
  22438909.234   119612038.701                    93031578.974    22438913.285  
  22438908.938  
  20934993.797   111830992.669                    86979649.189    20934995.094  
  20934993.434  
  20628591.281   108403995.429    20628596.707    84470676.2684   20628596.785  
                
  19361090.750   103459829.649                    80468736.405    19361094.430  
  19361090.492  
  20256060.789   108128237.123                    84099737.598    20256064.043  
  20256059.312  
  20903015.906   109846108.681    20903024.723    85594399.6194   20903024.645  
                
  22689279.336   121329793.306                    94367617.768    22689282.871  
  22689278.090  
  19265848.914   103095458.674                    80185358.312    19265851.258  
  19265847.027  
  22381606.312   117616141.886    22381610.328    91648981.5664                 
                
  24340090.789   127908041.330    24340099.391    99668626.0994   24340099.473  
                
  21757149.227   114334602.702    21757152.996    89091919.1564                 
                
  22605118.352   118790720.732    22605127.230    92564227.5644   22605127.582  
                
 21  8 16  1 30 10.0000000  0 13G 6R14R16G12R15R18G24R24R17G19G32G 2
                                G25
  21447349.727   112706595.083    21447358.371    87823362.3844   21447358.656  
                
  22445344.906   119646344.192                    93058261.003    22445348.957  
  22445344.590  
  20929296.500   111800558.791                    86955978.383    20929297.789  
  20929296.160  
  20625905.820   108389883.248    20625911.254    84459679.7674   20625911.324  
                
  19362299.727   103466290.068                    80473761.171    19362303.387  
  19362299.469  
  20250493.117   108098516.536                    84076621.583    20250496.355  
  20250491.641  
  20906598.031   109864932.877    20906606.812    85609067.8234   20906606.762  
                
  22696756.883   121369779.133                    94398717.849    22696760.402  
  22696755.660  
  19267702.820   103105379.238                    80193074.315    19267705.152  
  19267700.977  
  22387392.031   117646546.010    22387396.102    91672673.0894                 
                
  24339603.781   127905482.077    24339612.320    99666631.8654   24339612.426  
                
  21753797.492   114316989.260    21753801.277    89078194.4024                 
                
  22599688.695   118762187.695    22599697.574    92541994.0294   22599697.910  
                
 21  8 16  1 30 20.0000000  0 13G 6R14R16G12R15R18G24R24R17G19G32G 2
                                G25
  21447225.398   112705941.734    21447234.031    87822853.2794   21447234.320  
                
  22451786.430   119680681.333                    93084967.661    22451790.590  
  22451786.145  
  20923604.750   111770154.437                    86932330.562    20923606.023  
  20923604.422  
  20623226.680   108375804.292    20623232.125    84448709.1554   20623232.199  
                
  19363520.391   103472812.962                    80478834.537    19363524.043  
  19363520.152  
  20244937.609   108068860.864                    84053556.050    20244940.859  
  20244936.137  
  20910190.547   109883811.657    20910199.305    85623778.5624   20910199.273  
                
  22704239.156   121409790.131                    94429837.497    22704242.660  
  22704237.945  
  19269571.953   103115381.352                    80200853.735    19269574.262  
  19269570.129  
  22393182.211   117676973.640    22393186.309    91696382.9264                 
                
  24339128.180   127902982.752    24339136.688    99664684.3524   24339136.785  
                
  21750455.672   114299427.905    21750459.508    89064510.2354                 
                
  22594261.945   118733669.822    22594270.801    92519772.3004   22594271.129  
                
 21  8 16  1 30 30.0000000  0 13G 6R14R16G12R15R18G24R24R17G19G32G 2
                                G25
  21447114.273   112705357.795    21447122.879    87822398.2524   21447123.172  
                
  22458234.023   119715050.228                    93111699.014    22458238.195  
  22458233.703  
  20917918.578   111739779.935                    86908705.952    20917919.805  
  20917918.266  
  20620553.906   108361758.794    20620559.363    84437764.6134   20620559.422  
                
  19364752.820   103479398.714                    80483956.776    19364756.453  
  19364752.605  
  20239394.266   108039270.157                    84030541.067    20239397.516  
  20239392.805  
  20913793.484   109902745.215    20913802.227    85638531.9764   20913802.203  
                
  22711726.109   121449826.042                    94460976.525    22711729.605  
  22711724.902  
  19271456.344   103125465.077                    80208696.642    19271458.645  
  19271454.520  
  22398976.883   117707424.825    22398981.000    91720111.1144                 
                
  24338664.008   127900543.503    24338672.480    99662783.6294   24338672.609  
                
  21747123.805   114281918.824    21747127.691    89050866.7974                 
                
  22588838.086   118705167.335    22588846.996    92497562.5844   22588847.316  
                
 21  8 16  1 30 40.0000000  0 13G 6R14R16G12R15R18G24R24R17G19G32G 2
                                G25
  21447016.375   112704843.340    21447024.949    87821997.3984   21447025.254  
                
  22464687.492   119749450.981                    93138455.143    22464691.766  
  22464687.207  
  20912238.039   111709435.484                    86885104.715    20912239.242  
  20912237.730  
  20617887.531   108347746.904    20617893.000    84426846.2564   20617893.062  
                
  19365997.031   103486047.441                    80489128.013    19366000.645  
  19365996.848  
  20233863.180   108009744.878                    84007576.968    20233866.438  
  20233861.715  
  20917406.844   109921733.536    20917415.566    85653328.0694   20917415.555  
                
  22719217.750   121489887.016                    94492135.052    22719221.203  
  22719216.496  
  19273356.016   103135630.601                    80216603.164    19273358.301  
  19273354.168  
  22404776.039   117737899.572    22404780.230    91743857.6724                 
                
  24338211.289   127898164.451    24338219.773    99660929.8304   24338219.898  
                
  21743801.930   114264462.240    21743805.844    89037264.2694                 
                
  22583417.180   118676680.348    22583426.137    92475364.9574   22583426.453  
                
 21  8 16  1 30 50.0000000  0 13G 6R14R16G12R15R18G24R24R17G19G32G 2
                                G25
  21446931.641   112704398.057    21446940.164    87821650.4204   21446940.492  
                
  22471146.883   119783883.234                    93165235.795    22471151.184  
  22471146.633  
  20906563.070   111679120.805                    86861526.639    20906564.250  
  20906562.766  
  20615227.469   108333768.231    20615232.949    84415953.7824   20615233.012  
                
  19367252.953   103492758.681                    80494347.858    19367256.562  
  19367252.809  
  20228344.273   107980284.600                    83984663.421    20228347.543  
  20228342.824  
  20921030.547   109940776.259    20921039.254    85668166.5514   20921039.246  
                
  22726713.906   121529972.343                    94523312.520    22726717.363  
  22726712.617  
  19275270.852   103145877.280                    80224572.811    19275273.129  
  19275269.004  
  22410579.578   117768397.385    22410583.805    91767622.2014                 
                
  24337769.961   127895845.238    24337778.445    99659122.6444   24337778.590  
                
  21740489.969   114247057.828    21740493.887    89023702.3884                 
                
  22577999.180   118648208.616    22578008.121    92453179.1894   22578008.453  
                
 21  8 16  1 31  0.0000000  0 13G 6R14R16G12R15R18G24R24R17G19G32G 2
                                G25
  21446860.109   112704022.162    21446868.582    87821357.5154   21446868.926  
                
  22477612.234   119818347.078                    93192041.007    22477616.535  
  22477611.984  
  20900893.750   111648836.311                    86837972.022    20900894.914  
  20900893.449  
  20612573.789   108319823.063    20612579.293    84405087.4244   20612579.344  
                
  19368520.633   103499532.791                    80499616.611    19368524.223  
  19368520.527  
  20222837.617   107950889.709                    83961800.729    20222840.910  
  20222836.172  
  20924664.648   109959873.528    20924673.348    85683047.5424   20924673.359  
                
  22734214.664   121570082.302                    94554509.138    22734218.121  
  22734213.379  
  19277200.922   103156205.486                    80232605.862    19277203.207  
  19277199.074  
  22416387.570   117798918.546    22416391.801    91791404.9164                 
                
  24337340.078   127893586.101    24337348.496    99657362.2624   24337348.648  
                
  21737188.000   114229705.861    21737191.941    89010181.3844                 
                
  22572584.117   118619752.365    22572593.078    92431005.5234   22572593.387  
                
 21  8 16  1 31 10.0000000  0 13G 6R14R16G12R15R18G24R24R17G19G32G 2
                                G25
  21446801.766   112703715.632    21446810.195    87821118.6604   21446810.562  
                
  22484083.562   119852842.548                    93218870.815    22484087.812  
  22484083.254  
  20895230.062   111618581.909                    86814440.817    20895231.211  
  20895229.773  
  20609926.492   108305911.451    20609932.023    84394247.2064   20609932.055  
                
  19369800.094   103506369.850                    80504934.328    19369803.656  
  19369800.020  
  20217343.219   107921560.238                    83938988.917    20217346.516  
  20217341.758  
  20928309.102   109979025.263    20928317.820    85697970.9674   20928317.816  
                
  22741720.016   121610216.758                    94585724.832    22741723.477  
  22741718.785  
  19279146.180   103166614.969                    80240702.123    19279148.461  
  19279144.336  
  22422199.984   117829462.915    22422204.219    91815205.7114                 
                
  24336921.609   127891386.953    24336929.938    99655648.6294   24336930.125  
                
  21733896.016   114212406.395    21733900.004    88996701.2894                 
                
  22567172.039   118591311.683    22567180.984    92408843.9294   22567181.301  
                
 21  8 16  1 31 20.0000000  0 13G 6R14R16G12R15R18G24R24R17G19G32G 2
                                G25
  21446756.609   112703478.304    21446765.012    87820933.7384   21446765.391  
                
  22490560.766   119887369.356                    93245724.983    22490564.980  
  22490560.434  
  20889572.055   111588357.819                    86790933.199    20889573.199  
  20889571.762  
  20607285.555   108292033.243    20607291.117    84383433.0204   20607291.137  
                
  19371091.281   103513269.538                    80510300.757    19371094.836  
  19371091.234  
  20211861.055   107892296.116                    83916227.954    20211864.352  
  20211859.582  
  20931963.883   109998231.255    20931972.625    85712936.6694   20931972.594  
                
  22749229.859   121650375.201                    94616959.184    22749233.328  
  22749228.699  
  19281106.594   103177105.488                    80248861.422    19281108.883  
  19281104.754  
  22428016.781   117860030.284    22428021.016    91839024.4434                 
                
  24336514.531   127889247.678    24336522.770    99653981.6594   24336522.934  
                
  21730614.016   114195159.352    21730618.047    88983262.0414                 
                
  22561762.883   118562886.365    22561771.781    92386694.3484   22561772.133  
                
 21  8 16  1 31 30.0000000  0 13G 6R14R16G12R15R18G24R24R17G19G32G 2
                                G25
  21446724.641   112703310.348    21446733.016    87820802.8684   21446733.398  
                
  22497043.953   119921927.553                    93272603.582    22497048.098  
  22497043.535  
  20883919.711   111558164.052                    86767449.160    20883920.875  
  20883919.402  
  20604651.000   108278188.597    20604656.602    84372644.9914   20604656.613  
                
  19372394.266   103520232.271                    80515716.211    19372397.801  
  19372394.242  
  20206391.203   107863097.651                    83893518.025    20206394.488  
  20206389.750  
  20935629.000   110017491.564    20935637.762    85727944.7064   20935637.719  
                
  22756744.234   121690557.833                    94648212.332    22756747.703  
  22756743.051  
  19283082.164   103187677.153                    80257083.821    19283084.461  
  19283080.340  
  22433837.945   117890620.655    22433842.188    91862861.0864                 
                
  24336118.875   127887168.405    24336127.004    99652361.4274   24336127.195  
                
  21727342.023   114177964.969    21727346.066    88969863.8224                 
                
  22556356.695   118534476.652    22556365.582    92364556.9254   22556365.941  
                
 21  8 16  1 31 40.0000000  0 13G 6R14R16G12R15R18G24R24R17G19G32G 2
                                G25
  21446705.883   112703211.796    21446714.230    87820726.0754   21446714.621  
                
  22503533.023   119956517.268                    93299506.671    22503537.094  
  22503532.535  
  20878273.078   111528000.805                    86743988.860    20878274.246  
  20878272.766  
  20602022.867   108264377.677    20602028.496    84361883.2344   20602028.492  
                
  19373709.016   103527257.876                    80521180.575    19373712.543  
  19373709.016  
  20200933.672   107833964.985                    83870859.277    20200936.945  
  20200932.234  
  20939304.461   110036806.200    20939313.219    85742995.0634   20939313.180  
                
  22764263.047   121730764.224                    94679483.938    22764266.547  
  22764261.840  
  19285072.875   103198329.836                    80265369.258    19285075.180  
  19285071.055  
  22439663.492   117921234.046    22439667.742    91886715.6714                 
                
  24335734.633   127885149.154    24335742.711    99650787.9954   24335742.895  
                
  21724080.078   114160823.350    21724084.145    88956506.7194                 
                
  22550953.492   118506082.620    22550962.395    92342431.7064   22550962.707  
                
 21  8 16  1 31 50.0000000  0 13G 6R14R16G12R15R18G24R24R17G19G32G 2
                                G25
  21446700.312   112703182.529    21446708.637    87820703.2704   21446709.031  
                
  22510027.828   119991138.192                    93326434.045    22510031.938  
  22510027.371  
  20872632.148   111497867.926                    86720552.179    20872633.305  
  20872631.820  
  20599401.117   108250600.289    20599406.766    84351147.6134   20599406.750  
                
  19375035.539   103534346.410                    80526693.889    19375039.059  
  19375035.555  
  20195488.469   107804898.133                    83848251.750    20195491.742  
  20195487.020  
  20942990.219   110056174.992    20942998.980    85758087.6264   20942998.941  
                
  22771786.352   121770994.686                    94710774.283    22771789.867  
  22771785.141  
  19287078.711   103209063.505                    80273717.665    19287081.031  
  19287076.887  
  22445493.375   117951870.259    22445497.598    91910588.0374                 
                
  24335361.797   127883189.826    24335369.859    99649261.2654   24335370.020  
                
  21720828.164   114143734.434    21720832.258    88943190.6864                 
                
  22545553.281   118477704.199    22545562.145    92320318.6574   22545562.445  
                
 21  8 16  1 32  0.0000000  0 13G 6R14R16G12R15R18G24R24R17G19G32G 2
                                G25
  21446707.930   112703222.584    21446716.230    87820734.4834   21446716.645  
                
  22516528.523   120025790.416                    93353385.782    22516532.598  
  22516528.074  
  20866996.984   111467765.882                    86697139.474    20866998.168  
  20866996.645  
  20596785.773   108236856.594    20596791.434    84340438.2414   20596791.422  
                
  19376373.852   103541497.911                    80532256.155    19376377.348  
  19376373.887  
  20190055.586   107775897.058                    83825695.353    20190058.848  
  20190054.125  
  20946686.273   110075597.885    20946695.023    85773222.3384   20946694.992  
                
  22779314.062   121811248.748                    94742082.991    22779317.578  
  22779312.820  
  19289099.641   103219877.909                    80282128.870    19289101.977  
  19289097.816  
  22451327.594   117982529.236    22451331.797    91934478.1424                 
                
  24335000.375   127881290.445    24335008.406    99647781.2404   24335008.570  
                
  21717586.297   114126698.338    21717590.398    88929915.8074                 
                
  22540156.039   118449341.481    22540164.883    92298217.8324   22540165.168  
                
 21  8 16  1 32 10.0000000  0 13G 6R14R16G12R15R18G24R24R17G19G32G 2
                                G25
  21446728.734   112703331.933    21446737.004    87820819.6934   21446737.430  
                
  22523035.125   120060473.689                    93380361.678    22523039.102  
  22523034.613  
  20861367.594   111437694.700                    86673750.784    20861368.793  
  20861367.234  
  20594176.844   108223146.573    20594182.504    84329755.1184   20594182.492  
                
  19377723.953   103548712.457                    80537867.479    19377727.445  
  19377724.012  
  20184635.062   107746961.994                    83803190.323    20184638.332  
  20184633.605  
  20950392.609   110095074.812    20950401.332    85788399.1644   20950401.320  
                
  22786846.133   121851526.317                    94773409.970    22786849.680  
  22786844.871  
  19291135.641   103230772.975                    80290602.816    19291137.977  
  19291133.820  
  22457166.117   118013210.812    22457170.297    91958385.8634                 
                
  24334650.352   127879450.942    24334658.344    99646347.8864   24334658.512  
                
  21714354.477   114109715.070    21714358.598    88916682.1084                 
                
  22534761.758   118420994.435    22534770.664    92276129.2564   22534770.914  
                
 21  8 16  1 32 20.0000000  0 13G 6R14R16G12R15R18G24R24R17G19G32G 2
                                G25
  21446762.734   112703510.638    21446770.965    87820958.9414   21446771.410  
                
  22529547.539   120095188.110                    93407361.777    22529551.492  
  22529546.988  
  20855743.984   111407654.416                    86650386.122    20855745.207  
  20855743.586  
  20591574.336   108209470.331    20591579.980    84319098.3074   20591579.980  
                
  19379085.844   103555989.923                    80543527.732    19379089.316  
  19379085.926  
  20179226.930   107718092.987                    83780736.641    20179230.172  
  20179225.484  
  20954109.227   110114605.739    20954117.922    85803618.0694   20954117.930  
                
  22794382.656   121891827.480                    94804755.299    22794386.199  
  22794381.418  
  19293186.734   103241748.738                    80299139.512    19293189.059  
  19293184.914  
  22463008.930   118043914.948    22463013.082    91982311.1694                 
                
  24334311.727   127877671.385    24334319.703    99644961.2134   24334319.910  
                
  21711132.727   114092784.684    21711136.859    88903489.6094                 
                
  22529370.500   118392663.177    22529379.426    92254052.9674   22529379.664  
                
 21  8 16  1 32 30.0000000  0 13G 6R14R16G12R15R18G24R24R17G19G32G 2
                                G25
  21446809.930   112703758.681    21446818.137    87821152.2324   21446818.598  
                
  22536065.781   120129933.685                    93434386.113    22536069.777  
  22536065.195  
  20850126.211   111377645.336                    86627045.731    20850127.461  
  20850125.812  
  20588978.258   108195827.853    20588983.879    84308467.8074   20588983.906  
                
  19380459.547   103563330.562                    80549237.124    19380463.012  
  19380459.652  
  20173831.195   107689290.202                    83758334.490    20173834.434  
  20173829.750  
  20957836.109   110134190.649    20957844.781    85818879.0374   20957844.797  
                
  22801923.492   121932151.713                    94836118.591    22801927.008  
  22801922.285  
  19295252.891   103252805.185                    80307738.974    19295255.211  
  19295251.074  
  22468856.031   118074641.681    22468860.168    92006254.0694                 
                
  24333984.516   127875951.774    24333992.496    99643621.2384   24333992.734  
                
  21707921.055   114075907.262    21707925.184    88890338.3724                 
                
  22523982.266   118364347.826    22523991.125    92231989.0404   22523991.375  
                
 21  8 16  1 32 40.0000000  0 13G 6R14R16G12R15R18G24R24R17G19G32G 2
                                G25
  21446870.320   112704076.056    21446878.508    87821399.5404   21446878.973  
                
  22542589.836   120164710.281                    93461434.555    22542593.859  
  22542589.191  
  20844514.234   111347667.161                    86603729.381    20844515.480  
  20844513.848  
  20586388.625   108182219.256    20586394.234    84297863.7094   20586394.281  
                
  19381845.047   103570734.205                    80554995.508    19381848.496  
  19381845.168  
  20168447.883   107660553.709                    83735983.882    20168451.121  
  20168446.441  
  20961573.250   110153829.420    20961581.887    85834181.9734   20961581.922  
                
  22809468.680   121972499.137                    94867499.935    22809472.176  
  22809467.465  
  19297334.094   103263942.101                    80316401.021    19297336.418  
  19297332.281  
  22474707.406   118105390.789    22474711.520    92030214.4114                 
                
  24333668.719   127874292.053    24333676.730    99642327.9454   24333676.953  
                
  21704719.477   114059082.852    21704723.574    88877228.4454                 
                
  22518597.039   118336048.300    22518605.848    92209937.4604   22518606.113  
                
 21  8 16  1 32 50.0000000  0 13G 6R14R16G12R15R18G24R24R17G19G32G 2
                                G25
  21446943.891   112704462.707    21446952.062    87821700.8314   21446952.520  
                
  22549119.594   120199517.699                    93488506.992    22549123.688  
  22549118.969  
  20838908.109   111317720.251                    86580437.342    20838909.363  
  20838907.742  
  20583805.438   108168644.532    20583811.035    84287285.9984   20583811.098  
                
  19383242.344   103578200.900                    80560802.932    19383245.777  
  19383242.484  
  20163076.969   107631883.422                    83713684.776    20163080.195  
  20163075.527  
  20965320.625   110173521.965    20965329.234    85849526.8074   20965329.266  
                
  22817018.156   122012869.605                    94898899.171    22817021.656  
  22817016.922  
  19299430.297   103275159.269                    80325125.481    19299432.602  
  19299428.512  
  22480563.008   118136162.172    22480567.098    92054192.1154                 
                
  24333364.352   127872692.184    24333372.348    99641081.2784   24333372.531  
                
  21701527.992   114042311.491    21701532.055    88864159.8524                 
                
  22513214.828   118307764.607    22513223.625    92187898.2404   22513223.895  
                
 21  8 16  1 33  0.0000000  0 13G 6R14R16G12R15R18G24R24R17G19G32G 2
                                G25
  21447030.641   112704918.563    21447038.801    87822056.0464   21447039.258  
                
  22555655.211   120234355.979                    93515603.434    22555659.266  
  22555654.578  
  20833307.844   111287804.631                    86557169.634    20833309.070  
  20833307.484  
  20581228.680   108155103.590    20581234.270    84276734.6144   20581234.336  
                
  19384651.453   103585730.687                    80566659.440    19384654.879  
  19384651.613  
  20157718.500   107603279.585                    83691437.359    20157721.719  
  20157717.066  
  20969078.203   110193268.111    20969086.801    85864913.4224   20969086.832  
                
  22824571.859   122053262.557                    94930315.915    22824575.355  
  22824570.590  
  19301541.500   103286456.698                    80333912.386    19301543.797  
  19301539.734  
  22486422.844   118166955.716    22486426.914    92078187.0824                 
                
  24333071.305   127871152.069    24333079.328    99639881.1834   24333079.512  
                
  21698346.594   114025593.151    21698350.613    88851132.5834                 
                
  22507835.641   118279496.779    22507844.438    92165871.3674   22507844.695  
                
 21  8 16  1 33 10.0000000  0 13G 6R14R16G12R15R18G24R24R17G19G32G 2
                                G25
  21447130.586   112705443.809    21447138.730    87822465.3334   21447139.191  
                
  22562196.609   120269225.143                    93542723.885    22562200.641  
  22562195.988  
  20827713.484   111257920.589                    86533926.494    20827714.711  
  20827713.113  
  20578658.383   108141596.597    20578663.969    84266209.6914   20578664.047  
                
  19386072.367   103593323.614                    80572565.032    19386075.797  
  19386072.539  
  20152372.500   107574742.304                    83669241.700    20152375.723  
  20152371.086  
  20972846.000   110213068.032    20972854.594    85880341.9314   20972854.625  
                
  22832129.867   122093678.578                    94961750.585    22832133.355  
  22832128.570  
  19303667.703   103297834.449                    80342761.747    19303670.008  
  19303665.934  
  22492286.898   118197771.528    22492290.961    92102199.3914                 
                
  24332789.602   127869671.901    24332797.727    99638727.7954   24332797.902  
                
  21695175.328   114008928.064    21695179.320    88838146.7994                 
                
  22502459.508   118251245.000    22502468.293    92143857.0084   22502468.547  
                
 21  8 16  1 33 20.0000000  0 13G 6R14R16G12R15R18G24R24R17G19G32G 2
                                G25
  21447243.711   112706038.271    21447251.836    87822928.5584   21447252.309  
                
  22568743.695   120304124.970                    93569868.176    22568747.773  
  22568743.133  
  20822125.039   111228068.092                    86510707.888    20822126.270  
  20822124.664  
  20576094.523   108128123.443    20576100.102    84255711.1304   20576100.184  
                
  19387505.102   103600979.660                    80578519.745    19387508.523  
  19387505.301  
  20147038.984   107546271.621                    83647097.850    20147042.207  
  20147037.559  
  20976623.992   110232921.493    20976632.566    85895812.1554   20976632.613  
                
  22839692.086   122134117.128                    94993202.771    22839695.562  
  22839690.793  
  19305808.875   103309292.282                    80351673.394    19305811.188  
  19305807.125  
  22498155.125   118228609.253    22498159.184    92126228.7914                 
                
  24332519.273   127868251.505    24332527.477    99637620.9904   24332527.633  
                
  21692014.180   113992316.145    21692018.168    88825202.4544                 
                
  22497086.422   118223009.196    22497095.223    92121855.0794   22497095.461  
                
 21  8 16  1 33 30.0000000  0 13G 6R14R16G12R15R18G24R24R17G19G32G 2
                                G25
  21447370.016   112706702.027    21447378.109    87823445.7714   21447378.594  
                
  22575296.594   120339055.520                    93597036.369    22575300.684  
  22575296.039  
  20816542.469   111198247.062                    86487513.769    20816543.691  
  20816542.086  
  20573537.109   108114684.194    20573542.684    84245238.9904   20573542.766  
                
  19388949.656   103608698.884                    80584523.576    19388953.086  
  19388949.867  
  20141717.922   107517867.491                    83625005.758    20141721.160  
  20141716.484  
  20980412.164   110252828.466    20980420.723    85911324.0764   20980420.781  
                
  22847258.453   122174578.042                    95024672.375    22847261.922  
  22847257.172  
  19307964.977   103320830.010                    80360647.178    19307967.297  
  19307963.234  
  22504027.555   118259469.057    22504031.621    92150275.3804                 
                
  24332260.328   127866890.904    24332268.562    99636560.7474   24332268.703  
                
  21688863.164   113975757.448    21688867.156    88812299.5784                 
                
  22491716.375   118194789.412    22491725.164    92099865.6464   22491725.391  
                
 21  8 16  1 33 40.0000000  0 13G 6R14R16G12R15R18G24R24R17G19G32G 2
                                G25
  21447509.641   112707435.757    21447517.703    87824017.5114   21447518.219  
                
  22581855.359   120374017.433                    93624228.953    22581859.453  
  22581854.844  
  20810965.984   111168458.505                    86464344.888    20810967.211  
  20810965.617  
  20570986.320   108101279.659    20570991.883    84234793.8984   20570991.977  
                
  19390406.164   103616481.939                    80590577.054    19390409.598  
  19390406.387  
  20136409.539   107489531.002                    83602966.258    20136412.781  
  20136408.117  
  20984210.648   110272789.583    20984219.199    85926878.1964   20984219.266  
                
  22854829.125   122215061.866                    95056159.806    22854832.598  
  22854827.855  
  19310136.156   103332448.394                    80369683.695    19310138.477  
  19310134.402  
  22509904.281   118290351.437    22509908.344    92174339.5614                 
                
  24332012.938   127865590.784    24332021.129    99635547.6714   24332021.301  
                
  21685722.430   113959252.754    21685726.410    88799438.7804                 
                
  22486349.531   118166586.405    22486358.309    92077889.2744   22486358.551  
                
 21  8 16  1 33 50.0000000  0 13G 6R14R16G12R15R18G24R24R17G19G32G 2
                                G25
  21447662.273   112708237.866    21447670.316    87824642.5314   21447670.848  
                
  22588419.719   120409009.057                    93651444.647    22588423.797  
  22588419.211  
  20805395.312   111138701.055                    86441200.209    20805396.570  
  20805394.957  
  20568441.820   108087908.259    20568447.363    84224374.6254   20568447.453  
                
  19391874.320   103624327.311                    80596679.004    19391877.754  
  19391874.562  
  20131113.523   107461260.521                    83580978.112    20131116.754  
  20131112.105  
  20988019.117   110292803.225    20988027.672    85942473.2384   20988027.734  
                
  22862403.766   122255566.940                    95087663.742    22862407.215  
  22862402.473  
  19312322.086   103344145.771                    80378781.668    19312324.422  
  19312320.320  
  22515784.977   118321254.734    22515789.012    92198420.0454                 
                
  24331776.719   127864349.582    24331784.910    99634580.4644   24331785.070  
                
  21682591.672   113942800.511    21682595.645    88786618.8544                 
                
  22480985.547   118138398.634    22480994.410    92055924.8124   22480994.625  
                
 21  8 16  1 34  0.0000000  0 13G 6R14R16G12R15R18G24R24R17G19G32G 2
                                G25
  21447828.148   112709109.536    21447836.176    87825321.7654   21447836.707  
                
  22594989.906   120444031.568                    93678684.405    22594993.926  
  22594989.363  
  20799830.711   111108975.974                    86418080.699    20799831.980  
  20799830.363  
  20565903.883   108074571.307    20565909.406    84213982.1994   20565909.512  
                
  19393354.391   103632236.300                    80602830.454    19393357.840  
  19393354.648  
  20125830.078   107433057.112                    83559042.131    20125833.309  
  20125828.629  
  20991837.797   110312870.501    20991846.352    85958110.0784   20991846.406  
                
  22869982.602   122296094.367                    95119185.071    22869986.035  
  22869981.297  
  19314522.953   103355923.040                    80387941.762    19314525.297  
  19314521.184  
  22521669.898   118352180.181    22521673.906    92222517.7824                 
                
  24331551.992   127863168.428    24331560.145    99633660.0944   24331560.312  
                
  21679471.148   113926402.072    21679475.145    88773840.8564                 
                
  22475624.734   118110227.341    22475633.617    92033973.1634   22475633.789  
                
 21  8 16  1 34 10.0000000  0 13G 6R14R16G12R15R18G24R24R17G19G32G 2
                                G25
  21448007.211   112710050.566    21448015.215    87826055.0394   21448015.758  
                
  22601565.773   120479084.612                    93705947.879    22601569.781  
  22601565.277  
  20794272.078   111079282.788                    86394986.011    20794273.355  
  20794271.727  
  20563372.453   108061268.564    20563377.973    84203616.4304   20563378.074  
                
  19394846.297   103640208.551                    80609031.088    19394849.754  
  19394846.566  
  20120559.203   107404920.892                    83537158.409    20120562.453  
  20120557.742  
  20995666.625   110332991.126    20995675.172    85973788.4864   20995675.227  
                
  22877565.547   122336643.820                    95150723.492    22877569.016  
  22877564.234  
  19316738.750   103367780.201                    80397164.001    19316741.102  
  19316736.980  
  22527558.969   118383127.445    22527562.973    92246632.5284                 
                
  24331338.625   127862047.106    24331346.820    99632786.3304   24331346.941  
                
  21676360.820   113910057.194    21676364.836    88761104.5934                 
                
  22470267.016   118082072.383    22470275.836    92012034.2304   22470276.059  
                
 21  8 16  1 34 20.0000000  0 13G 6R14R16G12R15R18G24R24R17G19G32G 2
                                G25
  21448199.484   112711060.934    21448207.461    87826842.3434   21448208.023  
                
  22608147.383   120514168.064                    93733235.011    22608151.363  
  22608146.883  
  20788719.531   111049622.101                    86371916.585    20788720.816  
  20788719.160  
  20560847.531   108048000.027    20560853.035    84193277.3104   20560853.141  
                
  19396350.055   103648244.165                    80615281.023    19396353.516  
  19396350.332  
  20115300.922   107376851.855                    83515326.953    20115304.188  
  20115299.457  
  20999505.594   110353165.033    20999514.137    85989508.4194   20999514.199  
                
  22885152.602   122377215.142                    95182278.973    22885156.082  
  22885151.301  
  19318969.414   103379716.923                    80406448.131    19318971.758  
  19318967.664  
  22533452.172   118414096.390    22533456.156    92270764.1804                 
                
  24331136.641   127860985.640    24331144.926    99631959.2054   24331144.953  
                
  21673260.695   113893765.942    21673264.723    88748410.1194                 
                
  22464912.398   118053933.733    22464921.238    91990108.0374   22464921.457  
                
 21  8 16  1 34 30.0000000  0 13G 6R14R16G12R15R18G24R24R17G19G32G 2
                                G25
  21448404.938   112712140.613    21448412.906    87827683.6464   21448413.477  
                
  22614734.734   120549281.964                    93760545.800    22614738.680  
  22614734.191  
  20783173.039   111019993.757                    86348872.310    20783174.336  
  20783172.676  
  20558329.117   108034765.683    20558334.617    84182964.8404   20558334.723  
                
  19397865.695   103656343.235                    80621580.285    19397869.168  
  19397865.969  
  20110055.242   107348850.052                    83493547.776    20110058.508  
  20110053.789  
  21003354.688   110373392.132    21003363.234    86005269.7924   21003363.297  
                
  22892743.648   122417807.951                    95213851.128    22892747.180  
  22892742.332  
  19321214.953   103391733.205                    80415794.116    19321217.293  
  19321213.223  
  22539349.484   118445086.898    22539353.422    92294912.6134                 
                
  24330946.047   127859983.950    24330954.352    99631178.6664   24330954.363  
                
  21670170.773   113877528.322    21670174.793    88735757.4294                 
                
  22459560.906   118025811.440    22459569.770    91968194.5654   22459569.969  
                
 21  8 16  1 34 40.0000000  0 13G 6R14R16G12R15R18G24R24R17G19G32G 2
                                G25
  21448623.562   112713289.538    21448631.535    87828578.9194   21448632.102  
                
  22621327.648   120584426.301                    93787880.265    22621331.695  
  22621327.188  
  20777632.602   110990397.776                    86325853.233    20777633.906  
  20777632.266  
  20555817.195   108021565.467    20555822.691    84172678.9684   20555822.801  
                
  19399393.164   103664505.584                    80627928.785    19399396.645  
  19399393.445  
  20104822.188   107320915.695                    83471821.059    20104825.438  
  20104820.738  
  21007213.883   110393672.341    21007222.445    86021072.5464   21007222.500  
                
  22900338.734   122458422.321                    95245440.074    22900342.312  
  22900337.434  
  19323475.305   103403828.810                    80425201.823    19323477.652  
  19323473.598  
  22545250.828   118476098.683    22545254.742    92319077.6384                 
                
  24330766.820   127859041.980    24330775.078    99630444.6744   24330775.070  
                
  21667091.062   113861344.366    21667095.086    88723146.5594                 
                
  22454212.539   117997705.560    22454221.406    91946293.8694   22454221.602  
                
 21  8 16  1 34 50.0000000  0 13G 6R14R16G12R15R18G24R24R17G19G32G 2
                                G25
  21448855.375   112714507.700    21448863.371    87829528.1384   21448863.930  
                
  22627926.406   120619600.923                    93815238.309    22627930.395  
  22627925.918  
  20772098.281   110960834.379                    86302859.471    20772099.559  
  20772097.934  
  20553311.797   108008399.516    20553317.289    84162419.7824   20553317.402  
                
  19400932.484   103672731.217                    80634326.500    19400935.988  
  19400932.762  
  20099601.742   107293048.575                    83450146.640    20099604.988  
  20099600.281  
  21011083.164   110414005.524    21011091.750    86036916.5874   21011091.805  
                
  22907937.828   122499058.177                    95277045.726    22907941.445  
  22907936.547  
  19325750.492   103416003.742                    80434671.215    19325752.832  
  19325748.766  
  22551156.250   118507131.814    22551160.168    92343259.2914                 
                
  24330598.969   127858159.700    24330607.098    99629757.1944   24330607.113  
                
  21664021.570   113845214.097    21664025.594    88710577.5234                 
                
  22448867.258   117969615.975    22448876.152    91924405.9154   22448876.332  
                
 21  8 16  1 35  0.0000000  0 13G 6R14R16G12R15R18G24R24R17G19G32G 2
                                G25
  21449100.398   112715795.308    21449108.418    87830531.4714   21449108.969  
                
  22634530.781   120654805.882                    93842619.941    22634534.777  
  22634530.289  
  20766570.102   110931303.874                    86279891.319    20766571.422  
  20766569.746  
  20550812.961   107995268.085    20550818.469    84152187.5044   20550818.578  
                
  19402483.719   103681020.541                    80640773.759    19402487.234  
  19402483.996  
  20094393.961   107265249.159                    83428524.876    20094397.188  
  20094392.500  
  21014962.547   110434391.860    21014971.160    86052802.0404   21014971.207  
                
  22915540.906   122539715.299                    95308667.917    22915544.523  
  22915539.629  
  19328040.500   103428258.035                    80444202.339    19328042.844  
  19328038.758  
  22557065.766   118538186.482    22557069.680    92367457.7424                 
                
  24330442.508   127857337.351    24330450.496    99629116.4194   24330450.559  
                
  21660962.352   113829137.824    21660966.375    88698050.5594                 
                
  22443525.180   117941543.089    22443534.074    91902530.9424   22443534.207  
                
 21  8 16  1 35 10.0000000  0 13G 6R14R16G12R15R18G24R24R17G19G32G 2
                                G25
  21449358.570   112717152.029    21449366.609    87831588.6594   21449367.148  
                
  22641140.641   120690040.691                    93870024.764    22641144.770  
  22641140.230  
  20761048.031   110901806.001                    86256948.530    20761049.363  
  20761047.691  
  20548320.641   107982170.860    20548326.164    84141981.8804   20548326.254  
                
  19404046.805   103689373.167                    80647270.244    19404050.332  
  19404047.059  
  20089198.844   107237517.289                    83406955.650    20089202.066  
  20089197.391  
  21018851.977   110454830.963    21018860.605    86068728.6074   21018860.633  
                
  22923147.906   122580393.373                    95340306.420    22923151.516  
  22923146.652  
  19330345.266   103440591.328                    80453794.909    19330347.621  
  19330343.504  
  22562979.305   118569262.349    22562983.188    92391672.6904                 
                
  24330297.383   127856574.556    24330305.254    99628522.0254   24330305.348  
                
  21657913.352   113813115.269    21657917.371    88685565.4574                 
                
  22438186.195   117913486.556    22438195.039    91880668.6954   22438195.188  
                
 21  8 16  1 35 20.0000000  0 13G 6R14R16G12R15R18G24R24R17G19G32G 2
                                G25
  21449629.906   112718577.905    21449637.961    87832699.7344   21449638.500  
                
  22647756.164   120725305.585                    93897453.018    22647760.383  
  22647755.812  
  20755532.094   110872340.875                    86234031.205    20755533.441  
  20755531.770  
  20545834.844   107969107.928    20545840.383    84131802.9694   20545840.465  
                
  19405621.734   103697789.113                    80653815.973    19405625.281  
  19405621.973  
  20084016.367   107209852.871                    83385438.886    20084019.582  
  20084014.934  
  21022751.445   110475322.815    21022760.090    86084696.2774   21022760.105  
                
  22930758.852   122621092.439                    95371961.238    22930762.461  
  22930757.598  
  19332664.812   103453003.665                    80463448.939    19332667.184  
  19332663.031  
  22568896.867   118600359.249    22568900.754    92415904.0374                 
                
  24330163.570   127855871.318    24330171.324    99627974.0654   24330171.508  
                
  21654874.594   113797146.514    21654878.605    88673122.2824                 
                
  22432850.359   117885446.482    22432859.109    91858819.2844   22432859.297  
                
 21  8 16  1 35 30.0000000  0 13G 6R14R16G12R15R18G24R24R17G19G32G 2
                                G25
  21449914.414   112720073.058    21449922.477    87833864.7894   21449923.012  
                
  22654377.445   120760600.518                    93924904.620    22654381.648  
  22654377.055  
  20750022.344   110842908.835                    86211139.632    20750023.688  
  20750021.988  
  20543355.602   107956079.430    20543361.148    84121650.8964   20543361.230  
                
  19407208.539   103706268.539                    80660411.074    19407212.102  
  19407208.766  
  20078846.609   107182256.400                    83363974.958    20078849.820  
  20078845.180  
  21026660.953   110495867.450    21026669.613    86100705.0794   21026669.625  
                
  22938373.695   122661812.238                    95403632.184    22938377.312  
  22938372.430  
  19334999.094   103465494.901                    80473164.353    19335001.465  
  19334997.297  
  22574818.438   118631477.281    22574822.344    92440151.8444                 
                
  24330041.141   127855227.781    24330048.824    99627472.6324   24330049.039  
                
  21651846.109   113781231.782    21651850.117    88660721.1934                 
                
  22427517.672   117857423.039    22427526.426    91836982.8474   22427526.617  
                
 21  8 16  1 35 40.0000000  0 13G 6R14R16G12R15R18G24R24R17G19G32G 2
                                G25
  21450212.094   112721637.377    21450220.152    87835083.7424   21450220.688  
                
  22661004.273   120795925.548                    93952379.654    22661008.551  
  22661003.902  
  20744518.742   110813509.627                    86188273.592    20744520.074  
  20744518.371  
  20540882.898   107943085.288    20540888.449    84111525.5974   20540888.547  
                
  19408807.219   103714811.401                    80667055.521    19408810.801  
  19408807.434  
  20073689.555   107154727.730                    83342563.779    20073692.766  
  20073688.121  
  21030580.492   110516464.754    21030589.160    86116754.9304   21030589.164  
                
  22945992.398   122702552.646                    95435319.142    22945995.988  
  22945991.109  
  19337348.078   103478064.787                    80482940.926    19337350.445  
  19337346.258  
  22580743.984   118662616.188    22580747.859    92464415.9334                 
                
  24329930.047   127854643.871    24329937.691    99627017.6344   24329937.941  
                
  21648827.891   113765370.977    21648831.910    88648362.1274                 
                
  22422188.125   117829416.149    22422196.914    91815159.3084   22422197.066  
                
 21  8 16  1 35 50.0000000  0 13G 6R14R16G12R15R18G24R24R17G19G32G 2
                                G25
  21450522.969   112723271.068    21450531.031    87836356.7484   21450531.570  
                
  22667636.664   120831280.484                    93979877.889    22667641.043  
  22667636.285  
  20739021.406   110784143.871                    86165433.560    20739022.719  
  20739021.023  
  20538416.789   107930125.800    20538422.340    84101427.2934   20538422.438  
                
  19410417.805   103723417.893                    80673749.452    19410421.414  
  19410418.012  
  20068545.219   107127266.949                    83321205.403    20068548.430  
  20068543.789  
  21034510.062   110537114.810    21034518.727    86132845.8754   21034518.738  
                
  22953615.000   122743313.932                    95467022.350    22953618.570  
  22953613.711  
  19339711.828   103490713.667                    80492778.942    19339714.188  
  19339710.020  
  22586673.555   118693776.219    22586677.418    92488696.4684                 
                
  24329830.320   127854119.709    24329837.980    99626609.2004   24329838.238  
                
  21645819.977   113749564.299    21645824.023    88636045.2504                 
                
  22416861.797   117801426.091    22416870.551    91793348.8774   22416870.727  
                
 21  8 16  1 36  0.0000000  0 13G 6R14R16G12R15R18G24R24R17G19G32G 2
                                G25
  21450847.031   112724974.009    21450855.094    87837683.7074   21450855.633  
                
  22674274.656   120866665.447                    94007399.510    22674279.168  
  22674274.344  
  20733530.336   110754811.595                    86142619.575    20733531.629  
  20733529.945  
  20535957.273   107917200.946    20535962.840    84091355.9834   20535962.930  
                
  19412040.305   103732088.035                    80680492.904    19412043.938  
  19412040.492  
  20063413.648   107099874.281                    83299899.993    20063416.863  
  20063412.219  
  21038449.656   110557817.493    21038458.320    86148977.8424   21038458.332  
                
  22961241.383   122784095.558                    95498741.373    22961244.965  
  22961240.117  
  19342090.273   103503441.214                    80502678.155    19342092.637  
  19342088.484  
  22592607.094   118724957.123    22592610.953    92512993.2714                 
                
  24329741.938   127853655.193    24329749.629    99626247.2364   24329749.875  
                
  21642822.359   113733811.776    21642826.418    88623770.5594                 
                
  22411538.648   117773452.777    22411547.398    91771551.5034   22411547.578  
                
 21  8 16  1 36 10.0000000  0 13G 6R14R16G12R15R18G24R24R17G19G32G 2
                                G25
  21451184.250   112726746.162    21451192.328    87839064.6194   21451192.867  
                
  22680918.375   120902080.171                    94034944.312    22680922.848  
  22680918.051  
  20728045.531   110725512.757                    86119831.590    20728046.801  
  20728045.145  
  20533504.320   107904310.628    20533509.902    84081311.5784   20533509.980  
                
  19413674.695   103740821.776                    80687285.813    19413678.352  
  19413674.852  
  20058294.867   107072549.894                    83278647.705    20058298.082  
  20058293.438  
  21042399.242   110578572.698    21042407.906    86165150.7284   21042407.918  
                
  22968871.617   122824897.740                    95530476.390    22968875.223  
  22968870.406  
  19344483.391   103516247.282                    80512638.427    19344485.758  
  19344481.602  
  22598544.562   118756158.736    22598548.406    92537306.2024                 
                
  24329664.898   127853250.297    24329672.641    99625931.7314   24329672.875  
                
  21639835.062   113718113.459    21639839.125    88611538.1134                 
                
  22406218.695   117745496.264    22406227.418    91749767.2304   22406227.609  
                
 21  8 16  1 36 20.0000000  0 13G 6R14R16G12R15R18G24R24R17G19G32G 2
                                G25
  21451534.664   112728587.576    21451542.750    87840499.4864   21451543.285  
                
  22687567.719   120937524.694                    94062512.278    22687572.129  
  22687567.355  
  20722567.031   110696247.620                    86097069.800    20722568.281  
  20722566.672  
  20531057.969   107891454.935    20531063.570    84071294.1584   20531063.641  
                
  19415321.000   103749619.127                    80694128.191    19415324.668  
  19415321.125  
  20053188.852   107045293.589                    83257448.356    20053192.070  
  20053187.414  
  21046358.812   110599380.407    21046367.480    86181364.5204   21046367.488  
                
  22976505.562   122865719.957                    95562227.007    22976509.215  
  22976504.391  
  19346891.180   103529131.815                    80522659.743    19346893.551  
  19346889.371  
  22604485.984   118787381.077    22604489.848    92561635.2924                 
                
  24329599.219   127852905.023    24329607.031    99625662.6694   24329607.246  
                
  21636858.094   113702469.382    21636862.160    88599347.9314                 
                
  22400901.969   117717556.639    22400910.645    91727996.0704   22400910.848  
                
 21  8 16  1 36 30.0000000  0 13G 6R14R16G12R15R18G24R24R17G19G32G 2
                                G25
  21451898.219   112730498.093    21451906.305    87841988.1974   21451906.828  
                
  22694222.594   120972998.813                    94090103.254    22694226.984  
  22694222.211  
  20717094.820   110667016.037                    86074334.140    20717096.043  
  20717094.449  
  20528618.188   107878633.766    20528623.812    84061303.6404   20528623.871  
                
  19416979.164   103758479.868                    80701019.867    19416982.840  
  19416979.254  
  20048095.617   107018105.582                    83236302.128    20048098.844  
  20048094.184  
  21050328.336   110620240.381    21050337.000    86197619.0414   21050337.004  
                
  22984143.250   122906562.142                    95593993.149    22984146.934  
  22984142.066  
  19349313.594   103542094.676                    80532741.969    19349315.977  
  19349311.766  
  22610431.312   118818623.953    22610435.191    92585980.3754                 
                
  24329544.836   127852619.242    24329552.727    99625439.9714   24329552.922  
                
  21633891.438   113686879.522    21633895.504    88587199.9934                 
                
  22395588.414   117689633.726    22395597.059    91706237.9864   22395597.305  
                
 21  8 16  1 36 40.0000000  0 13G 6R14R16G12R15R18G24R24R17G19G32G 2
                                G25
  21452274.906   112732477.663    21452282.996    87843530.7154   21452283.531  
                
  22700882.938   121008502.460                    94117717.189    22700887.395  
  22700882.578  
  20711628.898   110637818.141                    86051624.661    20711630.117  
  20711628.527  
  20526184.938   107865846.988    20526190.562    84051339.9244   20526190.629  
                
  19418649.219   103767404.173                    80707960.993    19418652.910  
  19418649.277  
  20043015.164   106990985.824                    83215208.997    20043018.402  
  20043013.746  
  21054307.781   110641152.561    21054316.449    86213914.2414   21054316.441  
                
  22991784.633   122947424.213                    95625774.763    22991788.367  
  22991783.422  
  19351750.609   103555135.717                    80542885.008    19351753.012  
  19351748.738  
  22616380.508   118849887.128    22616384.402    92610341.2944                 
                
  24329501.758   127852392.898    24329509.695    99625263.5974   24329509.875  
                
  21630935.094   113671343.907    21630939.160    88575094.3224                 
                
  22390278.062   117661727.647    22390286.617    91684492.9834   22390286.906  
                
 21  8 16  1 36 50.0000000  0 13G 6R14R16G12R15R18G24R24R17G19G32G 2
                                G25
  21452664.812   112734526.595    21452672.906    87845127.3014   21452673.438  
                
  22707548.938   121044035.815                    94145354.228    22707553.375  
  22707548.547  
  20706169.375   110608654.299                    86028941.681    20706170.578  
  20706169.012  
  20523758.359   107853095.210    20523763.980    84041403.4764   20523764.047  
                
  19420331.211   103776392.226                    80714951.700    19420334.922  
  19420331.262  
  20037947.570   106963934.628                    83194169.184    20037950.812  
  20037946.164  
  21058297.219   110662117.171    21058305.883    86230250.3004   21058305.879  
                
  22999429.773   122988306.280                    95657571.909    22999433.551  
  22999428.496  
  19354202.273   103568255.095                    80553088.960    19354204.688  
  19354200.363  
  22622333.633   118881170.945    22622337.570    92634718.2834                 
                
  24329470.055   127852226.266    24329478.039    99625133.7294   24329478.188  
                
  21627989.148   113655862.824    21627993.223    88563031.1474                 
                
  22384970.984   117633838.697    22384979.457    91662761.3294   22384979.797  
                
 21  8 16  1 37  0.0000000  0 13G 6R14R16G12R15R18G24R24R17G19G32G 2
                                G25
  21453067.867   112736644.700    21453075.969    87846777.7674   21453076.496  
                
  22714220.531   121079598.667                    94173014.228    22714224.871  
  22714220.074  
  20700716.188   110579524.392                    86006285.088    20700717.387  
  20700715.840  
  20521338.383   107840378.178    20521343.980    84031494.1074   20521344.055  
                
  19422025.117   103785443.998                    80721991.960    19422028.832  
  19422025.160  
  20032892.789   106936951.905                    83173182.622    20032896.027  
  20032891.395  
  21062296.570   110683133.932    21062305.238    86246627.0024   21062305.238  
