     2.11           OBSERVATION DATA    M (MIXED)           RINEX VERSION / TYPE
EFT-CORS.RU                             20210817 145213 UTC PGM / RUN BY / DATE 
MDNG                                                        MARKER NAME         
                                                            MARKER NUMBER       
MDNG                EFT-CORS.RU                             OBSERVER / AGENCY   
0                   TRIMBLE BD970       2.0                 REC # / TYPE / VERS 
0                   UNKNOWN EXT NONE                        ANT # / TYPE        
  3463911.2830  3030468.2400  4402179.3760                  APPROX POSITION XYZ 
        0.0000        0.0000        0.0000                  ANTENNA: DELTA H/E/N
     1     1                                                WAVELENGTH FACT L1/2
     6    C1    L1    P2    L2    C2    P1                  # / TYPES OF OBSERV 
    10.000                                                  INTERVAL            
  2021     8    15     8    30    0.0000000     GPS         TIME OF FIRST OBS   
  2021     8    15     9    30    0.0000000     GPS         TIME OF LAST OBS    
     0                                                      RCV CLOCK OFFS APPL 
                                                            END OF HEADER       
 21  8 15  8 30  0.0000000  0 13G15R20R 4G26G18R 5R19G27R21G16G 8G23
                                G10
  22988119.734   120803409.720    22988127.969    94132566.3894   22988127.805  
                
  19681050.250   105243458.173                    81856055.963    19681057.191  
  19681049.379  
  20412988.828   109310653.535                    85019403.187    20412992.566  
  20412987.836  
  23767647.773   124899818.196    23767659.699    97324566.6944   23767659.492  
                
  21360360.375   112249454.208    21360367.797    87467142.6054   21360367.766  
                
  19813261.945   105913256.151                    82376986.276    19813266.441  
  19813261.602  
  21399791.203   114474476.510                    89035686.527    21399795.910  
  21399789.637  
  21386409.641   112386336.569    21386418.555    87573836.5904   21386418.691  
                
  23281477.344   124583890.223                    96898585.482    23281482.773  
  23281475.379  
  22481270.117   118139873.692    22481277.449    92057076.0184                 
                
  23857775.203   125373452.213    23857785.973    97693654.4304   23857786.473  
                
  20346555.125   106921905.185    20346562.605    83315817.8234   20346562.461  
                
  20835740.664   109492571.227    20835749.832    85318948.9704   20835749.457  
                
 21  8 15  8 30 10.0000000  0 13G15R20R 4G26G18R 5R19G27R21G16G 8G23
                                G10
  22991285.016   120820043.287    22991293.324    94145527.6094   22991293.129  
                
  19679045.844   105232739.681                    81847719.350    19679052.770  
  19679044.996  
  20416828.594   109331215.330                    85035395.696    20416832.332  
  20416827.586  
  23773534.773   124930754.497    23773546.711    97348672.8884   23773546.512  
                
  21363965.570   112268399.600    21363972.969    87481905.2354   21363972.945  
                
  19809164.594   105891353.502                    82359950.896    19809169.094  
  19809164.227  
  21404367.719   114498957.766                    89054727.497    21404372.422  
  21404366.156  
  21382424.688   112365395.477    21382433.578    87557518.8584   21382433.727  
                
  23275009.164   124549277.845                    96871664.765    23275014.629  
  23275007.227  
  22485042.477   118159697.550    22485049.797    92072523.1594                 
                
  23851529.359   125340629.909    23851540.039    97668078.5894   23851540.547  
                
  20348072.195   106929877.407    20348079.680    83322029.9374   20348079.523  
                
  20832909.023   109477690.861    20832918.172    85307353.8784   20832917.805  
                
 21  8 15  8 30 20.0000000  0 13G15R20R 4G26G18R 5R19G27R21G16G 8G23
                                G10
  22994462.422   120836740.544    22994470.781    94158538.4594   22994470.582  
                
  19677049.031   105222061.759                    81839414.298    19677055.934  
  19677048.203  
  20420682.836   109351854.638                    85051448.482    20420686.562  
  20420681.797  
  23779424.633   124961705.794    23779436.547    97372790.7504   23779436.371  
                
  21367575.500   112287369.853    21367582.875    87496687.2414   21367582.875  
                
  19805082.195   105869530.800                    82342977.684    19805086.691  
  19805081.828  
  21408950.883   114523474.623                    89073796.157    21408955.605  
  21408949.332  
  21378448.453   112344500.238    21378457.328    87541236.8554   21378457.484  
                
  23268540.680   124514663.755                    96844742.704    23268546.160  
  23268538.738  
  22488824.820   118179573.856    22488832.117    92088011.1864                 
                
  23845286.914   125307825.520    23845297.559    97642516.7414   23845298.043  
                
  20349599.477   106937903.277    20349606.973    83328283.8664   20349606.805  
                
  20830086.805   109462859.994    20830095.938    85295797.3614   20830095.566  
                
 21  8 15  8 30 30.0000000  0 13G15R20R 4G26G18R 5R19G27R21G16G 8G23
                                G10
  22997651.906   120853501.286    22997660.320    94171598.7824   22997660.117  
                
  19675059.773   105211424.320                    81831140.734    19675066.656  
  19675058.949  
  20424551.500   109372571.181                    85067561.352    20424555.223  
  20424550.441  
  23785317.289   124992671.864    23785329.215    97396920.1274   23785329.051  
                
  21371190.133   112306364.870    21371197.480    87511488.5494   21371197.496  
                
  19801014.734   105847787.965                    82326066.604    19801019.219  
  19801014.363  
  21413540.648   114548026.665                    89092892.168    21413545.391  
  21413539.117  
  21374480.945   112323650.840    21374489.812    87524990.5744   21374489.965  
                
  23262071.883   124480048.091                    96817819.469    23262077.398  
  23262069.887  
  22492617.109   118199502.392    22492624.363    92103539.8944                 
                
  23839047.844   125275038.960    23839058.500    97616968.7884   23839059.000  
                
  20351136.930   106945982.630    20351144.441    83334579.4594   20351144.254  
                
  20827273.992   109448078.573    20827283.105    85284279.3704   20827282.746  
                
 21  8 15  8 30 40.0000000  0 13G15R20R 4G26G18R 5R19G27R21G16G 8G23
                                G10
  23000853.469   120870325.554    23000861.934    94184708.5904   23000861.723  
                
  19673078.117   105200827.566                    81822898.806    19673085.000  
  19673077.301  
  20428434.562   109393364.879                    85083734.219    20428438.293  
  20428433.512  
  23791212.820   125023652.592    23791224.680    97421060.9304   23791224.512  
                
  21374809.477   112325384.649    21374816.816    87526309.1514   21374816.840  
                
  19796962.227   105826125.027                    82309217.657    19796966.703  
  19796961.879  
  21418137.055   114572614.174                    89112015.784    21418141.777  
  21418135.516  
  21370522.180   112302847.426    21370531.039    87508780.1244   21370531.188  
                
  23255602.781   124445430.923                    96790895.005    23255608.316  
  23255600.809  
  22496419.320   118219483.140    22496426.531    92119109.3024                 
                
  23832812.172   125242270.341    23832822.832    97591434.7974   23832823.352  
                
  20352684.555   106954115.442    20352692.086    83340916.7104   20352691.887  
                
  20824470.594   109433346.635    20824479.691    85272799.9384   20824479.340  
                
 21  8 15  8 30 50.0000000  0 13G15R20R 4G26G18R 5R19G27R21G16G 8G23
                                G10
  23004067.117   120887213.294    23004075.633    94197867.8424   23004075.441  
                
  19671104.070   105190271.485                    81814688.523    19671110.945  
  19671103.258  
  20432332.039   109414235.630                    85099967.009    20432335.770  
  20432331.004  
  23797111.023   125054647.956    23797122.875    97445213.1484   23797122.734  
                
  21378433.547   112344429.212    21378440.879    87541149.0604   21378440.926  
                
  19792924.727   105804542.274                    82292431.073    19792929.188  
  19792924.383  
  21422740.094   114597237.226                    89131167.020    21422744.836  
  21422738.539  
  21366572.188   112282090.052    21366581.043    87492605.5474   21366581.191  
                
  23249133.398   124410812.161                    96763969.333    23249138.969  
  23249131.422  
  22500231.477   118239516.080    22500238.641    92134719.3774                 
                
  23826579.898   125209519.735    23826590.598    97565914.8874   23826591.117  
                
  20354242.352   106962301.686    20354249.887    83347295.5994   20354249.684  
                
  20821676.617   109418664.208    20821685.707    85261359.0884   20821685.367  
                
 21  8 15  8 31  0.0000000  0 13G15R20R 4G26G18R 5R19G27R21G16G 8G23
                                G10
  23007292.812   120904164.361    23007301.375    94211076.4504   23007301.191  
                
  19669137.641   105179756.140                    81806509.925    19669144.520  
  19669136.820  
  20436243.875   109435183.350                    85116259.678    20436247.625  
  20436242.852  
  23803012.008   125085657.725    23803023.840    97469376.5874   23803023.699  
                
  21382062.305   112363498.457    21382069.645    87556008.2084   21382069.695  
                
  19788902.195   105783039.600                    82275706.772    19788906.656  
  19788901.855  
  21427349.711   114621895.439                    89150345.598    21427354.480  
  21427348.160  
  21362630.945   112261378.760    21362639.805    87476466.8814   21362639.945  
                
  23242663.727   124376191.883                    96737042.486    23242669.332  
  23242661.746  
  22504053.523   118259601.033    22504060.676    92150369.9944                 
                
  23820351.055   125176787.131    23820361.773    97540408.9894   23820362.297  
                
  20355810.281   106970541.233    20355817.809    83353716.0244   20355817.605  
                
  20818892.039   109404031.229    20818901.125    85249956.7734   20818900.789  
                
 21  8 15  8 31 10.0000000  0 13G15R20R 4G26G18R 5R19G27R21G16G 8G23
                                G10
  23010530.586   120921178.888    23010539.184    94224334.5044   23010538.996  
                
  19667178.898   105169281.839                    81798363.250    19667185.777  
  19667178.094  
  20440170.109   109456208.114                    85132612.275    20440173.863  
  20440169.105  
  23808915.727   125116682.023    23808927.602    97493551.3284   23808927.457  
                
  21385695.812   112382592.568    21385703.180    87570886.7284   21385703.227  
                
  19784894.719   105761617.326                    82259044.999    19784899.172  
  19784894.391  
  21431965.992   114646589.356                    89169551.982    21431970.777  
  21431964.449  
  21358698.547   112240713.832    21358707.418    87460364.3414   21358707.551  
                
  23236193.828   124341570.331                    96710114.656    23236199.508  
  23236191.836  
  22507885.492   118279738.089    22507892.648    92166061.1864                 
                
  23814125.727   125144072.923    23814136.438    97514917.4294   23814136.988  
                
  20357388.398   106978834.228    20357395.902    83360178.0964   20357395.715  
                
  20816116.938   109389447.939    20816126.035    85238593.1694   20816125.707  
                
 21  8 15  8 31 20.0000000  0 13G15R20R 4G26G18R 5R19G27R21G16G 8G23
                                G10
  23013780.352   120938256.513    23013788.988    94237641.7284   23013788.793  
                
  19665227.766   105158848.234                    81790248.208    19665234.629  
  19665226.984  
  20444110.633   109477309.493                    85149024.446    20444114.402  
  20444109.617  
  23814822.109   125147720.415    23814834.020    97517737.0624   23814833.871  
                
  21389333.977   112401711.201    21389341.387    87585784.3634   21389341.406  
                
  19780902.219   105740275.154                    82242445.538    19780906.645  
  19780901.895  
  21436588.852   114671318.407                    89188785.683    21436593.609  
  21436587.297  
  21354774.906   112220095.014    21354783.793    87444297.7364   21354783.910  
                
  23229723.664   124306947.199                    96683185.605    23229729.328  
  23229721.645  
  22511727.273   118299926.790    22511734.426    92181792.6254                 
                
  23807903.820   125111376.797    23807914.480    97489439.9564   23807915.066  
                
  20358976.602   106987180.317    20358984.074    83366681.5394   20358983.922  
                
  20813351.219   109374914.043    20813360.344    85227268.0584   20813360.004  
                
 21  8 15  8 31 30.0000000  0 13G15R20R 4G26G18R 5R19G27R21G16G 8G23
                                G10
  23017042.188   120955397.432    23017050.844    94250998.2694   23017050.668  
                
  19663284.312   105148455.745                    81782165.179    19663291.180  
  19663283.516  
  20448065.469   109498487.451                    85165496.188    20448069.250  
  20448064.480  
  23820731.219   125178773.069    23820743.121    97541933.9194   23820742.984  
                
  21392976.867   112420854.640    21392984.309    87600701.3174   21392984.312  
                
  19776924.797   105719013.518                    82225908.712    19776929.219  
  19776924.465  
  21441218.328   114696082.707                    89208046.790    21441223.023  
  21441216.793  
  21350860.133   112199522.694    21350869.027    87428267.3624   21350869.125  
                
  23223253.289   124272322.940                    96656255.646    23223258.918  
  23223251.285  
  22515578.922   118320167.306    22515586.094    92197564.4414                 
                
  23801685.383   125078698.931    23801696.055    97463976.7114   23801696.613  
                
  20360574.961   106995579.702    20360582.402    83373226.5134   20360582.281  
                
  20810594.961   109360429.800    20810604.117    85215981.6474   20810603.758  
                
 21  8 15  8 31 40.0000000  0 13G15R20R 4G26G18R 5R19G27R21G16G 8G23
                                G10
  23020316.008   120972601.452    23020324.680    94264403.9824   23020324.512  
                
  19661348.477   105138104.041                    81774113.840    19661355.348  
  19661347.680  
  20452034.586   109519741.873                    85182027.397    20452038.371  
  20452033.602  
  23826643.016   125209839.700    23826654.871    97566141.6654   23826654.762  
                
  21396624.430   112440022.678    21396631.895    87615637.4404   21396631.879  
                
  19772962.422   105697832.423                    82209434.529    19772966.852  
  19772962.094  
  21445854.359   114720882.328                    89227335.376    21445859.016  
  21445852.832  
  21346954.164   112178996.753    21346963.078    87412273.1264   21346963.160  
                
  23216782.648   124237697.279                    96629324.551    23216788.211  
  23216780.648  
  22519440.375   118340459.376    22519447.559    92213376.4294                 
                
  23795470.469   125046039.551    23795481.133    97438527.8474   23795481.672  
                
  20362183.414   107004032.179    20362190.832    83379812.8544   20362190.723  
                
  20807848.109   109345995.090    20807857.285    85204733.8194   20807856.906  
                
 21  8 15  8 31 50.0000000  0 13G15R20R 4G26G18R 5R19G27R21G16G 8G23
                                G10
  23023601.844   120989868.532    23023610.500    94277858.8254   23023610.320  
                
  19659420.406   105127793.726                    81766094.694    19659427.266  
  19659419.605  
  20456017.984   109541072.710                    85198618.045    20456021.785  
  20456017.039  
  23832557.508   125240920.292    23832569.336    97590360.2884   23832569.223  
                
  21400276.703   112459215.399    21400284.184    87630592.8004   21400284.172  
                
  19769015.148   105676731.916                    82193023.021    19769019.586  
  19769014.840  
  21450497.094   114745717.584                    89246651.673    21450501.703  
  21450495.520  
  21343057.078   112158517.400    21343066.012    87396315.1884   21343066.094  
                
  23210311.836   124203070.530                    96602392.624    23210317.281  
  23210309.836  
  22523311.656   118360803.013    22523318.848    92229228.6024                 
                
  23789259.133   125013398.757    23789269.766    97413093.4724   23789270.305  
                
  20363801.984   107012537.773    20363809.375    83386440.5874   20363809.285  
                
  20805110.719   109331609.995    20805119.914    85193524.6564   20805119.523  
                
 21  8 15  8 32  0.0000000  0 13G15R20R 4G26G18R 5R19G27R21G16G 8G23
                                G10
  23026899.594   121007198.363    23026908.250    94291362.5794   23026908.066  
                
  19657499.961   105117524.194                    81758107.286    19657506.805  
  19657499.184  
  20460015.578   109562479.566                    85215267.817    20460019.363  
  20460014.668  
  23838474.578   125272014.518    23838486.402    97614589.5504   23838486.254  
                
  21403933.617   112478432.565    21403941.105    87645567.2104   21403941.086  
                
  19765082.914   105655711.938                    82176674.156    19765087.367  
  19765082.609  
  21455146.344   114770587.798                    89265995.155    21455150.957  
  21455144.750  
  21339168.805   112138084.464    21339177.770    87380393.4214   21339177.848  
                
  23203840.742   124168442.415                    96575459.682    23203846.191  
  23203838.742  
  22527192.688   118381197.981    22527199.875    92245120.7684                 
                
  23783051.289   124980776.344    23783061.969    97387673.4334   23783062.453  
                
  20365430.609   107021096.220    20365437.973    83393109.5034   20365437.891  
                
  20802382.727   109317274.332    20802391.926    85182354.0154   20802391.527  
                
 21  8 15  8 32 10.0000000  0 13G15R20R 4G26G18R 5R19G27R21G16G 8G23
                                G10
  23030209.344   121024591.285    23030218.000    94304915.4884   23030217.824  
                
  19655587.258   105107296.109                    81750152.099    19655594.090  
  19655586.469  
  20464027.398   109583962.632                    85231976.870    20464031.184  
  20464026.508  
  23844394.258   125303122.574    23844406.039    97638829.5754   23844405.914  
                
  21407595.227   112497674.473    21407602.719    87660560.8974   21407602.703  
                
  19761165.805   105634772.784                    82160388.163    19761170.270  
  19761165.492  
  21459802.195   114795493.505                    89285366.227    21459806.816  
  21459800.590  
  21335289.461   112117698.365    21335298.457    87364508.1534   21335298.496  
                
  23197369.445   124133813.208                    96548525.864    23197374.891  
  23197367.461  
  22531083.516   118401644.379    22531090.711    92261053.0264                 
                
  23776847.023   124948172.655    23776857.711    97362267.9864   23776858.180  
                
  20367069.336   107029707.763    20367076.684    83399819.7974   20367076.613  
                
  20799664.195   109302988.406    20799673.406    85171222.1304   20799673.004  
                
 21  8 15  8 32 20.0000000  0 13G15R20R 4G26G18R 5R19G27R21G16G 8G23
                                G10
  23033531.086   121042047.186    23033539.734    94318517.4594   23033539.570  
                
  19653682.289   105097109.347                    81742229.071    19653689.109  
  19653681.500  
  20468053.438   109605521.821                    85248745.115    20468057.215  
  20468052.562  
  23850316.484   125334244.370    23850328.340    97663080.2964   23850328.219  
                
  21411261.555   112516941.089    21411269.059    87675573.8394   21411269.051  
                
  19757263.859   105613914.651                    82144165.167    19757268.344  
  19757263.547  
  21464464.703   114820434.609                    89304764.854    21464469.348  
  21464463.125  
  21331419.039   112097359.148    21331428.066    87348659.4164   21331428.086  
                
  23190897.930   124099182.993                    96521591.288    23190903.402  
  23190895.977  
  22534984.117   118422142.132    22534991.363    92277025.2874                 
                
  23770646.352   124915587.911    23770657.086    97336877.3094   23770657.551  
                
  20368718.156   107038372.338    20368725.492    83406571.4174   20368725.434  
                
  20796955.141   109288752.228    20796964.371    85160129.0104   20796963.961  
                
 21  8 15  8 32 30.0000000  0 13G15R20R 4G26G18R 5R19G27R21G16G 8G23
                                G10
  23036864.758   121059565.773    23036873.426    94332168.3044   23036873.230  
                
  19651785.039   105086963.904                    81734338.174    19651791.844  
  19651784.270  
  20472093.633   109627156.817                    85265572.324    20472097.414  
  20472092.781  
  23856241.250   125365379.556    23856253.223    97687341.4494   23856253.086  
                
  21414932.531   112536232.179    21414940.051    87690605.8464   21414940.047  
                
  19753377.055   105593137.450                    82128005.126    19753381.578  
  19753376.754  
  21469133.773   114845410.863                    89324190.814    21469138.445  
  21469132.227  
  21327557.508   112077066.709    21327566.559    87332847.1254   21327566.574  
                
  23184426.250   124064551.760                    96494655.873    23184431.648  
  23184424.336  
  22538894.453   118442690.972    22538901.746    92293037.3524                 
                
  23764449.227   124883021.866    23764459.996    97311501.1864   23764460.457  
                
  20370377.016   107047089.690    20370384.352    83413364.1544   20370384.305  
                
  20794255.508   109274565.598    20794264.770    85149074.4934   20794264.340  
                
 21  8 15  8 32 40.0000000  0 13G15R20R 4G26G18R 5R19G27R21G16G 8G23
                                G10
  23040210.391   121077147.255    23040219.051    94345868.1404   23040218.844  
                
  19649895.562   105076860.041                    81726479.617    19649902.355  
  19649894.797  
  20476148.000   109648867.681                    85282458.548    20476151.766  
  20476147.184  
  23862168.664   125396528.265    23862180.668    97711613.1584   23862180.523  
                
  21418608.211   112555547.968    21418615.750    87705657.1074   21418615.738  
                
  19749505.414   105572441.377                    82111908.196    19749509.973  
  19749505.125  
  21473809.438   114870422.373                    89343644.192    21473814.133  
  21473807.914  
  21323704.945   112056821.345    21323714.008    87317071.5224   21323714.027  
                
  23177954.406   124029919.618                    96467719.770    23177959.680  
  23177952.473  
  22542814.531   118463291.085    22542821.871    92309089.3844                 
                
  23758255.719   124850474.954    23758266.488    97286139.9664   23758266.961  
                
  20372045.953   107055860.007    20372053.293    83420198.1604   20372053.254  
                
  20791565.359   109260428.773    20791574.648    85138058.7924   20791574.207  
                
 21  8 15  8 32 50.0000000  0 13G15R20R 4G26G18R 5R19G27R21G16G 8G23
                                G10
  23043567.914   121094791.223    23043576.547    94359616.6564   23043576.348  
                
  19648013.805   105066797.484                    81718653.181    19648020.598  
  19648013.043  
  20480216.461   109670654.019                    85299403.481    20480220.219  
  20480215.688  
  23868098.562   125427690.134    23868110.605    97735895.1104   23868110.449  
                
  21422288.531   112574888.174    21422296.121    87720727.3924   21422296.094  
                
  19745648.930   105551826.280                    82095874.237    19745653.516  
  19745648.645  
  21478491.695   114895469.157                    89363125.019    21478496.391  
  21478490.184  
  21319861.297   112036622.874    21319870.363    87301332.4574   21319870.363  
                
  23171482.383   123995286.510                    96440782.895    23171487.598  
  23171480.426  
  22546744.297   118483942.091    22546751.676    92325181.0564                 
                
  23752065.758   124817946.696    23752076.512    97260793.2944   23752076.996  
                
  20373724.906   107064682.960    20373732.273    83427073.1794   20373732.219  
                
  20788884.633   109246341.504    20788893.949    85127081.7054   20788893.484  
                
 21  8 15  8 33  0.0000000  0 13G15R20R 4G26G18R 5R19G27R21G16G 8G23
                                G10
  23046937.328   121112497.698    23046945.938    94373413.9064   23046945.754  
                
  19646139.828   105056776.475                    81710859.060    19646146.602  
  19646139.043  
  20484299.023   109692515.950                    85316407.201    20484302.789  
  20484298.270  
  23874030.930   125458865.113    23874043.039    97760187.2834   23874042.871  
                
  21425973.508   112594252.868    21425981.129    87735816.7504   21425981.098  
                
  19741807.602   105531292.230                    82079903.313    19741812.219  
  19741807.305  
  21483180.523   114920551.115                    89382633.176    21483185.227  
  21483178.980  
  21316026.594   112016471.462    21316035.676    87285630.0654   21316035.680  
                
  23165010.180   123960652.502                    96413845.359    23165015.418  
  23165008.227  
  22550683.742   118504644.010    22550691.160    92341312.4034                 
                
  23745879.461   124785437.691    23745890.223    97235461.6344   23745890.695  
                
  20375413.875   107073558.577    20375421.270    83433989.2354   20375421.211  
                
  20786213.359   109232303.881    20786222.699    85116143.2994   20786222.227  
                
 21  8 15  8 33 10.0000000  0 13G15R20R 4G26G18R 5R19G27R21G16G 8G23
                                G10
  23050318.672   121130266.740    23050327.238    94387259.8984   23050327.062  
                
  19644273.656   105046797.207                    81703097.401    19644280.422  
  19644272.906  
  20488395.672   109714453.247                    85333469.527    20488399.445  
  20488394.945  
  23879965.875   125490053.240    23879977.969    97784489.6994   23879977.793  
                
  21429663.156   112613642.117    21429670.801    87750925.2534   21429670.770  
                
  19737981.523   105510839.646                    82063995.754    19737986.156  
  19737981.227  
  21487875.906   114945668.172                    89402168.661    21487880.645  
  21487874.348  
  21312200.898   111996367.303    21312209.996    87269964.4874   21312209.996  
                
  23158537.828   123926017.656                    96386907.169    23158543.098  
  23158535.848  
  22554632.875   118525396.754    22554640.297    92357483.3574                 
                
  23739696.836   124752947.867    23739707.625    97210144.9074   23739708.102  
                
  20377112.883   107082486.900    20377120.312    83440946.3684   20377120.254  
                
  20783551.562   109218316.024    20783560.926    85105243.6724   20783560.449  
                
 21  8 15  8 33 20.0000000  0 13G15R20R 4G26G18R 5R19G27R21G16G 8G23
                                G10
  23053711.859   121148098.069    23053720.379    94401154.4284   23053720.215  
                
  19642415.250   105036859.521                    81695368.099    19642422.027  
  19642414.504  
  20492506.359   109736465.693                    85350590.308    20492510.121  
  20492505.629  
  23885903.273   125521254.160    23885915.375    97808802.0804   23885915.160  
                
  21433357.438   112633055.721    21433365.105    87766052.7254   21433365.078  
                
  19734170.641   105490468.320                    82048151.396    19734175.285  
  19734170.355  
  21492577.852   114970820.404                    89421731.498    21492582.629  
  21492576.285  
  21308384.164   111976310.280    21308393.266    87254335.6464   21308393.258  
                
  23152065.312   123891381.891                    96359968.274    23152070.629  
  23152063.305  
  22558591.609   118546199.970    22558599.012    92373693.6554                 
                
  23733517.836   124720477.183    23733528.672    97184843.1024   23733529.160  
                
  20378821.867   107091467.678    20378829.332    83447944.3704   20378829.277  
                
  20780899.195   109204377.737    20780908.590    85094382.6754   20780908.090  
                
 21  8 15  8 33 30.0000000  0 13G15R20R 4G26G18R 5R19G27R21G16G 8G23
                                G10
  23057116.938   121165991.877    23057125.430    94415097.6434   23057125.277  
                
  19640564.648   105026963.549                    81687671.243    19640571.438  
  19640563.875  
  20496631.102   109758553.442                    85367769.676    20496634.863  
  20496630.367  
  23891843.023   125552467.986    23891855.234    97833124.5164   23891854.969  
                
  21437056.383   112652493.836    21437064.074    87781199.3064   21437064.039  
                
  19730375.031   105470178.625                    82032370.523    19730379.676  
  19730374.758  
  21497286.391   114996007.946                    89441321.776    21497291.184  
  21497284.789  
  21304576.453   111956300.642    21304585.551    87238743.7184   21304585.562  
                
  23145592.641   123856745.525                    96333028.902    23145598.016  
  23145590.609  
  22562559.984   118567053.889    22562567.355    92389943.4444                 
                
  23727342.523   124688025.885    23727353.434    97159556.3934   23727353.918  
                
  20380540.859   107100501.052    20380548.336    83454983.3564   20380548.281  
                
  20778256.305   109190489.250    20778265.723    85083560.4804   20778265.199  
                
 21  8 15  8 33 40.0000000  0 13G15R20R 4G26G18R 5R19G27R21G16G 8G23
                                G10
  23060533.898   121183948.104    23060542.332    94429089.4934   23060542.207  
                
  19638721.898   105017109.564                    81680007.032    19638728.695  
  19638721.109  
  20500769.844   109780716.166                    85385007.329    20500773.602  
  20500769.098  
  23897785.312   125583694.643    23897797.480    97857456.9514   23897797.211  
                
  21440760.008   112671956.511    21440767.703    87796365.0174   21440767.688  
                
  19726594.688   105449970.489                    82016653.081    19726599.320  
  19726594.410  
  21502001.531   115021230.718                    89460939.472    21502006.348  
  21501999.930  
  21300777.789   111936338.538    21300786.875    87223188.8334   21300786.898  
                
  23139119.883   123822108.590                    96306089.081    23139125.316  
  23139117.832  
  22566537.992   118587958.440    22566545.316    92406232.7044                 
                
  23721170.938   124655594.193    23721181.902    97134284.9694   23721182.375  
                
  20382269.867   107109586.995    20382277.340    83462063.3124   20382277.293  
                
  20775622.898   109176650.591    20775632.328    85072777.1084   20775631.801  
                
 21  8 15  8 33 50.0000000  0 13G15R20R 4G26G18R 5R19G27R21G16G 8G23
                                G10
  23063962.719   121201966.642    23063971.125    94443129.8904   23063971.004  
                
  19636887.000   105007297.489                    81672375.418    19636893.789  
  19636886.207  
  20504922.586   109802953.836                    85402303.303    20504926.344  
  20504921.836  
  23903730.008   125614933.920    23903742.113    97881799.2294   23903741.844  
                
  21444468.281   112691443.636    21444475.977    87811549.7774   21444475.961  
                
  19722829.586   105429843.874                    82000999.049    19722834.203  
  19722829.332  
  21506723.250   115046488.643                    89480584.506    21506728.055  
  21506721.645  
  21296988.156   111916423.948    21296997.234    87207670.9814   21296997.238  
                
  23132646.969   123787470.999                    96279148.769    23132652.469  
  23132644.867  
  22570525.602   118608913.459    22570532.887    92422561.2684                 
                
  23715003.102   124623182.056    23715014.078    97109028.7854   23715014.551  
                
  20384008.844   107118725.376    20384016.316    83469184.1264   20384016.273  
                
  20772998.953   109162861.702    20773008.395    85062032.5234   20773007.863  
                
 21  8 15  8 34  0.0000000  0 13G15R20R 4G26G18R 5R19G27R21G16G 8G23
                                G10
  23067403.344   121220047.195    23067411.738    94457218.6114   23067411.617  
                
  19635059.914   104997527.268                    81664776.343    19635066.703  
  19635059.121  
  20509089.250   109825266.128                    85419657.295    20509093.012  
  20509088.488  
  23909677.141   125646185.548    23909689.102    97906151.1404   23909688.840  
                
  21448181.172   112710954.989    21448188.859    87826753.4324   21448188.852  
                
  19719079.734   105409798.764                    81985408.408    19719084.340  
  19719079.504  
  21511451.547   115071781.743                    89500256.912    21511456.359  
  21511449.930  
  21293207.555   111896556.773    21293216.613    87192190.0624   21293216.625  
                
  23126174.000   123752832.852                    96252208.028    23126179.555  
  23126171.848  
  22574522.773   118629918.672    22574530.055    92438928.9544                 
                
  23708838.961   124590789.310    23708849.973    97083787.6974   23708850.434  
                
  20385757.758   107127915.950    20385765.219    83476345.6084   20385765.188  
                
  20770384.461   109149122.399    20770393.914    85051326.5744   20770393.387  
                
 21  8 15  8 34 10.0000000  0 13G15R20R 4G26G18R 5R19G27R21G16G 8G23
                                G10
  23070855.789   121238189.838    23070864.160    94471355.7134   23070864.020  
                
  19633240.688   104987799.021                    81657209.927    19633247.469  
  19633239.902  
  20513269.859   109847653.094                    85437069.355    20513273.625  
  20513269.086  
  23915626.570   125677449.615    23915638.484    97930512.7274   23915638.230  
                
  21451898.711   112730490.779    21451906.363    87841976.1144   21451906.375  
                
  19715345.203   105389835.567                    81969881.480    19715349.785  
  19715344.992  
  21516186.414   115097109.968                    89519956.630    21516191.215  
  21516184.801  
  21289436.031   111876737.312    21289445.059    87176746.3314   21289445.094  
                
  23119700.906   123718194.113                    96225266.816    23119706.488  
  23119698.758  
  22578529.492   118650974.074    22578536.781    92455335.7524                 
                
  23702678.609   124558416.332    23702689.598    97058562.0074   23702690.055  
                
  20387516.625   107137158.871    20387524.086    83483547.8774   20387524.062  
                
  20767779.438   109135432.916    20767788.910    85040659.4494   20767788.375  
                
 21  8 15  8 34 20.0000000  0 13G15R20R 4G26G18R 5R19G27R21G16G 8G23
                                G10
  23074320.055   121256394.593    23074328.402    94485541.2044   23074328.266  
                
  19631429.352   104978112.925                    81649676.309    19631436.125  
  19631428.578  
  20517464.406   109870114.648                    85454539.461    20517468.184  
  20517463.648  
  23921578.289   125708726.043    23921590.230    97954883.9384   23921589.984  
                
  21455620.906   112750050.994    21455628.504    87857217.8424   21455628.551  
                
  19711626.008   105369954.313                    81954418.280    19711630.570  
  19711625.805  
  21520927.852   115122473.532                    89539683.834    21520932.703  
  21520926.211  
  21285673.617   111856965.640    21285682.617    87161339.8364   21285682.652  
                
  23113227.758   123683555.017                    96198325.306    23113233.336  
  23113225.656  
  22582545.758   118672079.623    22582553.039    92471781.6264                 
                
  23696522.023   124526063.248    23696533.008    97033351.8264   23696533.461  
                
  20389285.461   107146454.094    20389292.926    83490790.9054   20389292.906  
                
  20765183.906   109121793.283    20765193.387    85030031.1624   20765192.855  
                
 21  8 15  8 34 30.0000000  0 13G15R20R 4G26G18R 5R19G27R21G16G 8G23
                                G10
  23077796.109   121274661.313    23077804.441    94499775.0124   23077804.301  
                
  19629625.898   104968469.085                    81642175.538    19629632.676  
  19629625.129  
  20521672.836   109892650.622                    85472067.440    20521676.617  
  20521672.055  
  23927532.328   125740014.685    23927544.270    97979264.6764   23927544.047  
                
  21459347.734   112769635.608    21459355.305    87872478.5634   21459355.375  
                
  19707922.125   105350154.945                    81939018.784    19707926.676  
  19707921.914  
  21525675.828   115147872.068                    89559438.228    21525680.664  
  21525674.168  
  21281920.289   111837241.833    21281929.277    87145970.6384   21281929.309  
                
  23106754.516   123648915.433                    96171383.406    23106760.031  
  23106752.453  
  22586571.555   118693235.244    22586578.812    92488266.5144                 
                
  23690369.172   124493729.837    23690380.152    97008156.9834   23690380.598  
                
  20391064.211   107155801.532    20391071.684    83498074.6184   20391071.656  
                
  20762597.844   109108203.470    20762607.316    85019441.7034   20762606.785  
                
 21  8 15  8 34 40.0000000  0 13G15R20R 4G26G18R 5R19G27R21G16G 8G23
                                G10
  23081283.953   121292989.894    23081292.254    94514056.9954   23081292.113  
                
  19627830.344   104958867.422                    81634707.581    19627837.117  
  19627829.559  
  20525895.156   109915260.902                    85489653.197    20525898.941  
  20525894.367  
  23933488.672   125771315.316    23933500.605    98003654.7534   23933500.383  
                
  21463079.172   112789244.469    21463086.723    87887758.1894   21463086.793  
                
  19704233.578   105330437.579                    81923683.044    19704238.105  
  19704233.367  
  21530430.375   115173305.643                    89579219.888    21530435.203  
  21530428.703  
  21278176.078   111817565.842    21278185.055    87130638.6934   21278185.082  
                
  23100281.234   123614275.538                    96144441.254    23100286.703  
  23100279.188  
  22590606.836   118714440.748    22590614.102    92504790.2734                 
                
  23684220.070   124461416.177    23684231.020    96982977.5314   23684231.445  
                
  20392852.883   107165201.037    20392860.367    83505398.9004   20392860.340  
                
  20760021.258   109094663.386    20760030.703    85008890.9884   20760030.188  
                
 21  8 15  8 34 50.0000000  0 13G15R20R 4G26G18R 5R19G27R21G16G 8G23
                                G10
  23084783.570   121311380.424    23084791.855    94528387.2674   23084791.715  
                
  19626042.664   104949307.917                    81627272.415    19626049.434  
  19626041.875  
  20530131.320   109937945.325                    85507296.623    20530135.113  
  20530130.531  
  23939447.281   125802628.005    23939459.223    98028054.2214   23939459.016  
                
  21466815.266   112808877.746    21466822.793    87903056.8444   21466822.875  
                
  19700560.406   105310802.377                    81908411.225    19700564.926  
  19700560.184  
  21535191.492   115198774.381                    89599028.904    21535196.332  
  21535189.812  
  21274441.008   111797937.895    21274449.977    87115344.1974   21274449.996  
                
  23093807.836   123579635.202                    96117498.821    23093813.340  
  23093805.770  
  22594651.648   118735696.299    22594658.941    92521353.0144                 
                
  23678074.836   124429122.708    23678085.742    96957813.8114   23678086.164  
                
  20394651.477   107174652.701    20394658.965    83512763.8254   20394658.934  
                
  20757454.164   109081173.220    20757463.570    84998379.1674   20757463.066  
                
 21  8 15  8 35  0.0000000  0 13G15R20R 4G26G18R 5R19G27R21G16G 8G23
                                G10
  23088294.930   121329832.684    23088303.223    94542765.6274   23088303.066  
                
  19624262.898   104939790.767                    81619870.181    19624269.676  
  19624262.129  
  20534381.297   109960703.754                    85524997.615    20534385.121  
  20534380.508  
  23945408.172   125833952.482    23945420.051    98052462.8834   23945419.879  
                
  21470555.977   112828535.271    21470563.520    87918374.3874   21470563.590  
                
  19696902.586   105291249.308                    81893203.302    19696907.105  
  19696902.336  
  21539959.148   115224278.099                    89618865.104    21539963.992  
  21539957.445  
  21270715.078   111778357.983    21270724.047    87100087.1264   21270724.070  
                
  23087334.438   123544994.704                    96090556.220    23087339.945  
  23087332.379  
  22598705.898   118757001.424    22598713.242    92537954.4044                 
                
  23671933.414   124396849.379    23671944.297    96932665.7784   23671944.742  
                
  20396459.961   107184156.330    20396467.457    83520169.2434   20396467.410  
                
  20754896.539   109067732.825    20754905.918    84987906.1334   20754905.434  
                
 21  8 15  8 35 10.0000000  0 13G15R20R 4G26G18R 5R19G27R21G16G 8G23
                                G10
  23091818.016   121348346.624    23091826.312    94557192.0614   23091826.145  
                
  19622491.102   104930316.150                    81612501.035    19622497.875  
  19622490.352  
  20538645.086   109983536.084                    85542756.082    20538648.910  
  20538644.281  
  23951371.336   125865288.727    23951383.113    98076880.7154   23951382.969  
                
  21474301.305   112848217.097    21474308.863    87933710.8724   21474308.906  
                
  19693260.148   105271778.449                    81878059.295    19693264.668  
  19693259.879  
  21544733.359   115249816.905                    89638728.589    21544738.238  
  21544731.621  
  21266998.312   111758826.240    21267007.277    87084867.5784   21267007.293  
                
  23080861.000   123510354.001                    96063613.471    23080866.496  
  23080858.961  
  22602769.578   118778356.100    22602776.934    92554594.3954                 
                
  23665795.789   124364596.051    23665806.684    96907533.3504   23665807.148  
                
  20398278.336   107193711.932    20398285.832    83527615.1694   20398285.793  
                
  20752348.398   109054342.281    20752357.758    84977471.9474   20752357.277  
                
 21  8 15  8 35 20.0000000  0 13G15R20R 4G26G18R 5R19G27R21G16G 8G23
                                G10
  23095352.852   121366922.262    23095361.152    94571666.5684   23095360.965  
                
  19620727.250   104920884.043                    81605164.958    19620734.031  
  19620726.480  
  20542922.672   110006442.310                    85560572.030    20542926.504  
  20542921.844  
  23957336.703   125896636.744    23957348.422    98101307.7274   23957348.301  
                
  21478051.281   112867923.298    21478058.844    87949066.3404   21478058.887  
                
  19689633.141   105252390.036                    81862979.406    19689637.656  
  19689632.863  
  21549514.180   115275390.956                    89658619.475    21549519.066  
  21549512.434  
  21263290.742   111739342.817    21263299.703    87069685.7014   21263299.730  
                
  23074387.516   123475713.244                    96036670.685    23074393.000  
  23074385.484  
  22606842.703   118799760.398    22606850.070    92571273.0604                 
                
  23659662.055   124332363.256    23659672.961    96882416.9084   23659673.457  
                
  20400106.617   107203319.558    20400114.109    83535101.6334   20400114.078  
                
  20749809.766   109041001.707    20749819.109    84967076.6984   20749818.633  
                
 21  8 15  8 35 30.0000000  0 13G15R20R 4G26G18R 5R19G27R21G16G 8G23
                                G10
  23098899.383   121385559.388    23098907.672    94586189.0044   23098907.504  
                
  19618971.344   104911494.418                    81597861.906    19618978.121  
  19618970.574  
  20547213.992   110029422.111                    85578445.196    20547217.840  
  20547213.137  
  23963304.234   125927996.245    23963315.918    98125743.6804   23963315.805  
                
  21481805.852   112887653.711    21481813.418    87964440.6904   21481813.465  
                
  19686021.555   105233084.100                    81847963.695    19686026.066  
  19686021.273  
  21554301.531   115300999.905                    89678537.552    21554306.387  
  21554299.773  
  21259592.359   111719907.674    21259601.309    87054541.4314   21259601.348  
                
  23067913.992   123441072.340                    96009727.809    23067919.531  
  23067911.980  
  22610925.234   118821214.140    22610932.582    92587990.2514                 
                
  23653532.219   124300150.833    23653543.078    96857316.3414   23653543.590  
                
  20401944.750   107212978.992    20401952.242    83542628.4594   20401952.199  
                
  20747280.617   109027710.952    20747289.941    84956720.2664   20747289.469  
                
 21  8 15  8 35 40.0000000  0 13G15R20R 4G26G18R 5R19G27R21G16G 8G23
                                G10
  23102457.633   121404257.997    23102465.926    94600759.3254   23102465.758  
                
  19617223.414   104902147.452                    81590592.058    19617230.184  
  19617222.637  
  20551519.055   110052475.571                    85596375.658    20551522.934  
  20551518.164  
  23969273.930   125959367.180    23969285.629    98150188.5374   23969285.496  
                
  21485565.031   112907408.367    21485572.598    87979833.9074   21485572.660  
                
  19682425.406   105213860.637                    81833012.098    19682429.910  
  19682425.129  
  21559095.414   115326644.027                    89698482.969    21559100.273  
  21559093.617  
  21255903.180   111700520.895    21255912.121    87039434.8544   21255912.160  
                
  23061440.523   123406431.407                    95982784.864    23061446.039  
  23061438.504  
  22615017.141   118842717.217    22615024.449    92604745.8764                 
                
  23647406.266   124267958.757    23647417.066    96832231.6224   23647417.598  
                
  20403792.742   107222690.226    20403800.219    83550195.6504   20403800.180  
                
  20744760.953   109014470.076    20744770.262    84946402.7024   20744769.797  
                
 21  8 15  8 35 50.0000000  0 13G15R20R 4G26G18R 5R19G27R21G16G 8G23
                                G10
  23106027.602   121423018.180    23106035.902    94615377.6394   23106035.711  
                
  19615483.484   104892843.239                    81583355.431    19615490.254  
  19615482.707  
  20555837.812   110075602.351                    85614363.149    20555841.703  
  20555836.883  
  23975245.773   125990749.464    23975257.469    98174642.2404   23975257.324  
                
  21489328.836   112927187.258    21489336.414    87995246.0214   21489336.480  
                
  19678844.688   105194719.646                    81818124.667    19678849.219  
  19678844.410  
  21563895.836   115352323.119                    89718455.575    21563900.707  
  21563894.031  
  21252223.234   111681182.613    21252232.164    87024366.0644   21252232.199  
                
  23054967.055   123371790.531                    95955841.964    23054972.582  
  23054965.094  
  22619118.430   118864269.493    22619125.719    92621539.8414                 
                
  23641284.227   124235787.245    23641295.016    96807162.9334   23641295.547  
                
  20405650.578   107232453.220    20405658.035    83557803.1754   20405658.008  
                
  20742250.789   109001279.105    20742260.090    84936124.0314   20742259.617  
                
 21  8 15  8 36  0.0000000  0 14G15R20R 4G26G18R 5R19G27R21G16G 8R 6
                                G23G10
  23109609.273   121441839.939    23109617.578    94630043.9304   23109617.375  
                
  19613751.562   104883581.893                    81576152.173    19613758.336  
  19613750.781  
  20560170.320   110098802.724                    85632407.863    20560174.234  
  20560169.363  
  23981219.812   126022143.211    23981231.484    98199104.8804   23981231.355  
                
  21493097.289   112946990.618    21493104.891    88010677.2044   21493104.953  
                
  19675279.492   105175661.691                    81803301.818    19675284.020  
  19675279.219  
  21568702.859   115378037.404                    89738455.558    21568707.707  
  21568701.051  
  21248552.562   111661893.141    21248561.488    87009335.3034   21248561.527  
                
  23048493.664   123337149.952                    95928899.305    23048499.172  
  23048491.734  
  22623229.109   118885871.184    22623236.371    92638372.3134                 
                
  23635166.211   124203636.845    23635177.000    96782110.7094   23635177.531  
                
  23473037.750   125256626.074                                                  
  23473035.438  
  20407518.297   107242268.140    20407525.727    83565451.1594   20407525.715  
                
  20739750.172   108988138.313    20739759.453    84925884.4504   20739758.980  
                
 21  8 15  8 36 10.0000000  0 14G15R20R 4G26G18R 5R19G27R21G16G 8R 6
                                G23G10
  23113202.688   121460723.371    23113210.984    94644758.3014   23113210.789  
                
  19612027.766   104874363.993                    81568982.684    19612034.535  
  19612027.000  
  20564516.602   110122076.865                    85650509.971    20564520.523  
  20564515.645  
  23987196.078   126053548.607    23987207.727    98223576.5894   23987207.586  
                
  21496870.461   112966818.712    21496878.086    88026127.6624   21496878.148  
                
  19671729.883   105156687.001                    81788543.729    19671734.414  
  19671729.621  
  21573516.562   115403787.425                    89758483.342    21573521.379  
  21573514.777  
  21244891.266   111642652.838    21244900.184    86994342.8654   21244900.234  
                
  23042020.367   123302509.985                    95901957.140    23042025.844  
  23042018.422  
  22627349.234   118907522.503    22627356.461    92655243.4594                 
                
  23629052.219   124171507.625    23629063.012    96757074.9694   23629063.547  
                
  23464548.805   125211328.060                                                  
  23464546.738  
  20409395.945   107252135.241    20409403.348    83573139.8074   20409403.363  
                
  20737259.156   108975047.974    20737268.414    84915684.1854   20737267.949  
                
 21  8 15  8 36 20.0000000  0 14G15R20R 4G26G18R 5R19G27R21G16G 8R 6
                                G23G10
  23116807.656   121479667.469    23116815.906    94659519.9214   23116815.707  
                
  19610311.914   104865188.398                    81561846.120    19610318.660  
  19610311.121  
  20568876.391   110145423.340                    85668668.325    20568880.309  
  20568875.422  
  23993174.398   126084964.470    23993185.949    98248056.4704   23993185.824  
                
  21500648.125   112986670.451    21500655.801    88041596.5524   21500655.840  
                
  19668195.672   105137794.608                    81773849.639    19668200.215  
  19668195.422  
  21578336.695   115429571.734                    89778537.771    21578341.438  
  21578334.910  
  21241239.133   111623460.727    21241248.051    86979387.9764   21241248.102  
                
  23035547.000   123267869.728                    95875014.739    23035552.414  
  23035545.027  
  22631478.578   118929222.290    22631485.762    92672152.3784                 
                
  23622942.039   124139398.539    23622952.848    96732054.9274   23622953.359  
                
  23456062.000   125166040.478                                                  
  23456059.797  
  20411283.320   107262053.392    20411290.695    83580868.2314   20411290.723  
                
  20734777.547   108962007.040    20734786.781    84905522.4204   20734786.336  
                
 21  8 15  8 36 30.0000000  0 14G15R20R 4G26G18R 5R19G27R21G16G 8R 6
                                G23G10
  23120424.203   121498672.467    23120432.426    94674328.9854   23120432.227  
                
  19608603.922   104856055.475                    81554742.737    19608610.766  
  19608603.199  
  20573249.766   110168842.549                    85686883.251    20573253.680  
  20573248.789  
  23999154.727   126116390.954    23999166.172    98272544.6124   23999166.031  
                
  21504430.336   113006546.078    21504438.059    88057084.0404   21504438.082  
                
  19664676.914   105118984.834                    81759219.810    19664681.473  
  19664676.672  
  21583163.352   115455390.908                    89798619.345    21583168.027  
  21583161.574  
  21237596.219   111604317.103    21237605.137    86964470.8674   21237605.191  
                
  23029073.656   123233229.499                    95848072.345    23029078.984  
  23029071.621  
  22635617.172   118950970.627    22635624.316    92689099.1184                 
                
  23616835.797   124107310.101    23616846.586    96707050.9574   23616847.117  
                
  23447576.930   125120763.794                                                  
  23447574.863  
  20413180.430   107272022.784    20413187.801    83588636.5814   20413187.836  
                
  20732305.383   108949015.758    20732314.602    84895399.3504   20732314.172  
                
 21  8 15  8 36 40.0000000  0 14G15R20R 4G26G18R 5R19G27R21G16G 8R 6
                                G23G10
  23124052.242   121517737.875    23124060.449    94689185.1464   23124060.262  
                
  19606903.898   104846964.808                    81547672.209    19606910.781  
  19606903.184  
  20577636.594   110192333.833                    85705154.249    20577640.508  
  20577635.609  
  24005137.000   126147827.558    24005148.359    98297040.6554   24005148.215  
                
  21508217.023   113026445.180    21508224.789    88072589.8254   21508224.789  
                
  19661173.555   105100257.351                    81744653.999    19661178.117  
  19661173.328  
  21587996.391   115481244.279                    89818727.508    21588001.012  
  21587994.582  
  21233962.484   111585221.710    21233971.395    86949591.3424   21233971.449  
                
  23022600.203   123198588.773                    95821129.584    23022605.480  
  23022598.168  
  22639764.906   118972767.047    22639772.055    92706083.3294                 
                
  23610733.406   124075241.877    23610744.176    96682062.7484   23610744.707  
                
  23439094.148   125075497.817                                                  
  23439092.031  
  20415087.219   107282042.954    20415094.586    83596444.5094   20415094.609  
                
  20729842.602   108936073.769    20729851.812    84885314.6834   20729851.387  
                
 21  8 15  8 36 50.0000000  0 14G15R20R 4G26G18R 5R19G27R21G16G 8R 6
                                G23G10
  23127692.055   121536865.081    23127700.242    94704089.4704   23127700.055  
                
  19605212.148   104837918.062                    81540635.857    19605219.012  
  19605211.398  
  20582037.164   110215898.642                    85723482.429    20582041.066  
  20582036.180  
  24011121.312   126179275.636    24011132.770    98321545.6124   24011132.602  
                
  21512008.445   113046369.186    21512016.258    88088115.0174   21512016.238  
                
  19657685.891   105081613.765                    81730153.439    19657690.465  
  19657685.680  
  21592836.102   115507133.322                    89838863.421    21592840.719  
  21592834.297  
  21230338.219   111566176.053    21230347.117    86934750.5734   21230347.168  
                
  23016126.984   123163949.316                    95794187.783    23016132.215  
  23016125.012  
  22643922.062   118994612.933    22643929.223    92723106.0934                 
                
  23604635.211   124043195.553    23604645.945    96657091.6164   23604646.477  
                
  23430613.805   125030244.089                                                  
  23430611.500  
  20417003.930   107292115.308    20417011.301    83604293.0934   20417011.320  
                
  20727389.477   108923182.542    20727398.676    84875269.5714   20727398.250  
                
 21  8 15  8 37  0.0000000  0 14G15R20R 4G26G18R 5R19G27R21G16G 8R 6
                                G23G10
