     2.11           OBSERVATION DATA    M (MIXED)           RINEX VERSION / TYPE
EFT-CORS.RU                             20210817 150538 UTC PGM / RUN BY / DATE 
MDNG                                                        MARKER NAME         
                                                            MARKER NUMBER       
MDNG                EFT-CORS.RU                             OBSERVER / AGENCY   
0                   TRIMBLE BD970       2.0                 REC # / TYPE / VERS 
0                   UNKNOWN EXT NONE                        ANT # / TYPE        
  3463911.2830  3030468.2400  4402179.3760                  APPROX POSITION XYZ 
        0.0000        0.0000        0.0000                  ANTENNA: DELTA H/E/N
     1     1                                                WAVELENGTH FACT L1/2
     6    C1    L1    P2    L2    C2    P1                  # / TYPES OF OBSERV 
    10.000                                                  INTERVAL            
  2021     8    14     2    30    0.0000000     GPS         TIME OF FIRST OBS   
  2021     8    14     3    30    0.0000000     GPS         TIME OF LAST OBS    
     0                                                      RCV CLOCK OFFS APPL 
                                                            END OF HEADER       
 21  8 14  2 30  0.0000000  0 14G 6R23G20G29R13R15G12R14G19G 2R24G24
                                R17G25
  22013985.555   115684276.858    22013994.695    90143628.9174   22013995.133  
                
  19935354.695   106640723.755                                                  
  19935352.910  
  24568201.828   129106772.127    24568209.086   100602707.1654                 
                
  23370810.898   122814443.406    23370817.609    95699596.0814   23370817.707  
                
  20436187.961   109128112.156                    84877442.590    20436190.609  
  20436186.312  
  22847369.648   122089411.949                    94958429.337    22847373.535  
  22847369.711  
  20132011.320   105794445.278    20132017.102    82437265.9294   20132017.258  
                
  19401104.867   103418810.988                    80436851.066    19401108.430  
  19401104.648  
  24324283.195   127824967.912    24324288.453    99603890.7004                 
                
  21234260.188   111586790.278    21234264.266    86950768.3494                 
                
  19277663.438   103086338.430                    80178266.782    19277667.180  
  19277662.781  
  22452243.320   117987345.719    22452251.875    91938231.2404   22452252.125  
                
  22355206.602   119627221.063                    93043390.592    22355210.043  
  22355204.637  
  21106753.438   110916739.063    21106762.273    86428671.4234   21106762.828  
                
 21  8 14  2 30 10.0000000  0 14G 6R23G20G29R13R15G12R14G19G 2R24G24
                                R17G25
  22017669.352   115703635.316    22017678.469    90158713.4294   22017678.906  
                
  19939757.188   106664274.144                                                  
  19939755.387  
  24562680.117   129077755.283    24562687.383   100580096.6624                 
                
  23365268.547   122785317.930    23365275.176    95676900.8944   23365275.270  
                
  20441304.141   109155432.316                    84898691.584    20441306.770  
  20441302.465  
  22839973.258   122049887.904                    94927688.425    22839977.125  
  22839973.312  
  20131621.289   105792395.621    20131627.094    82435668.7924   20131627.230  
                
  19398443.117   103404622.322                    80425815.433    19398446.688  
  19398442.895  
  24330800.773   127859218.015    24330806.078    99630579.0724                 
                
  21234330.141   111587157.843    21234334.230    86951054.7634                 
                
  19275818.031   103076470.224                    80170591.498    19275821.746  
  19275817.375  
  22458363.430   118019507.141    22458372.020    91963292.0864   22458372.266  
                
  22347970.289   119588497.938                    93013272.606    22347973.688  
  22347968.293  
  21102666.367   110895261.383    21102675.219    86411935.5714   21102675.758  
                
 21  8 14  2 30 20.0000000  0 14G 6R23G20G29R13R15G12R14G19G 2R24G24
                                R17G25
  22021363.805   115723049.778    22021372.898    90173841.5694   22021373.332  
                
  19944170.539   106687882.580                                                  
  19944168.754  
  24557159.594   129048744.760    24557166.871   100557491.0364                 
                
  23359730.422   122756214.793    23359737.016    95654223.1124   23359737.109  
                
  20446431.211   109182810.604                    84919985.800    20446433.848  
  20446429.496  
  22832578.914   122010374.921                    94896956.123    22832582.828  
  22832578.973  
  20131239.633   105790390.033    20131245.465    82434105.9944   20131245.582  
                
  19395793.672   103390499.275                    80414830.836    19395797.230  
  19395793.434  
  24337318.930   127893471.075    24337324.281    99657269.7344                 
                
  21234411.367   111587584.684    21234415.461    86951387.3664                 
                
  19273986.898   103066678.304                    80162975.558    19273990.590  
  19273986.230  
  22464489.078   118051697.662    22464497.688    91988375.6054   22464497.938  
                
  22340740.148   119549807.766                    92983180.231    22340743.496  
  22340738.133  
  21098585.297   110873815.233    21098594.172    86395224.2824   21098594.691  
                
 21  8 14  2 30 30.0000000  0 14G 6R23G20G29R13R15G12R14G19G 2R24G24
                                R17G25
  22025068.828   115742519.806    22025077.898    90189013.0134   22025078.320  
                
  19948594.648   106711548.581                                                  
  19948592.867  
  24551640.250   129019740.259    24551647.496   100534890.1304                 
                
  23354196.484   122727133.615    23354203.086    95631562.4464   23354203.160  
                
  20451569.047   109210246.484                    84941324.802    20451571.688  
  20451567.293  
  22825186.609   121970872.714                    94866232.183    22825190.555  
  22825186.664  
  20130866.297   105788428.092    20130872.152    82432577.2044   20130872.242  
                
  19393156.531   103376441.855                    80403897.277    19393160.105  
  19393156.289  
  24343837.578   127927726.685    24343842.992    99683962.4034                 
                
  21234503.797   111588070.394    21234507.895    86951765.8334                 
                
  19272169.953   103056962.241                    80155418.628    19272173.621  
  19272169.266  
  22470620.188   118083916.823    22470628.816    92013481.4374   22470629.066  
                
  22333515.953   119511150.052                    92953113.125    22333519.355  
  22333514.039  
  21094510.172   110852400.307    21094519.047    86378537.3214   21094519.562  
                
 21  8 14  2 30 40.0000000  0 14G 6R23G20G29R13R15G12R14G19G 2R24G24
                                R17G25
  22028784.453   115762045.509    22028793.488    90204227.8424   22028793.934  
                
  19953029.523   106735272.186                                                  
  19953027.738  
  24546122.039   128990742.088    24546129.316   100512294.1164                 
                
  23348666.734   122698074.514    23348673.387    95608918.9964   23348673.430  
                
  20456717.680   109237739.949                    84962708.611    20456720.316  
  20456715.902  
  22817796.406   121931381.558                    94835516.831    22817800.340  
  22817796.422  
  20130501.328   105786510.125    20130507.203    82431082.6844   20130507.281  
                
  19390531.734   103362450.186                    80393014.880    19390535.316  
  19390531.477  
  24350356.750   127961985.026    24350362.195    99710657.2084                 
                
  21234607.477   111588615.166    21234611.578    86952190.3324                 
                
  19270367.234   103047322.328                    80147920.910    19270370.883  
  19270366.539  
  22476756.773   118116164.717    22476765.441    92038609.6564   22476765.664  
                
  22326298.086   119472525.344                    92923071.685    22326301.395  
  22326296.113  
  21090441.047   110831016.867    21090449.926    86361874.8984   21090450.434  
                
 21  8 14  2 30 50.0000000  0 14G 6R23G20G29R13R15G12R14G19G 2R24G24
                                R17G25
  22032510.641   115781626.740    22032519.652    90219485.9354   22032520.109  
                
  19957475.141   106759053.257                                                  
  19957473.359  
  24540605.094   128961750.264    24540612.344   100489703.0864                 
                
  23343141.203   122669037.638    23343147.902    95586292.8584   23343147.906  
                
  20461877.125   109265291.153                    84984137.308    20461879.766  
  20461875.344  
  22810408.266   121891901.545                    94804810.139    22810412.195  
  22810408.277  
  20130144.711   105784636.077    20130150.590    82429622.3814   20130150.668  
                
  19387919.297   103348524.412                    80382183.716    19387922.887  
  19387919.039  
  24356876.422   127996245.905    24356881.848    99737353.9804                 
                
  21234722.367   111589218.919    21234726.480    86952660.7884                 
                
  19268578.719   103037758.321                    80140482.238    19268582.379  
  19268578.000  
  22482898.789   118148441.179    22482907.504    92063760.1434   22482907.703  
                
  22319086.414   119433933.568                    92893055.866    22319089.602  
  22319084.340  
  21086377.891   110809664.881    21086386.777    86345236.9864   21086387.277  
                
 21  8 14  2 31  0.0000000  0 14G 6R23G20G29R13R15G12R14G19G 2R24G24
                                R17G25
  22036247.383   115801263.436    22036256.375    90234787.2474   22036256.832  
                
  19961931.492   106782891.725                                                  
  19961929.711  
  24535089.328   128932764.865    24535096.605   100467117.0694                 
                
  23337619.906   122640023.061    23337626.656    95563684.0894   23337626.645  
                
  20467047.367   109292899.948                    85005610.811    20467050.016  
  20467045.590  
  22803022.219   121852432.670                    94774112.120    22803026.133  
  22803022.242  
  20129796.461   105782806.005    20129802.340    82428196.3454   20129802.422  
                
  19385319.234   103334664.616                    80371403.868    19385322.832  
  19385318.977  
  24363396.547   128030509.313    24363402.000    99764052.7234                 
                
  21234848.469   111589881.580    21234852.594    86953177.1474                 
                
  19266804.438   103028270.482                    80133102.801    19266808.094  
  19266803.695  
  22489046.227   118180746.136    22489054.980    92088932.8294   22489055.164  
                
  22311880.742   119395374.736                    92863065.658    22311883.930  
  22311878.684  
  21082320.758   110788344.485    21082329.648    86328623.6874   21082330.145  
                
 21  8 14  2 31 10.0000000  0 14G 6R23G20G29R13R15G12R14G19G 2R24G24
                                R17G25
  22039994.672   115820955.586    22040003.656    90250131.7794   22040004.109  
                
  19966398.531   106806787.386                                                  
  19966396.766  
  24529574.883   128903786.123    24529582.098   100444536.1774                 
                
  23332102.820   122611030.711    23332109.621    95541092.6564   23332109.617  
                
  20472228.328   109320566.022                    85027128.865    20472230.965  
  20472226.566  
  22795638.305   121812975.278                    94743423.034    22795642.199  
  22795638.359  
  20129456.570   105781019.898    20129462.449    82426804.5684   20129462.523  
                
  19382731.570   103320870.931                    80360675.446    19382735.180  
  19382731.316  
  24369917.117   128064775.170    24369922.648    99790753.3694                 
                
  21234985.781   111590603.183    21234989.914    86953739.4324                 
                
  19265044.414   103018858.875                    80125782.653    19265048.082  
  19265043.648  
  22495199.078   118213079.571    22495207.863    92114127.7014   22495208.039  
                
  22304681.273   119356849.034                    92833101.216    22304684.449  
  22304679.254  
  21078269.648   110767055.775    21078278.539    86312035.0704   21078279.023  
                
 21  8 14  2 31 20.0000000  0 14G 6R23G20G29R13R15G12R14G19G 2R24G24
                                R17G25
  22043752.531   115840703.193    22043761.512    90265519.5234   22043761.965  
                
  19970876.305   106830740.327                                                  
  19970874.551  
  24524061.664   128874814.236    24524068.867   100421960.6724                 
                
  23326589.977   122582060.709    23326596.852    95518518.6274   23326596.855  
                
  20477420.055   109348289.487                    85048691.551    20477422.695  
  20477418.324  
  22788256.602   121773529.494                    94712742.981    22788260.473  
  22788256.637  
  20129125.094   105779277.918    20129130.977    82425447.1754   20129131.043  
                
  19380156.367   103307143.586                    80349998.616    19380159.988  
  19380156.121  
  24376438.188   128099043.527    24376443.758    99817455.9674                 
                
  21235134.359   111591383.903    21235138.496    86954347.7864                 
                
  19263298.602   103009523.254                    80118521.629    19263302.285  
  19263297.809  
  22501357.352   118245441.451    22501366.176    92139344.7484   22501366.340  
                
  22297488.031   119318356.742                    92803162.769    22297491.246  
  22297486.062  
  21074224.609   110745798.903    21074233.488    86295471.2714   21074233.980  
                
 21  8 14  2 31 30.0000000  0 14G 6R23G20G29R13R15G12R14G19G 2R24G24
                                R17G25
  22047520.883   115860505.946    22047529.852    90280950.2304   22047530.297  
                
  19975364.680   106854750.063                                                  
  19975362.914  
  24518549.742   128845849.008    24518556.945   100399390.4394                 
                
  23321081.391   122553113.016    23321088.336    95495962.0014   23321088.336  
                
  20482622.500   109376070.237                    85070298.792    20482625.160  
  20482620.797  
  22780877.000   121734095.121                    94682071.807    22780880.859  
  22780877.004  
  20128801.969   105777579.861    20128807.863    82424124.0124   20128807.906  
                
  19377593.555   103293482.344                    80339373.204    19377597.180  
  19377593.309  
  24382959.648   128133314.170    24382965.238    99844160.3554                 
                
  21235294.133   111592223.480    21235298.273    86955001.9994                 
                
  19261566.992   103000263.607                    80111319.670    19261570.688  
  19261566.164  
  22507520.961   118277831.467    22507529.828    92164583.7044   22507529.980  
                
  22290301.000   119279897.624                    92773250.121    22290304.207  
  22290299.039  
  21070185.578   110724573.667    21070194.453    86278932.1204   21070194.945  
                
 21  8 14  2 31 40.0000000  0 14G 6R23G20G29R13R15G12R14G19G 2R24G24
                                R17G25
  22051299.742   115880363.972    22051308.711    90296424.0154   22051309.141  
                
  19979863.688   106878816.720                                                  
  19979861.938  
  24513039.133   128816890.789    24513046.359   100376825.5794                 
                
  23315577.102   122524187.862    23315584.121    95473422.9304   23315584.094  
                
  20487835.734   109403908.543                    85091950.795    20487838.398  
  20487834.051  
  22773499.617   121694672.589                    94651409.828    22773503.461  
  22773499.586  
  20128487.258   105775926.007    20128493.168    82422835.2914   20128493.195  
                
  19375043.242   103279887.735                    80328799.613    19375046.875  
  19375043.012  
  24389481.617   128167587.410    24389487.195    99870866.7174                 
                
  21235465.133   111593122.091    21235469.281    86955702.2124                 
                
  19259849.609   102991080.061                    80104176.915    19259853.324  
  19259848.770  
  22513689.953   118310249.696    22513698.840    92189844.6524   22513698.996  
                
  22283120.227   119241472.018                    92743363.531    22283123.445  
  22283118.277  
  21066152.625   110703380.385    21066161.512    86262417.8744   21066161.988  
                
 21  8 14  2 31 50.0000000  0 14G 6R23G20G29R13R15G12R14G19G 2R24G24
                                R17G25
  22055089.031   115900276.788    22055098.016    90311940.4954   22055098.422  
                
  19984373.242   106902939.820                                                  
  19984371.496  
  24507529.867   128787939.377    24507537.109   100354266.0644                 
                
  23310077.023   122495284.867    23310084.094    95450901.1164   23310084.074  
                
  20493059.609   109431803.695                    85113647.021    20493062.289  
  20493057.949  
  22766124.375   121655261.562                    94620756.808    22766128.250  
  22766124.328  
  20128180.898   105774316.075    20128186.816    82421580.7934   20128186.844  
                
  19372505.320   103266359.202                    80318277.414    19372508.941  
  19372505.098  
  24396004.016   128201862.830    24396009.555    99897574.8004                 
                
  21235647.297   111594079.343    21235651.453    86956448.1244                 
                
  19258146.422   102981972.362                    80097093.152    19258150.156  
  19258145.559  
  22519864.227   118342695.696    22519873.105    92215127.2414   22519873.270  
                
  22275945.695   119203079.739                    92713502.856    22275948.930  
  22275943.789  
  21062125.688   110682218.690    21062134.582    86245928.2464   21062135.047  
                
 21  8 14  2 32  0.0000000  0 14G 6R23G20G29R13R15G12R14G19G 2R24G24
                                R17G25
  22058888.969   115920245.501    22058897.973    90327500.5324   22058898.371  
                
  19988893.578   106927120.504                                                  
  19988891.828  
  24502022.266   128758996.034    24502029.402   100331712.8124                 
                
  23304581.414   122466405.222    23304588.496    95428397.4954   23304588.500  
                
  20498294.414   109459757.137                    85135388.571    20498297.094  
  20498292.781  
  22758751.555   121615863.449                    94590113.838    22758755.445  
  22758751.512  
  20127883.125   105772751.233    20127889.043    82420361.4264   20127889.066  
                
  19369980.086   103252898.215                    80307807.764    19369983.707  
  19369979.867  
  24402527.031   128236141.437    24402532.586    99924285.3804                 
                
  21235840.844   111595096.401    21235845.016    86957240.6274                 
                
  19256457.641   102972941.726                    80090069.310    19256461.383  
  19256456.762  
  22526043.984   118375170.498    22526052.844    92240432.2724   22526053.023  
                
  22268777.648   119164721.832                    92683668.931    22268780.848  
  22268775.727  
  21058105.008   110661089.849    21058113.914    86229464.2074   21058114.367  
                
 21  8 14  2 32 10.0000000  0 14G 6R23G20G29R13R15G12R14G19G 2R24G24
                                R17G25
  22062699.117   115940267.898    22062708.133    90343102.3924   22062708.531  
                
  19993424.203   106951356.293                                                  
  19993422.457  
  24496515.602   128730058.766    24496522.805   100309164.2864                 
                
  23299089.844   122437546.761    23299096.914    95405910.3864   23299096.934  
                
  20503539.648   109487766.375                    85157173.524    20503542.340  
  20503538.043  
  22751380.719   121576476.027                    94559479.192    22751384.641  
  22751380.676  
  20127593.500   105771229.256    20127599.410    82419175.4694   20127599.438  
                
  19367467.125   103239502.735                    80297389.044    19367470.727  
  19367466.918  
  24409050.203   128270420.992    24409055.762    99950996.6894                 
                
  21236045.328   111596170.989    21236049.516    86958077.9684                 
                
  19254782.805   102963985.665                    80083103.491    19254786.570  
  19254781.910  
  22532228.797   118407671.904    22532237.621    92265758.0384   22532237.789  
                
  22261615.688   119126396.273                    92653860.168    22261618.789  
  22261613.703  
  21054090.164   110639991.766    21054099.062    86213024.1374   21054099.508  
                
 21  8 14  2 32 20.0000000  0 14G 6R23G20G29R13R15G12R14G19G 2R24G24
                                R17G25
  22066519.773   115960345.553    22066528.812    90358747.3144   22066529.211  
                
  19997965.430   106975648.775                                                  
  19997963.691  
  24491010.547   128701129.272    24491017.664   100286621.8504                 
                
  23293602.648   122408711.225    23293609.707    95383441.1394   23293609.730  
                
  20508795.648   109515833.011                    85179003.112    20508798.352  
  20508794.070  
  22744012.219   121537101.106                    94528854.237    22744016.125  
  22744012.164  
  20127312.375   105769751.902    20127318.273    82418024.2754   20127318.309  
                
  19364966.758   103226174.354                    80287022.524    19364970.363  
  19364966.547  
  24415573.898   128304703.189    24415579.469    99977710.0474                 
                
  21236261.102   111597304.855    21236265.312    86958961.5014                 
                
  19253122.312   102955106.260                    80076197.284    19253126.109  
  19253121.387  
  22538418.984   118440201.471    22538427.789    92291105.7464   22538427.953  
                
  22254460.000   119088104.915                    92624077.996    22254463.117  
  22254458.062  
  21050081.516   110618926.170    21050090.406    86196609.3904   21050090.848  
                
 21  8 14  2 32 30.0000000  0 14G 6R23G20G29R13R15G12R14G19G 2R24G24
                                R17G25
  22070350.836   115980477.873    22070359.895    90374434.8324   22070360.277  
                
  20002517.133   106999997.361                                                  
  20002515.395  
  24485506.891   128672207.115    24485513.945   100264085.0934                 
                
  23288119.703   122379898.015    23288126.711    95360989.2834   23288126.766  
                
  20514062.312   109543956.653                    85200877.059    20514065.004  
  20514060.758  
  22736646.086   121497738.505                    94498238.881    22736649.949  
  22736645.992  
  20127039.641   105768318.659    20127045.535    82416907.4584   20127045.586  
                
  19362478.922   103212912.755                    80276707.940    19362482.523  
  19362478.699  
  24422097.992   128338987.384    24422103.590   100004424.9844                 
                
  21236488.062   111598497.509    21236492.293    86959890.8324                 
                
  19251476.016   102946302.807                    80069350.155    19251479.824  
  19251475.074  
  22544614.406   118472758.607    22544623.180    92316474.9284   22544623.348  
                
  22247310.602   119049847.335                    92594322.099    22247313.770  
  22247308.754  
  21046078.961   110597892.604    21046087.852    86180219.5914   21046088.289  
                
 21  8 14  2 32 40.0000000  0 14G 6R23G20G29R13R15G12R14G19G 2R24G24
                                R17G25
  22074192.312   116000664.931    22074201.379    90390164.9974   22074201.746  
                
  20007079.344   107024402.104                                                  
  20007077.602  
  24480004.609   128643292.613    24480011.695   100241554.2814                 
                
  23282641.047   122351107.319    23282647.980    95338554.9704   23282648.062  
                
  20519339.688   109572137.414                    85222795.403    20519342.395  
  20519338.117  
  22729282.195   121458388.144                    94467633.054    22729286.047  
  22729282.156  
  20126775.352   105766929.769    20126781.238    82415825.2024   20126781.289  
                
  19360003.672   103199718.279                    80266445.564    19360007.285  
  19360003.453  
  24428622.523   128373273.732    24428628.152   100031141.5954                 
                
  21236726.219   111599749.011    21236730.461    86960866.0254                 
                
  19249843.930   102937575.326                    80062562.114    19249847.766  
  19249842.969  
  22550815.078   118505343.334    22550823.762    92341865.6214   22550823.957  
                
  22240167.688   119011623.662                    92564592.574    22240170.754  
  22240165.781  
  21042082.547   110576891.304    21042091.434    86163854.9474   21042091.875  
                
 21  8 14  2 32 50.0000000  0 14G 6R23G20G29R13R15G12R14G19G 2R24G24
                                R17G25
  22078044.188   116020906.618    22078053.242    90405937.7414   22078053.609  
                
  20011652.016   107048862.830                                                  
  20011650.305  
  24474503.750   128614385.916    24474510.926   100219029.6004                 
                
  23277166.688   122322339.237    23277173.551    95316138.2734   23277173.660  
                
  20524627.672   109600374.834                    85244757.825    20524630.395  
  20524626.074  
  22721920.688   121419050.392                    94437037.023    22721924.559  
  22721920.680  
  20126519.461   105765585.057    20126525.348    82414777.3754   20126525.402  
                
  19357540.992   103186590.814                    80256235.309    19357544.602  
  19357540.773  
  24435147.422   128407562.113    24435153.082   100057859.7974                 
                
  21236975.570   111601059.359    21236979.816    86961887.0754                 
                
  19248226.102   102928924.077                    80055833.370    19248229.957  
  19248225.141  
  22557021.000   118537955.572    22557029.574    92367277.7614   22557029.820  
                
  22233031.125   118973434.003                    92534889.505    22233034.109  
  22233029.184  
  21038092.281   110555922.303    21038101.156    86147515.4624   21038101.602  
                
 21  8 14  2 33  0.0000000  0 14G 6R23G20G29R13R15G12R14G19G 2R24G24
                                R17G25
  22081906.430   116041202.847    22081915.477    90421752.9774   22081915.852  
                
  20016235.109   107073379.224                                                  
  20016233.402  
  24469004.438   128585486.963    24469011.605   100196510.9154                 
                
  23271696.633   122293593.736    23271703.414    95293739.1834   23271703.555  
                
  20529926.305   109628669.146                    85266764.513    20529929.020  
  20529924.703  
  22714561.508   121379725.219                    94406450.785    22714565.418  
  22714561.512  
  20126272.023   105764284.709    20126277.918    82413764.1094   20126277.961  
                
  19355090.922   103173530.567                    80246077.344    19355094.539  
  19355090.695  
  24441672.719   128441852.478    24441678.367   100084579.5544                 
                
  21237236.117   111602428.542    21237240.359    86962953.9704                 
                
  19246622.430   102920348.519                    80049163.496    19246626.305  
  19246621.469  
  22563232.133   118570595.167    22563240.645    92392711.2124   22563240.918  
                
  22225900.891   118935278.582                    92505213.060    22225903.859  
  22225898.953  
  21034108.172   110534985.646    21034117.043    86131201.1804   21034117.500  
                
 21  8 14  2 33 10.0000000  0 14G 6R23G20G29R13R15G12R14G19G 2R24G24
                                R17G25
  22085779.031   116061553.527    22085788.074    90437610.6384   22085788.461  
                
  20020828.609   107097951.392                                                  
  20020826.895  
  24463506.672   128556595.973    24463513.828   100173998.4484                 
                
  23266230.891   122264870.877    23266237.566    95271357.7154   23266237.746  
                
  20535235.609   109657020.483                    85288815.538    20535238.336  
  20535234.023  
  22707204.695   121340412.787                    94375874.460    22707208.621  
  22707204.730  
  20126033.023   105763028.777    20126038.922    82412785.4564   20126038.965  
                
  19352653.484   103160537.651                    80235971.724    19352657.102  
  19352653.258  
  24448198.359   128476144.759    24448204.004   100111300.7904                 
                
  21237507.836   111603856.436    21237512.074    86964066.6134                 
                
  19245032.992   102911849.111                    80042552.838    19245036.887  
  19245032.020  
  22569448.445   118603262.057    22569456.941    92418165.9254   22569457.238  
                
  22218777.078   118897157.386                    92475563.223    22218780.008  
  22218775.121  
  21030130.227   110514081.396    21030139.094    86114912.1504   21030139.559  
                
 21  8 14  2 33 20.0000000  0 14G 6R23G20G29R13R15G12R14G19G 2R24G24
                                R17G25
  22089661.992   116081958.630    22089671.039    90453510.7164   22089671.418  
                
  20025432.523   107122579.200                                                  
  20025430.816  
  24458010.508   128527713.092    24458017.613   100151492.3034                 
                
  23260769.422   122236170.654    23260776.027    95248993.8854   23260776.223  
                
  20540555.531   109685428.552                    85310910.700    20540558.277  
  20540553.938  
  22699850.281   121301113.127                    94345308.032    22699854.215  
  22699850.367  
  20125802.500   105761817.363    20125808.398    82411841.4924   20125808.441  
                
  19350228.711   103147612.234                    80225918.636    19350232.328  
  19350228.484  
  24454724.367   128510439.031    24454730.039   100138023.5744                 
                
  21237790.734   111605343.073    21237794.977    86965225.0264                 
                
  19243457.781   102903425.750                    80036001.324    19243461.695  
  19243456.824  
  22575669.953   118635956.178    22575678.473    92443641.8534   22575678.766  
                
  22211659.680   118859070.438                    92445940.040    22211662.566  
  22211657.668  
  21026158.469   110493209.670    21026167.348    86098648.4644   21026167.805  
                
 21  8 14  2 33 30.0000000  0 14G 6R23G20G29R13R15G12R14G19G 2R24G24
                                R17G25
  22093555.273   116102417.928    22093564.320    90469453.0114   22093564.715  
                
  20030046.766   107147262.289                                                  
  20030045.059  
  24452515.891   128498838.251    24452522.855   100128992.4564                 
                
  23255312.203   122207492.911    23255318.758    95226647.5984   23255318.996  
                
  20545886.039   109713893.055                    85333049.755    20545888.746  
  20545884.453  
  22692498.297   121261826.402                    94314751.690    22692502.223  
  22692498.434  
  20125580.422   105760650.271    20125586.316    82410932.0674   20125586.367  
                
  19347816.578   103134754.182                    80215917.910    19347820.180  
  19347816.355  
  24461250.711   128544735.036    24461256.434   100164747.7224                 
                
  21238084.789   111606888.313    21238089.039    86966429.1174                 
                
  19241896.789   102895078.432                    80029508.970    19241900.723  
  19241895.848  
  22581896.586   118668677.287    22581905.152    92469138.8144   22581905.426  
                
  22204548.516   118821017.853                    92416343.590    22204551.535  
  22204546.574  
  21022192.891   110472370.364    21022201.781    86082410.0464   21022202.242  
                
 21  8 14  2 33 40.0000000  0 14G 6R23G20G29R13R15G12R14G19G 2R24G24
                                R17G25
  22097458.852   116122931.409    22097467.898    90485437.5414   22097468.305  
                
  20034671.359   107172000.742                                                  
  20034669.652  
  24447022.859   128469971.719    24447029.641   100106498.9944                 
                
  23249859.336   122178837.953    23249865.863    95204319.0724   23249866.141  
                
  20551227.156   109742414.328                    85355232.965    20551229.875  
  20551225.555  
  22685148.781   121222552.828                    94284205.592    22685152.688  
  22685148.941  
  20125366.805   105759527.669    20125372.688    82410057.3044   20125372.750  
                
  19345417.125   103121963.762                    80205969.808    19345420.727  
  19345416.902  
  24467777.414   128579032.963    24467783.203   100191473.3504                 
                
  21238390.023   111608492.316    21238394.273    86967678.9834                 
                
  19240349.992   102886807.012                    80023075.646    19240353.953  
  19240349.055  
  22588128.359   118701425.435    22588136.957    92494656.8424   22588137.219  
                
  22197444.055   118782999.775                    92386773.962    22197446.945  
  22197441.977  
  21018233.516   110451563.673    21018242.418    86066197.0434   21018242.875  
                
 21  8 14  2 33 50.0000000  0 13G 6R23G20G29R13R15G12R14G 2R24G24R17
                                G25
  22101372.906   116143499.878    22101381.938    90501464.9144   22101382.383  
                
  20039306.406   107196795.132                                                  
  20039304.684  
  24441531.594   128441114.380    24441538.242   100084012.7594                 
                
  23244410.953   122150206.570    23244417.504    95182008.9104   23244417.789  
                
  20556578.953   109770992.548                    85377460.459    20556581.680  
  20556577.340  
  22677801.883   121183293.173                    94253670.307    22677805.758  
  22677802.031  
  20125161.797   105758450.326    20125167.664    82409217.8164   20125167.738  
                
  19343030.516   103109241.783                    80196074.931    19343034.121  
  19343030.293  
  21238706.570   111610155.819    21238710.828    86968975.2234                 
                
  19238817.586   102878612.546                    80016702.171    19238821.570  
  19238816.652  
  22594365.398   118734201.284    22594374.008    92520196.4534   22594374.273  
                
  22190346.055   118745016.994                    92357231.805    22190348.949  
  22190344.031  
  21014280.500   110430790.463    21014289.414    86050010.1194   21014289.859  
                
 21  8 14  2 34  0.0000000  0 13G 6R23G20G29R13R15G12R14G 2R24G24R17
                                G25
  22105297.164   116164121.953    22105306.188    90517534.0584   22105306.648  
                
  20043951.672   107221644.159                                                  
  20043949.969  
  24436041.805   128412265.126    24436048.363   100061532.7894                 
                
  23238966.820   122121597.584    23238973.441    95159716.1944   23238973.711  
                
  20561941.242   109799626.856                    85399731.574    20561943.949  
  20561939.605  
  22670457.391   121144046.407                    94223145.050    22670461.250  
  22670457.531  
  20124965.188   105757417.113    20124971.043    82408412.7114   20124971.133  
                
  19340656.555   103096587.199                    80186232.476    19340660.164  
  19340656.328  
  21239034.211   111611877.558    21239038.461    86970316.8354                 
                
  19237299.312   102870493.641                    80010387.466    19237303.316  
  19237298.391  
  22600607.461   118767003.493    22600616.070    92545756.6094   22600616.352  
                
  22183254.484   118707068.544                    92327716.337    22183257.352  
  22183252.473  
  21010333.633   110410049.503    21010342.555    86033848.3354   21010343.000  
                
 21  8 14  2 34 10.0000000  0 13G 6R23G20G29R13R15G12R14G 2R24G24R17
                                G25
  22109231.617   116184797.675    22109240.656    90533645.0094   22109241.113  
                
  20048607.164   107246547.859                                                  
  20048605.473  
  24430553.578   128383424.139    24430560.004   100039059.2944                 
                
  23233526.984   122093011.092    23233533.652    95137441.0124   23233533.902  
                
  20567314.078   109828317.502                    85422046.516    20567316.750  
  20567312.418  
  22663115.359   121104812.725                    94192629.948    22663119.168  
  22663115.512  
  20124777.008   105756428.194    20124782.855    82407642.1204   20124782.953  
                
  19338295.266   103084000.167                    80176442.549    19338298.883  
  19338295.039  
  21239372.938   111613657.585    21239377.164    86971703.8654                 
                
  19235795.172   102862450.303                    80004131.530    19235799.188  
  19235794.281  
  22606854.547   118799832.124    22606863.219    92571337.3524   22606863.492  
                
  22176169.375   118669154.490                    92298227.627    22176172.215  
  22176167.344  
  21006392.953   110389341.049    21006401.859    86017711.8694   21006402.320  
                
 21  8 14  2 34 20.0000000  0 13G 6R23G20G29R13R15G12R14G 2R24G24R17
                                G25
  22113176.297   116205527.086    22113185.363    90549797.7854   22113185.816  
                
  20053272.852   107271506.096                                                  
  20053271.172  
  24425067.000   128354591.680    24425073.297   100016592.4274                 
                
  23228091.453   122064447.246    23228098.152    95115183.4684   23228098.402  
                
  20572697.422   109857064.186                    85444405.040    20572700.094  
  20572695.750  
  22655775.797   121065592.367                    94162125.215    22655779.609  
  22655776.000  
  20124597.258   105755483.611    20124603.094    82406906.0814   20124603.203  
                
  19335946.703   103071480.968                    80166705.404    19335950.324  
  19335946.496  
  21239722.789   111615496.057    21239726.992    86973136.4364                 
                
  19234305.219   102854482.806                    79997934.588    19234309.246  
  19234304.344  
  22613106.664   118832687.157    22613115.426    92596938.6624   22613115.652  
                
  22169090.633   118631274.958                    92268765.769    22169093.539  
  22169088.617  
  21002458.477   110368665.220    21002467.371    86001600.8324   21002467.844  
                
 21  8 14  2 34 30.0000000  0 13G 6R23G20G29R13R15G12R14G 2R24G24R17
                                G25
  22117131.164   116226310.076    22117140.246    90565992.3114   22117140.699  
                
  20057948.719   107296518.842                                                  
  20057947.043  
  24419581.984   128325767.799    24419588.285    99994132.2744                 
                
  23222660.219   122035906.048    23222666.957    95092943.5764   23222667.207  
                
  20578091.227   109885866.848                    85466807.103    20578093.914  
  20578089.559  
  22648438.750   121026385.420                    94131630.946    22648442.586  
  22648438.992  
  20124425.953   105754583.370    20124431.777    82406204.5914   20124431.902  
                
  19333610.852   103059029.547                    80157020.953    19333614.473  
  19333610.648  
  21240083.750   111617392.950    21240087.922    86974614.5314                 
                
  19232829.414   102846591.011                    79991796.527    19232833.449  
  19232828.562  
  22619363.797   118865568.494    22619372.621    92622560.4684   22619372.801  
                
  22162018.375   118593430.072                    92239330.865    22162021.320  
  22162016.363  
  20998530.211   110348022.078    20998539.102    85985515.2664   20998539.578  
                
 21  8 14  2 34 40.0000000  0 13G 6R23G20G29R13R15G12R14G 2R24G24R17
                                G25
  22121096.289   116247146.953    22121105.383    90582228.8284   22121105.855  
                
  20062634.836   107321586.370                                                  
  20062633.156  
  24414098.719   128296952.997    24414105.031    99971679.1614                 
                
  23217233.398   122007387.932    23217240.176    95070721.6664   23217240.395  
                
  20583495.602   109914725.974                    85489253.079    20583498.289  
  20583493.895  
  22641104.344   120987192.438                    94101147.516    22641108.195  
  22641104.594  
  20124263.172   105753727.918    20124268.992    82405538.0014   20124269.117  
                
  19331287.836   103046646.549                    80147389.729    19331291.473  
  19331287.652  
  21240455.898   111619348.578    21240460.039    86976138.3894                 
                
  19231367.852   102838775.325                    79985717.659    19231371.891  
  19231367.023  
  22625625.984   118898476.405    22625634.832    92648202.9904   22625635.004  
                
  22154952.750   118555620.467                    92209923.385    22154955.672  
  22154950.770  
  20994608.258   110327412.075    20994617.152    85969455.5194   20994617.633  
                
 21  8 14  2 34 50.0000000  0 13G 6R23G20G29R13R15G12R14G 2R24G24R17
                                G25
  22125071.648   116268037.633    22125080.777    90598507.2694   22125081.246  
                
  20067331.125   107346708.350                                                  
  20067329.445  
  24408617.188   128268147.377    24408623.539    99949233.2344                 
                
  23211810.969   121978892.832    23211817.777    95048517.6864   23211817.969  
                
  20588910.516   109943641.398                    85511742.843    20588913.215  
  20588908.805  
  22633772.617   120948013.588                    94070675.051    22633776.398  
  22633772.840  
  20124108.922   105752917.308    20124114.734    82404906.3504   20124114.875  
                
  19328977.672   103034332.027                    80137811.767    19328981.320  
  19328977.492  
  21240839.203   111621362.894    21240843.324    86977707.9864                 
                
  19229920.500   102831035.663                    79979697.915    19229924.535  
  19229919.699  
  22631893.227   118931410.830    22631902.059    92673866.1684   22631902.223  
                
  22147893.867   118517846.117                    92180543.318    22147896.637  
  22147891.770  
  20990692.633   110306835.301    20990701.531    85953421.6674   20990702.023  
                
 21  8 14  2 35  0.0000000  0 13G 6R23G20G29R13R15G12R14G 2R24G24R17
                                G25
  22129057.172   116288981.662    22129066.332    90614827.2944   22129066.789  
                
  20072037.539   107371884.447                                                  
  20072035.836  
  24403137.391   128239350.737    24403143.777    99926794.3024                 
                
  23206392.836   121950420.264    23206399.652    95026331.2794   23206399.816  
                
  20594335.844   109972612.357                    85534275.816    20594338.590  
  20594334.125  
  22626443.430   120908848.394                    94040213.228    22626447.133  
  22626443.625  
  20123963.156   105752151.272    20123968.965    82404309.4354   20123969.109  
                
  19326680.305   103022085.738                    80128286.870    19326683.957  
  19326680.125  
  21241233.617   111623435.540    21241237.711    86979323.0374                 
                
  19228487.344   102823371.865                    79973737.186    19228491.375  
  19228486.559  
  22638165.414   118964371.288    22638174.219    92699549.6464   22638174.398  
                
  22140841.344   118480106.733                    92151190.482    22140844.160  
  22140839.227  
  20986783.266   110286291.414    20986792.168    85937413.4484   20986792.656  
                
 21  8 14  2 35 10.0000000  0 13G 6R23G20G29R13R15G12R14G 2R24G24R17
                                G25
  22133052.875   116309979.189    22133062.051    90631188.9954   22133062.504  
                
  20076754.070   107397114.704                                                  
  20076752.336  
  24397659.281   128210563.295    24397665.754    99904362.5234                 
                
  23200979.109   121921970.706    23200985.891    95004162.7854   23200986.062  
                
  20599771.711   110001639.552                    85556852.498    20599774.480  
  20599769.969  
  22619116.859   120869697.354                    94009762.413    22619120.535  
  22619117.035  
  20123825.898   105751429.963    20123831.703    82403747.3724   20123831.844  
                
  19324395.758   103009907.776                    80118815.115    19324399.410  
  19324395.590  
  21241639.164   111625566.684    21241643.242    86980983.6594                 
                
  19227068.375   102815783.981                    79967835.497    19227072.402  
  19227067.609  
  22644442.578   118997357.907    22644451.379    92725253.4974   22644451.551  
                
  22133795.531   118442402.644                    92121865.080    22133798.285  
  22133793.312  
  20982880.203   110265780.704    20982889.109    85921431.0804   20982889.613  
                
 21  8 14  2 35 20.0000000  0 13G 6R23G20G29R13R15G12R14G 2R24G24R17
                                G25
  22137058.711   116331030.012    22137067.895    90647592.2224   22137068.344  
                
  20081480.680   107422398.915                                                  
  20081478.953  
  24392182.852   128181785.095    24392189.512    99881937.9994                 
                
  23195569.750   121893544.167    23195576.516    94982012.2214   23195576.680  
                
  20605218.031   110030722.604                    85579472.647    20605220.793  
  20605216.270  
  22611792.922   120830560.506                    93979322.625    22611796.602  
  22611793.055  
  20123697.125   105750753.283    20123702.922    82403220.0854   20123703.070  
                
  19322124.047   102997798.308                    80109396.645    19322127.695  
  19322123.875  
  21242055.805   111627756.178    21242059.863    86982689.7594                 
                
  19225663.594   102808271.970                    79961992.821    19225667.625  
  19225662.848  
  22650724.648   119030370.491    22650733.465    92750977.5704   22650733.625  
                
  22126756.258   118404733.786                    92092567.068    22126758.953  
  22126754.020  
  20978983.445   110245303.139    20978992.359    85905474.5334   20978992.867  
                
 21  8 14  2 35 30.0000000  0 13G 6R23G20G29R13R15G12R14G 2R24G24R17
                                G25
  22141074.672   116352134.003    22141083.871    90664036.8854   22141084.316  
                
  20086217.352   107447736.925                                                  
  20086215.613  
  24386708.375   128153016.285    24386715.047    99859520.7554                 
                
  23190164.727   121865140.555    23190171.508    94959879.5424   23190171.660  
                
  20610674.789   110059861.309                    85602136.081    20610677.559  
  20610673.016  
  22604471.656   120791437.857                    93948893.904    22604475.340  
  22604471.758  
  20123576.867   105750121.264    20123582.652    82402727.5964   20123582.812  
                
  19319865.211   102985757.423                    80100031.498    19319868.855  
  19319865.031  
  21242483.562   111630004.012    21242487.605    86984441.3144                 
                
  19224272.992   102800835.749                    79956209.087    19224277.016  
  19224272.254  
  22657011.656   119063408.854    22657020.516    92776721.7494   22657020.648  
                
  22119723.562   118367100.298                    92063296.570    22119726.242  
  22119721.352  
  20975093.016   110224858.744    20975101.918    85889543.8274   20975102.438  
                
 21  8 14  2 35 40.0000000  0 13G 6R23G20G29R13R15G12R14G 2R24G24R17
                                G25
  22145100.703   116373290.914    22145109.922    90680522.7794   22145110.371  
                
  20090964.016   107473128.408                                                  
  20090962.262  
  24381235.633   128124256.757    24381242.305    99837110.7154                 
                
  23184764.023   121836759.701    23184770.812    94937764.5974   23184770.953  
                
  20616141.984   110089055.855                    85624842.918    20616144.766  
  20616140.211  
  22597153.047   120752329.408                    93918476.218    22597156.746  
  22597153.152  
  20123465.062   105749533.736    20123470.832    82402269.7774   20123471.000  
                
  19317619.211   102973784.960                    80090719.579    19317622.848  
  19317619.020  
  21242922.383   111632310.057    21242926.406    86986238.2304                 
                
  19222896.477   102793474.888                    79950483.976    19222900.488  
  19222895.746  
  22663303.531   119096472.785    22663312.422    92802485.8364   22663312.523  
                
  22112697.414   118329501.967                    92034053.433    22112700.086  
  22112695.246  
  20971208.867   110204447.388    20971217.762    85873638.8714   20971218.281  
                
 21  8 14  2 35 50.0000000  0 13G 6R23G20G29R13R15G12R14G 2R24G24R17
                                G25
  22149136.859   116394501.066    22149146.109    90697050.1584   22149146.551  
                
  20095720.719   107498573.549                                                  
  20095718.969  
  24375764.789   128095507.016    24375771.434    99814708.2954                 
                
  23179367.750   121808401.948    23179374.500    94915667.6384   23179374.625  
                
  20621619.594   110118305.990                    85647593.018    20621622.359  
  20621617.859  
  22589837.133   120713235.530                    93888069.866    22589840.863  
  22589837.289  
  20123361.812   105748991.148    20123367.566    82401846.9824   20123367.746  
                
  19315386.133   102961881.402                    80081461.257    19315389.766  
  19315385.941  
  21243372.359   111634674.655    21243376.367    86988080.7784                 
                
  19221534.188   102786190.085                    79944818.023    19221538.195  
  19221533.465  
  22669600.328   119129562.551    22669609.250    92828270.0564   22669609.320  
                
  22105677.922   118291939.396                    92004838.093    22105680.613  
  22105675.812  
  20967331.094   110184069.535    20967339.980    85857760.0244   20967340.508  
                
 21  8 14  2 36  0.0000000  0 13G 6R23G20G29R13R15G12R14G 2R24G24R17
                                G25
  22153183.094   116415764.132    22153192.387    90713618.7744   22153192.809  
                
  20100487.414   107524072.150                                                  
  20100485.680  
  24370295.820   128066766.959    24370302.391    99792313.4714                 
                
  23173975.836   121780067.232    23173982.555    94893588.6254   23173982.648  
                
  20627107.625   110147611.769                    85670386.403    20627110.387  
  20627105.898  
  22582523.984   120674156.253                    93857674.876    22582527.719  
  22582524.168  
  20123267.094   105748493.354    20123272.836    82401459.0834   20123273.016  
                
  19313165.969   102950046.692                    80072256.473    19313169.590  
  19313165.777  
  21243833.414   111637097.534    21243837.402    86989968.7284                 
                
  19220186.078   102778981.130                    79939211.052    19220190.074  
  19220185.344  
  22675901.984   119162677.858    22675910.887    92854074.1904   22675910.949  
                
  22098665.156   118254412.370                    91975650.399    22098667.777  
  22098663.039  
  20963459.672   110163725.052    20963468.535    85841907.1774   20963469.070  
                
 21  8 14  2 36 10.0000000  0 13G 6R23G20G29R13R15G12R14G 2R24G24R17
                                G25
  22157239.406   116437080.160    22157248.723    90730228.6504   22157249.137  
                
  20105264.086   107549624.027                                                  
  20105262.379  
  24364828.750   128038036.875    24364835.258    99769926.3744                 
                
  23168588.328   121751755.727    23168595.047    94871527.7144   23168595.141  
                
  20632606.078   110176973.100                    85693222.969    20632608.840  
  20632604.363  
  22575213.633   120635091.710                    93827291.325    22575217.320  
  22575213.781  
  20123180.914   105748040.459    20123186.641    82401106.1734   20123186.844  
                
  19310958.781   102938281.098                    80063105.448    19310962.402  
  19310958.602  
  21244305.570   111639578.747    21244309.543    86991902.1424                 
                
  19218852.117   102771847.796                    79933662.887    19218856.098  
  19218851.375  
  22682208.508   119195818.719    22682217.359    92879898.2344   22682217.457  
                
  22091658.977   118216921.076                    91946490.497    22091661.613  
  22091656.883  
  20959594.633   110143414.101    20959603.477    85826080.4544   20959604.027  
                
 21  8 14  2 36 20.0000000  0 13G 6R23G20G29R13R15G12R14G 2R24G24R17
                                G25
  22161305.734   116458448.859    22161315.059    90746879.5744   22161315.473  
                
  20110050.664   107575228.975                                                  
  20110048.957  
  24359363.633   128009316.613    24359369.996    99747546.9324                 
                
  23163205.172   121723467.155    23163211.910    94849484.6724   23163212.008  
                
  20638114.867   110206389.640                    85716102.494    20638117.625  
  20638113.141  
  22567905.977   120596041.907                    93796919.249    22567909.676  
  22567906.105  
  20123103.242   105747632.272    20123108.953    82400788.1024   20123109.160  
                
  19308764.492   102926584.296                    80054007.938    19308768.121  
  19308764.309  
  21244788.797   111642118.078    21244792.758    86993880.8444                 
                
  19217532.312   102764790.194                    79928173.655    19217536.285  
  19217531.566  
  22688519.836   119228984.822    22688528.660    92905741.9484   22688528.770  
                
  22084659.391   118179465.480                    91917358.370    22084662.148  
  22084657.391  
  20955735.945   110123136.552    20955744.777    85810279.7674   20955745.324  
                
 21  8 14  2 36 30.0000000  0 13G 6R23G20G29R13R15G12R14G 2R24G24R17
                                G25
  22165382.117   116479870.377    22165391.434    90763571.6614   22165391.852  
                
  20114847.180   107600887.048                                                  
  20114845.461  
  24353900.383   127980606.562    24353906.656    99725175.4504                 
                
  23157826.438   121695201.787    23157833.195    94827459.7184   23157833.293  
                
  20643633.992   110235861.463                    85739025.022    20643636.762  
  20643632.297  
  22560601.133   120557007.190                    93766558.926    22560604.883  
  22560601.227  
  20123034.125   105747269.080    20123039.809    82400505.0924   20123040.031  
                
  19306583.227   102914956.873                    80044964.376    19306586.855  
  19306583.043  
  21245283.117   111644715.784    21245287.070    86995905.0324                 
                
  19216226.688   102757808.416                    79922743.377    19216230.637  
  19216225.941  
  22694835.992   119262176.310    22694844.840    92931605.4434   22694844.945  
                
  22077666.656   118142045.846                    91888254.216    22077669.406  
  22077664.625  
  20951883.672   110102892.692    20951892.488    85794505.3284   20951893.031  
                
 21  8 14  2 36 40.0000000  0 13G 6R23G20G29R13R15G12R14G 2R24G24R17
                                G25
  22169468.523   116501344.578    22169477.824    90780304.8034   22169478.238  
                
  20119653.586   107626598.058                                                  
  20119651.871  
  24348439.000   127951906.719    24348445.203    99702811.9534                 
                
  23152452.109   121666959.601    23152458.883    94805452.8194   23152458.980  
                
  20649163.508   110265388.786                    85761990.692    20649166.301  
  20649161.812  
  22553299.117   120517987.545                    93736210.306    22553302.910  
  22553299.195  
  20122973.570   105746950.866    20122979.230    82400257.1284   20122979.461  
                
  19304414.938   102903398.642                    80035974.637    19304418.574  
  19304414.750  
  21245788.531   111647371.759    21245792.480    86997974.6184                 
                
  19214935.227   102750902.394                    79917372.015    19214939.156  
  19214934.477  
  22701156.930   119295393.057    22701165.859    92957488.6074   22701165.930  
                
