     2.11           OBSERVATION DATA    M (MIXED)           RINEX VERSION / TYPE
EFT-CORS.RU                             20210817 144947 UTC PGM / RUN BY / DATE 
MDNG                                                        MARKER NAME         
                                                            MARKER NUMBER       
MDNG                EFT-CORS.RU                             OBSERVER / AGENCY   
0                   TRIMBLE BD970       2.0                 REC # / TYPE / VERS 
0                   UNKNOWN EXT NONE                        ANT # / TYPE        
  3463911.2830  3030468.2400  4402179.3760                  APPROX POSITION XYZ 
        0.0000        0.0000        0.0000                  ANTENNA: DELTA H/E/N
     1     1                                                WAVELENGTH FACT L1/2
     6    C1    L1    P2    L2    C2    P1                  # / TYPES OF OBSERV 
    10.000                                                  INTERVAL            
  2021     8    16    23    30    0.0000000     GPS         TIME OF FIRST OBS   
  2021     8    17     0    30    0.0000000     GPS         TIME OF LAST OBS    
     0                                                      RCV CLOCK OFFS APPL 
                                                            END OF HEADER       
 21  8 16 23 30  0.0000000  0 16G 6R 7G17G15G13G14R16G24R17R 6G12G19
                                R15R24R18R14
  24159251.719   126957727.115    24159260.828    98928132.3734   24159261.543  
                
  23313367.109   124798280.546                    97065317.515    23313371.316  
  23313366.078  
  21365792.609   112278013.053    21365798.441    87489398.7514   21365798.539  
                
  22549485.094   118498343.083    22549491.516    92336404.8064   22549491.402  
                
  22611954.109   118826632.957    22611960.465    92592210.8954                 
                
  22698480.297   119281358.852    22698486.770    92946551.4994   22698486.871  
                
  21022138.180   112296496.370                    87341709.216    21022139.820  
  21022137.809  
  21138655.945   111084385.318    21138664.504    86559311.6474   21138664.660  
                
  19889850.461   106434617.800                    82782477.727    19889853.836  
  19889848.770  
  22030610.625   117559531.920                                                  
  22030608.145  
  23704119.312   124565992.384    23704125.324    97064440.5304   23704125.750  
                
  20337623.109   106874941.128    20337628.242    83279200.8714                 
                
  19769228.539   105640782.312                    82165062.958    19769232.418  
  19769228.766  
  22236828.688   118910327.719                    92485819.214    22236832.160  
  22236827.473  
  21603318.516   115319979.724                    89693316.256    21603321.496  
  21603316.988  
  22824462.156   121667249.572                    94630088.652    22824466.828  
  22824461.766  
 21  8 16 23 30 10.0000000  0 16G 6R 7G17G15G13G14R16G24R17R 6G12G19
                                R15R24R18R14
  24152991.578   126924829.693    24153000.609    98902498.0054   24153001.312  
                
  23309959.648   124780040.315                    97051130.626    23309963.879  
  23309958.570  
  21369039.188   112295073.961    21369045.031    87502692.9664   21369045.125  
                
  22554258.273   118523426.235    22554264.672    92355950.1144   22554264.562  
                
  22618310.859   118860037.941    22618317.219    92618240.7534                 
                
  22703507.414   119307776.459    22703513.910    92967136.6504   22703513.988  
                
  21017464.016   112271527.859                    87322289.272    21017465.645  
  21017463.652  
  21134724.703   111063726.511    21134733.281    86543213.8704   21134733.426  
                
  19888433.617   106427036.022                    82776580.793    19888436.977  
  19888431.898  
  22033554.625   117575241.679                                                  
  22033552.125  
  23698372.703   124535793.962    23698378.742    97040909.2784   23698379.180  
                
  20336654.750   106869852.402    20336659.867    83275235.6314                 
                
  19770522.523   105647696.949                    82170441.015    19770526.414  
  19770522.742  
  22242526.586   118940796.955                    92509517.513    22242530.051  
  22242525.355  
  21595678.062   115279194.459                    89661594.390    21595681.016  
  21595676.535  
  22829961.219   121696562.590                    94652887.651    22829965.879  
  22829960.797  
 21  8 16 23 30 20.0000000  0 16G 6R 7G17G15G13G14R16G24R17R 6G12G19
                                R15R24R18R14
  24146733.242   126891941.425    24146742.121    98876870.7754   24146742.836  
                
  23306566.367   124761875.868                    97037002.700    23306570.605  
  23306565.270  
  21372294.805   112312182.342    21372300.668    87516024.1734   21372300.766  
                
  22559039.156   118548549.899    22559045.539    92375527.0004   22559045.438  
                
  22624672.938   118893470.833    22624679.227    92644292.3714                 
                
  22708536.969   119334206.841    22708543.469    92987731.7544   22708543.520  
                
  21012793.398   112246578.296                    87302884.045    21012795.012  
  21012793.023  
  21130801.328   111043109.025    21130809.934    86527148.2934   21130810.070  
                
  19887034.055   106419546.717                    82770755.781    19887037.395  
  19887032.309  
  22036512.898   117591027.548                                                  
  22036510.387  
  23692628.789   124505609.565    23692634.898    97017388.9744   23692635.309  
                
  20335699.297   106864831.444    20335704.379    83271323.1904                 
                
  19771823.609   105654649.556                    82175848.581    19771827.512  
  19771823.828  
  22248235.930   118971327.465                    92533263.458    22248239.391  
  22248234.688  
  21588045.047   115238448.951                    89629903.436    21588047.996  
  21588043.531  
  22835463.578   121725893.287                    94675700.398    22835468.309  
  22835463.156  
 21  8 16 23 30 30.0000000  0 16G 6R 7G17G15G13G14R16G24R17R 6G12G19
                                R15R24R18R14
  24140476.727   126859062.710    24140485.441    98851250.9854   24140486.195  
                
  23303187.297   124743787.431                    97022933.931    23303191.559  
  23303186.238  
  21375559.500   112329338.383    21375565.383    87529392.5204   21375565.461  
                
  22563827.758   118573714.112    22563834.160    92395135.4744   22563834.043  
                
  22631040.375   118926931.816    22631046.586    92670365.8874                 
                
  22713569.000   119360650.234    22713575.461    93008336.9874   22713575.523  
                
  21008126.367   112221647.869                    87283493.725    21008127.977  
  21008125.992  
  21126885.875   111022533.203    21126894.512    86511115.1744   21126894.633  
                
  19885651.828   106412150.193                    82765002.931    19885655.145  
  19885650.066  
  22039485.555   117606890.017                                                  
  22039483.031  
  23686887.617   124475439.402    23686893.691    96993879.7454   23686894.113  
                
  20334756.789   106859878.539    20334761.844    83267463.7874                 
                
  19773131.898   105661640.622                    82181286.080    19773135.805  
  19773132.117  
  22253956.758   119001919.373                    92557057.175    22253960.230  
  22253955.500  
  21580419.578   115197743.804                    89598243.877    21580422.543  
  21580418.086  
  22840969.367   121755241.817                    94698527.003    22840974.066  
  22840968.902  
 21  8 16 23 30 40.0000000  0 16G 6R 7G17G15G13G14R16G24R17R 6G12G19
                                R15R24R18R14
  24134222.094   126826193.966    24134230.684    98825638.9474   24134231.449  
                
  23299822.500   124725775.341                    97008924.530    23299826.770  
  23299821.406  
  21378833.305   112346542.341    21378839.215    87542798.2044   21378839.281  
                
  22568624.125   118598919.185    22568630.562    92414775.7834   22568630.430  
                
  22637413.195   118960420.997    22637419.371    92696461.3674                 
                
  22718603.547   119387106.936    22718609.996    93028952.5934   22718610.055  
                
  21003463.039   112196737.194                    87264118.767    21003464.617  
  21003462.668  
  21122978.422   111001999.397    21122987.082    86495114.8084   21122987.180  
                
  19884287.023   106404846.834                    82759322.537    19884290.316  
  19884285.238  
  22042472.516   117622828.989                                                  
  22042469.973  
  23681149.211   124445283.863    23681155.262    96970381.9304   23681155.684  
                
  20333827.289   106854994.003    20333832.332    83263657.6654                 
                
  19774447.422   105668670.381                    82186753.659    19774451.344  
  19774447.625  
  22259689.148   119032573.028                    92580898.915    22259692.645  
  22259687.824  
  21572801.812   115157079.534                    89566616.127    21572804.758  
  21572800.316  
  22846478.516   121784608.657                    94721367.857    22846483.250  
  22846478.055  
 21  8 16 23 30 50.0000000  0 16G 6R 7G17G15G13G14R16G24R17R 6G12G19
                                R15R24R18R14
  24127969.273   126793335.175    24127977.879    98800034.7014   24127978.617  
                
  23296471.992   124707839.764                    96994974.659    23296476.238  
  23296470.887  
  21382116.180   112363793.958    21382122.121    87556241.0254   21382122.172  
                
  22573428.258   118624165.023    22573434.715    92434447.8634   22573434.578  
                
  22643791.305   118993938.137    22643797.500    92722578.6114                 
                
  22723640.602   119413576.781    22723647.074    93049578.4334   22723647.109  
                
  20998803.383   112171846.170                    87244759.071    20998804.977  
  20998803.016  
  21119078.977   110981507.602    21119087.660    86479147.1724   21119087.738  
                
  19882939.578   106397636.422                    82753714.449    19882942.867  
  19882937.785  
  22045473.820   117638844.470                                                  
  22045471.289  
  23675413.625   124415142.856    23675419.715    96946895.4394   23675420.094  
                
  20332910.766   106850177.660    20332915.816    83259904.6724                 
                
  19775770.188   105675738.838                    82192251.351    19775774.105  
  19775770.379  
  22265432.992   119063288.024                    92604788.356    22265436.531  
  22265431.629  
  21565191.586   115116455.955                    89535020.014    21565194.590  
  21565190.129  
  22851991.070   121813993.456                    94744222.699    22851995.789  
  22851990.586  
 21  8 16 23 31  0.0000000  0 16G 6R 7G17G15G13G14R16G24R17R 6G12G19
                                R15R24R18R14
  24121718.305   126760486.507    24121727.023    98774438.3474   24121727.715  
                
  23293135.758   124689980.722                    96981084.310    23293140.027  
  23293134.590  
  21385408.133   112381093.287    21385414.102    87569721.0144   21385414.141  
                
  22578240.133   118649451.585    22578246.609    92454151.6714   22578246.480  
                
  22650174.703   119027483.286    22650180.953    92748717.6554                 
                
  22728680.164   119440059.783    22728686.656    93070214.5534   22728686.688  
                
  20994147.422   112146974.917                    87225414.762    20994148.996  
  20994147.043  
  21115187.539   110961057.936    21115196.234    86463212.3594   21115196.316  
                
  19881609.539   106390519.174                    82748178.809    19881612.820  
  19881607.730  
  22048489.383   117654936.002                                                  
  22048486.867  
  23669680.805   124385016.418    23669686.875    96923420.3044   23669687.242  
                
  20332007.234   106845429.568    20332012.297    83256204.8664                 
                
  19777100.172   105682845.849                    82197779.021    19777104.102  
  19777100.352  
  22271188.305   119094064.392                    92628725.521    22271191.895  
  22271186.926  
  21557589.086   115075873.500                    89503455.890    21557592.109  
  21557587.629  
  22857507.062   121843396.475                    94767091.703    22857511.762  
  22857506.590  
 21  8 16 23 31 10.0000000  0 16G 6R 7G17G15G13G14R16G24R17R 6G12G19
                                R15R24R18R14
  24115469.352   126727648.384    24115478.152    98748850.1934   24115478.840  
                
  23289813.867   124672198.498                    96967253.666    23289818.148  
  23289812.691  
  21388709.188   112398440.498    21388715.184    87583238.3234   21388715.207  
                
  22583059.766   118674778.971    22583066.242    92473887.2934   22583066.117  
                
  22656563.477   119061056.555    22656569.723    92774878.6524                 
                
  22733722.273   119466556.204    22733728.785    93090861.0964   22733728.812  
                
  20989495.094   112122123.108                    87206085.587    20989496.664  
  20989494.691  
  21111304.172   110940650.709    21111312.871    86447310.6224   21111312.945  
                
  19880296.945   106383495.287                    82742715.796    19880300.234  
  19880295.117  
  22051519.297   117671104.100                                                  
  22051516.770  
  23663950.891   124354904.829    23663956.820    96899956.7164   23663957.191  
                
  20331116.742   106840750.006    20331121.812    83252558.4534                 
                
  19778437.453   105689991.890                    82203337.050    19778441.387  
  19778437.621  
  22276955.109   119124902.183                    92652710.453    22276958.723  
  22276953.703  
  21549994.344   115035332.451                    89471923.957    21549997.371  
  21549992.914  
  22863026.422   121872817.836                    94789974.941    22863031.164  
  22863025.988  
 21  8 16 23 31 20.0000000  0 16G 6R 7G17G15G13G14R16G24R17R 6G12G19
                                R15R24R18R14
  24109222.492   126694820.816    24109231.285    98723270.2854   24109231.984  
                
  23286506.422   124654493.483                    96953483.114    23286510.746  
  23286505.227  
  21392019.336   112415835.482    21392025.363    87596792.8514   21392025.375  
                
  22587887.148   118700147.014    22587893.598    92493654.5964   22587893.496  
                
  22662957.586   119094657.838    22662963.805    92801061.4684                 
                
  22738766.914   119493065.928    22738773.480    93111518.0214   22738773.477  
                
  20984846.578   112097291.596                    87186772.187    20984848.156  
  20984846.168  
  21107428.898   110920285.979    21107437.594    86431441.9964   21107437.672  
                
  19879001.812   106376564.837                    82737325.446    19879005.094  
  19878999.969  
  22054563.484   117687348.480                                                  
  22054560.973  
  23658223.766   124324808.026    23658229.629    96876504.6564   23658229.977  
                
  20330239.273   106836138.898    20330244.336    83248965.3834                 
                
  19779782.023   105697176.880                    82208925.374    19779785.965  
  19779782.184  
  22282733.398   119155801.264                    92676743.074    22282737.023  
  22282731.984  
  21542407.477   114994833.124                    89440424.466    21542410.445  
  21542406.031  
  22868549.195   121902257.448                    94812872.401    22868554.012  
  22868548.805  
 21  8 16 23 31 30.0000000  0 16G 6R 7G17G15G13G14R16G24R17R 6G12G19
                                R15R24R18R14
  24102977.750   126662004.018    24102986.461    98697698.7434   24102987.184  
                
  23283213.359   124636865.315                    96939772.282    23283217.664  
  23283212.219  
  21395338.578   112433278.261    21395344.633    87610384.6274   21395344.633  
                
  22592722.227   118725555.565    22592728.664    92513453.4614   22592728.570  
                
  22669357.000   119128287.027    22669363.188    92827266.0284                 
                
  22743814.078   119519588.980    22743820.707    93132185.3274   22743820.660  
                
  20980201.805   112072480.050                    87167474.311    20980203.383  
  20980201.426  
  21103561.727   110899963.838    21103570.422    86415606.5564   21103570.508  
                
  19877724.180   106369728.006                    82732007.911    19877727.453  
  19877722.320  
  22057622.000   117703669.311                                                  
  22057619.492  
  23652499.367   124294726.086    23652505.277    96853064.1814   23652505.598  
                
  20329374.844   106831596.290    20329379.863    83245425.6804                 
                
  19781133.867   105704400.722                    82214543.925    19781137.816  
  19781134.023  
  22288523.055   119186761.291                    92700823.112    22288526.730  
  22288521.660  
  21534828.406   114954375.469                    89408957.382    21534831.383  
  21534826.957  
  22874075.461   121931715.333                    94835784.102    22874080.305  
  22874075.051  
 21  8 16 23 31 40.0000000  0 16G 6R 7G17G15G13G14R16G24R17R 6G12G19
                                R15R24R18R14
  24096735.086   126629198.134    24096743.758    98672135.7044   24096744.469  
                
  23279934.695   124619314.314                    96926121.515    23279938.977  
  23279933.648  
  21398666.891   112450768.641    21398672.980    87624013.4984   21398672.965  
                
  22597565.031   118751004.659    22597571.484    92533283.9214   22597571.371  
                
  22675761.695   119161943.945    22675767.887    92853492.2054                 
                
  22748863.789   119546125.352    22748870.430    93152863.0134   22748870.383  
                
  20975560.773   112047688.506                    87148192.001    20975562.363  
  20975560.398  
  21099702.688   110879684.404    21099711.391    86399804.3964   21099711.469  
                
  19876464.008   106362984.595                    82726763.042    19876467.273  
  19876462.133  
  22060694.797   117720066.300                                                  
  22060692.305  
  23646777.789   124264659.150    23646783.742    96829635.4074   23646784.035  
                
  20328523.461   106827122.240    20328528.422    83241939.4144                 
                
  19782493.023   105711663.606                    82220192.823    19782496.984  
  19782493.152  
  22294324.133   119217782.407                    92724950.643    22294327.852  
  22294322.719  
  21527257.180   114913959.925                    89377523.095    21527260.242  
  21527255.750  
  22879605.117   121961191.587                    94858710.071    22879609.969  
  22879604.734  
 21  8 16 23 31 50.0000000  0 16G 6R 7G17G15G13G14R16G24R17R 6G12G19
                                R15R24R18R14
  24090494.406   126596403.084    24090503.125    98646581.1234   24090503.820  
                
  23276670.398   124601840.449                    96912530.735    23276674.707  
  23276669.344  
  21402004.195   112468306.371    21402010.312    87637679.2604   21402010.266  
                
  22602415.484   118776494.014    22602421.953    92553145.7484   22602421.832  
                
  22682171.625   119195628.382    22682177.832    92879739.8164                 
                
  22753915.984   119572674.827    22753922.613    93173550.9154   22753922.582  
                
  20970923.508   112022917.109                    87128925.359    20970925.105  
  20970923.121  
  21095851.750   110859447.578    21095860.465    86384035.4394   21095860.543  
                
  19875221.289   106356334.640                    82721590.866    19875224.539  
  19875219.414  
  22063781.859   117736539.349                                                  
  22063779.398  
  23641059.023   124234606.995    23641065.020    96806218.1304   23641065.297  
                
  20327685.086   106822716.586    20327689.980    83238506.4414                 
                
  19783859.445   105718965.416                    82225872.006    19783863.406  
  19783859.566  
  22300136.562   119248864.243                    92749125.391    22300140.316  
  22300135.148  
  21519693.742   114873586.194                    89346121.312    21519696.914  
  21519692.367  
  22885138.219   121990686.077                    94881650.220    22885143.062  
  22885137.809  
 21  8 16 23 32  0.0000000  0 16G 6R 7G17G15G13G14R16G24R17R 6G12G19
                                R15R24R18R14
  24084255.727   126563619.131    24084264.652    98621035.2074   24084265.320  
                
  23273420.555   124584443.924                    96899000.119    23273424.930  
  23273419.410  
  21405350.555   112485891.607    21405356.699    87651382.0364   21405356.629  
                
  22607273.609   118802023.644    22607280.082    92573038.9554   22607279.953  
                
  22688586.844   119229340.434    22688593.047    92906008.9454                 
                
  22758970.719   119599237.576    22758977.363    93194249.1574   22758977.320  
                
  20966289.984   111998165.679                    87109674.261    20966291.621  
  20966289.570  
  21092008.969   110839253.596    21092017.680    86368299.8614   21092017.750  
                
  19873996.070   106349778.282                    82716491.477    19873999.316  
  19873994.180  
  22066883.117   117753088.127                                                  
  22066880.688  
  23635343.180   124204569.809    23635349.148    96782812.5024   23635349.398  
                
  20326859.773   106818379.529    20326864.609    83235126.9174                 
                
  19785233.188   105726306.255                    82231581.546    19785237.168  
  19785233.301  
  22305960.398   119280006.975                    92773347.494    22305964.180  
  22305959.000  
  21512138.344   114833254.908                    89314752.534    21512141.551  
  21512136.969  
  22890674.734   122020198.830                    94904604.564    22890679.566  
  22890674.332  
 21  8 16 23 32 10.0000000  0 16G 6R 7G17G15G13G14R16G24R17R 6G12G19
                                R15R24R18R14
  24078019.219   126530846.337    24078028.285    98595497.9774   24078028.938  
                
  23270185.141   124567124.667                    96885529.592    23270189.551  
  23270183.926  
  21408705.922   112503524.237    21408712.086    87665121.7504   21408712.012  
                
  22612139.359   118827593.329    22612145.832    92592963.3854   22612145.699  
                
  22695007.266   119263079.899    22695013.426    92932299.4564                 
                
  22764027.945   119625813.473    22764034.594    93214957.6404   22764034.547  
                
  20961660.266   111973434.555                    87090438.938    20961661.906  
  20961659.840  
  21088174.336   110819102.435    21088183.043    86352597.6564   21088183.117  
                
  19872788.320   106343315.460                    82711464.849    19872791.551  
  19872786.414  
  22069998.578   117769712.681                                                  
  22069996.145  
  23629630.148   124174547.586    23629636.102    96759418.5404   23629636.324  
                
  20326047.477   106814110.888    20326052.277    83231800.7104                 
                
  19786614.203   105733686.046                    82237321.378    19786618.176  
  19786614.305  
  22311795.523   119311210.035                    92797616.561    22311799.332  
  22311794.125  
  21504590.875   114792965.898                    89283416.648    21504594.109  
  21504589.477  
  22896214.664   122049729.877                    94927573.147    22896219.523  
  22896214.242  
 21  8 16 23 32 20.0000000  0 16G 6R 7G17G15G13G14R16G24R17R 6G12G19
                                R15R24R18R14
  24071784.922   126498084.822    24071794.051    98569969.5384   24071794.688  
                
  23266964.234   124549882.894                    96872119.303    23266968.668  
  23266963.047  
  21412070.289   112521204.138    21412076.465    87678898.2964   21412076.387  
                
  22617012.727   118853203.025    22617019.195    92612918.9954   22617019.062  
                
  22701432.875   119296846.711    22701438.973    92958611.2554                 
                
  22769087.672   119652402.485    22769094.316    93235676.3504   22769094.293  
                
  20957034.336   111948723.646                    87071219.340    20957035.992  
  20957033.926  
  21084347.867   110798994.204    21084356.570    86336928.9034   21084356.641  
                
  19871598.070   106336946.245                    82706511.009    19871601.285  
  19871596.156  
  22073128.250   117786413.079                                                  
  22073125.840  
  23623919.891   124144540.134    23623925.875    96736036.1044   23623926.090  
                
  20325248.211   106809910.732    20325252.992    83228527.8664                 
                
  19788002.547   105741104.903                    82243091.589    19788006.527  
  19788002.633  
  22317641.930   119342473.426                    92821932.546    22317645.723  
  22317640.539  
  21497051.312   114752719.438                    89252113.852    21497054.617  
  21497049.957  
  22901758.031   122079279.102                    94950555.892    22901762.867  
  22901757.586  
 21  8 16 23 32 30.0000000  0 16G 6R 7G17G15G13G14R16G24R17R 6G12G19
                                R15R24R18R14
  24065552.891   126465334.789    24065562.004    98544450.0184   24065562.625  
                
  23263757.836   124532718.612                    96858769.316    23263762.238  
  23263756.699  
  21415443.664   112538931.318    21415449.848    87692711.6894   21415449.770  
                
  22621893.680   118878852.596    22621900.133    92632905.6674   22621900.008  
                
  22707863.680   119330640.752    22707869.734    92984944.2834                 
                
  22774149.906   119679004.673    22774156.574    93256405.3074   22774156.551  
                
  20952412.203   111924033.066                    87052015.560    20952413.848  
  20952411.793  
  21080529.602   110778929.036    21080538.309    86321293.7064   21080538.375  
                
  19870425.328   106330670.672                    82701630.006    19870428.543  
  19870423.398  
  22076272.023   117803188.842                                                  
  22076269.598  
  23618212.453   124114547.800    23618218.586    96712665.4684   23618218.777  
                
  20324462.000   106805779.147    20324466.773    83225308.4484                 
                
  19789398.203   105748562.871                    82248892.230    19789402.184  
  19789398.254  
  22323499.609   119373797.119                    92846295.405    22323503.414  
  22323498.238  
  21489519.766   114712515.802                    89220844.369    21489523.145  
  21489518.434  
  22907304.789   122108846.539                    94973552.769    22907309.625  
  22907304.371  
 21  8 16 23 32 40.0000000  0 16G 6R 7G17G15G13G14R16G24R17R 6G12G19
                                R15R24R18R14
  24059322.961   126432596.197    24059332.109    98518939.4254   24059332.688  
                
  23260565.906   124515631.840                    96845479.608    23260570.258  
  23260564.789  
  21418825.992   112556705.602    21418832.191    87706561.7834   21418832.109  
                
  22626782.188   118904541.831    22626788.637    92652923.2574   22626788.508  
                
  22714299.617   119364461.775    22714305.652    93011298.3274                 
                
  22779214.609   119705619.851    22779221.281    93277144.3894   22779221.254  
                
  20947793.852   111899362.759                    87032827.551    20947795.527  
  20947793.434  
  21076719.500   110758906.824    21076728.215    86305691.9764   21076728.281  
                
  19869270.055   106324488.669                    82696821.795    19869273.258  
  19869268.109  
  22079429.945   117820040.187                                                  
  22079427.516  
  23612507.922   124084570.472    23612514.086    96689306.5194   23612514.277  
                
  20323688.805   106801716.000    20323693.559    83222142.3674                 
                
  19790801.148   105756059.834                    82254723.192    19790805.137  
  19790801.191  
  22329368.523   119405180.844                    92870704.955    22329372.332  
  22329367.152  
  21481996.250   114672354.944                    89189608.156    21481999.668  
  21481994.918  
  22912854.922   122138432.124                    94996563.759    22912859.812  
  22912854.543  
 21  8 16 23 32 50.0000000  0 16G 6R 7G17G15G13G14R16G24R17R 6G12G19
                                R15R24R18R14
  24053095.211   126399869.299    24053104.445    98493437.9634   24053105.000  
                
  23257388.492   124498622.862                    96832250.431    23257392.883  
  23257387.344  
  21422217.312   112574527.100    21422223.543    87720448.6624   21422223.457  
                
  22631678.281   118930270.914    22631684.727    92672971.9024   22631684.598  
                
  22720740.711   119398309.864    22720746.801    93037673.4664                 
                
  22784281.820   119732248.135    22784288.461    93297893.7154   22784288.461  
                
  20943179.359   111874712.978                    87013655.495    20943181.043  
  20943178.934  
  21072917.641   110738927.875    21072926.352    86290123.9644   21072926.410  
                
  19868132.312   106318400.439                    82692086.506    19868135.500  
  19868130.348  
  22082602.000   117836966.818                                                  
  22082599.508  
  23606806.297   124054608.252    23606812.438    96665959.3164   23606812.637  
                
  20322928.672   106797721.480    20322933.387    83219029.7534                 
                
  19792211.422   105763595.914                    82260584.585    19792215.426  
  19792211.461  
  22335248.703   119436624.784                    92895161.343    22335252.543  
  22335247.363  
  21474480.820   114632237.259                    89158405.524    21474484.254  
  21474479.473  
  22918408.500   122168035.918                    95019588.929    22918413.395  
  22918408.141  
 21  8 16 23 33  0.0000000  0 16G 6R 7G17G15G13G14R16G24R17R 6G12G19
                                R15R24R18R14
  24046869.711   126367154.286    24046879.004    98467945.7594   24046879.551  
                
  23254225.602   124481691.747                    96819081.790    23254230.031  
  23254224.449  
  21425617.602   112592395.704    21425623.867    87734372.2464   21425623.781  
                
  22636581.922   118956039.703    22636588.410    92693051.4644   22636588.258  
                
  22727186.914   119432184.934    22727193.070    93064069.6184                 
                
  22789351.523   119758889.563    22789358.168    93318653.2634   22789358.172  
                
  20938568.695   111850083.619                    86994499.332    20938570.383  
  20938568.258  
  21069124.031   110718992.272    21069132.742    86274589.7204   21069132.789  
                
  19867012.125   106312406.092                    82687424.241    19867015.309  
  19867010.137  
  22085788.164   117853968.854                                                  
  22085785.633  
  23601107.477   124024661.196    23601113.688    96642623.9454   23601113.883  
                
  20322181.602   106793795.564    20322186.277    83215970.6024                 
                
  19793629.055   105771171.281                    82266476.527    19793633.051  
  19793629.094  
  22341140.047   119468128.394                    92919664.189    22341143.895  
  22341138.766  
  21466973.508   114592162.860                    89127236.556    21466976.934  
  21466972.152  
  22923965.586   122197658.110                    95042628.423    22923970.453  
  22923965.191  
 21  8 16 23 33 10.0000000  0 16G 6R 7G17G15G13G14R16G24R17R 6G12G19
                                R15R24R18R14
  24040646.508   126334450.978    24040655.781    98442462.6554   24040656.332  
                
  23251077.219   124464838.227                    96805973.461    23251081.660  
  23251076.086  
  21429026.773   112610311.037    21429033.086    87748332.2484   21429032.980  
                
  22641493.047   118981847.826    22641499.586    92713161.6864   22641499.430  
                
  22733638.172   119466086.594    22733644.367    93090486.4724                 
                
  22794423.648   119785543.764    22794430.332    93339422.7464   22794430.305  
                
  20933961.812   111825474.584                    86975358.978    20933963.523  
  20933961.352  
  21065338.609   110699099.729    21065347.320    86259089.0314   21065347.367  
                
  19865909.406   106306505.324                    82682834.748    19865912.578  
  19865907.406  
  22088988.336   117871045.655                                                  
  22088985.801  
  23595411.539   123994728.999    23595417.699    96619300.1374   23595417.926  
                
  20321447.508   106789937.890    20321452.133    83212964.6224                 
                
  19795053.969   105778785.602                    82272398.779    19795057.953  
  19795054.016  
  22347042.508   119499691.512                    92944213.267    22347046.324  
  22347041.219  
  21459474.289   114552131.645                    89096101.172    21459477.734  
  21459472.941  
  22929526.078   122227298.241                    95065681.847    22929530.883  
  22929525.633  
 21  8 16 23 33 20.0000000  0 16G 6R 7G17G15G13G14R16G24R17R 6G12G19
                                R15R24R18R14
  24034425.570   126301759.707    24034434.848    98416988.9344   24034435.406  
                
  23247943.414   124448062.535                    96792925.706    23247947.867  
  23247942.336  
  21432444.867   112628273.247    21432451.211    87762328.7774   21432451.098  
                
  22646411.664   119007695.326    22646418.238    92733302.5904   22646418.078  
                
  22740094.547   119500014.989    22740100.766    93116924.1724                 
                
  22799498.258   119812210.935    22799504.941    93360202.3644   22799504.906  
                
  20929358.805   111800886.087                    86956234.582    20929360.516  
  20929358.328  
  21061561.453   110679250.590    21061570.156    86243622.1684   21061570.199  
                
  19864824.211   106300698.289                    82678318.163    19864827.371  
  19864822.195  
  22092202.641   117888197.790                                                  
  22092200.156  
  23589718.445   123964811.897    23589724.617    96595988.1024   23589724.887  
                
  20320726.445   106786148.667    20320731.043    83210011.9824                 
                
  19796486.219   105786439.064                    82278351.461    19796490.207  
  19796486.266  
  22352956.141   119531314.326                    92968808.781    22352959.934  
  22352954.824  
  21451983.273   114512143.867                    89064999.575    21451986.660  
  21451981.895  
  22935090.008   122256956.655                    95088749.500    22935094.742  
  22935089.531  
 21  8 16 23 33 30.0000000  0 16G 6R 7G17G15G13G14R16G24R17R 6G12G19
                                R15R24R18R14
  24028207.164   126269081.227    24028216.348    98391525.1674   24028216.879  
                
  23244824.312   124431365.631                    96779939.240    23244828.797  
  23244823.266  
  21435871.984   112646282.849    21435878.348    87776362.2324   21435878.230  
                
  22651337.883   119033582.743    22651344.488    92753474.6014   22651344.324  
                
  22746556.109   119533970.653    22746562.316    93143383.1334                 
                
  22804575.453   119838891.721    22804582.078    93380992.5794   22804582.070  
                
  20924759.758   111776318.847                    86937126.718    20924761.465  
  20924759.277  
  21057792.695   110659445.591    21057801.387    86228189.6954   21057801.438  
                
  19863756.688   106294985.782                    82673875.109    19863759.840  
  19863754.656  
  22095431.094   117905425.496                                                  
  22095428.594  
  23584028.398   123934910.559    23584034.566    96572688.3744   23584034.863  
                
  20320018.539   106782428.614    20320023.121    83207113.2434                 
                
  19797925.914   105794132.377                    82284335.146    19797929.898  
  19797925.961  
  22358880.992   119562997.126                    92993450.978    22358884.777  
  22358879.691  
  21444500.602   114472200.719                    89033932.676    21444503.922  
  21444499.199  
  22940657.469   122286633.821                    95111831.737    22940662.133  
  22940656.988  
 21  8 16 23 33 40.0000000  0 16G 6R 7G17G15G13G14R16G24R17R 6G12G19
                                R15R24R18R14
  24021990.773   126236413.722    24021999.906    98366069.9534   24022000.414  
                
  23241719.523   124414745.473                    96767012.447    23241724.039  
  23241718.512  
  21439307.742   112664337.867    21439314.113    87790431.0794   21439314.000  
                
  22656271.312   119059508.072    22656277.934    92773676.1464   22656277.773  
                
  22753022.445   119567951.445    22753028.637    93169861.6694                 
                
  22809654.852   119865584.134    22809661.445    93401791.8594   22809661.449  
                
  20920164.336   111751770.970                    86918033.936    20920166.062  
  20920163.855  
  21054031.969   110639682.846    21054040.645    86212790.1454   21054040.707  
                
  19862706.461   106289365.888                    82669504.084    19862709.613  
  19862704.418  
  22098673.289   117922726.516                                                  
  22098670.762  
  23578341.016   123905023.059    23578347.152    96549399.4024   23578347.457  
                
  20319323.430   106778775.818    20319328.004    83204266.9064                 
                
  19799372.703   105801863.577                    82290348.298    19799376.688  
  19799372.754  
  22364816.672   119594737.902                    93018138.260    22364820.492  
  22364815.410  
  21437025.828   114432300.019                    89002898.794    21437029.105  
  21437024.430  
  22946228.023   122316327.877                    95134927.160    22946232.668  
  22946227.543  
 21  8 16 23 33 50.0000000  0 16G 6R 7G17G15G13G14R16G24R17R 6G12G19
                                R15R24R18R14
  24015776.750   126203758.869    24015785.875    98340624.6094   24015786.355  
                
  23238629.383   124398203.760                    96754146.661    23238633.922  
  23238628.348  
  21442752.422   112682439.767    21442758.805    87804536.4594   21442758.684  
                
  22661212.234   119085472.750    22661218.871    92793908.3614   22661218.707  
                
  22759493.844   119601958.820    22759500.004    93196360.9264                 
                
  22814736.766   119892289.699    22814743.355    93422601.3924   22814743.367  
                
  20915572.820   111727243.940                    86898957.351    20915574.566  
  20915572.328  
  21050279.602   110619964.003    21050288.262    86197424.8174   21050288.324  
                
  19861673.820   106283840.051                    82665206.216    19861676.957  
  19861671.758  
  22101929.461   117940102.456                                                  
  22101927.004  
  23572656.641   123875151.067    23572662.688    96526122.5044   23572662.973  
                
  20318641.406   106775191.752    20318645.980    83201474.1304                 
                
  19800826.875   105809634.241                    82296392.144    19800830.867  
  19800826.922  
  22370763.461   119626538.056                    93042871.708    22370767.293  
  22370762.234  
  21429559.383   114392443.606                    88971899.348    21429562.598  
  21429558.000  
  22951802.000   122346040.300                    95158036.811    22951806.578  
  22951801.492  
 21  8 16 23 34  0.0000000  0 16G 6R 7G17G15G13G14R16G24R17R 6G12G19
                                R15R24R18R14
  24009565.102   126171116.594    24009574.227    98315189.0614   24009574.688  
                
  23235553.883   124381740.382                    96741341.823    23235558.434  
  23235552.809  
  21446205.969   112700588.267    21446212.359    87818678.1424   21446212.254  
                
  22666160.555   119111476.262    22666167.199    92814170.8424   22666167.039  
                
  22765970.250   119635992.577    22765976.391    93222880.7334                 
                
  22819821.125   119919008.198    22819827.703    93443420.9844   22819827.746  
                
  20910985.250   111702737.921                    86879897.121    20910986.980  
  20910984.762  
  21046535.555   110600288.886    21046544.188    86182093.5594   21046544.254  
                
  19860658.742   106278408.215                    82660981.458    19860661.883  
  19860656.672  
  22105199.695   117957552.866                                                  
  22105197.246  
  23566975.172   123845294.384    23566981.121    96502857.5354   23566981.422  
                
  20317972.406   106771676.183    20317976.969    83198734.7344                 
                
  19802288.414   105817444.265                    82302466.604    19802292.398  
  19802288.469  
  22376721.281   119658397.139                    93067650.961    22376725.121  
  22376720.082  
  21422101.227   114352631.371                    88940934.275    21422104.410  
  21422099.855  
  22957379.398   122375770.929                    95181160.625    22957383.922  
  22957378.883  
 21  8 16 23 34 10.0000000  0 16G 6R 7G17G15G13G14R16G24R17R 6G12G19
                                R15R24R18R14
  24003355.828   126138486.606    24003364.902    98289763.0914   24003365.371  
                
  23232493.008   124365355.217                    96728597.805    23232497.527  
  23232491.926  
  21449668.297   112718782.936    21449674.699    87832855.7994   21449674.582  
                
  22671116.195   119137518.343    22671122.867    92834463.3724   22671122.680  
                
  22772451.578   119670052.151    22772457.680    93249420.6584                 
                
  22824907.867   119945739.211    22824914.461    93464250.3354   22824914.508  
                
  20906401.516   111678252.485                    86860852.889    20906403.215  
  20906401.012  
  21042799.781   110580657.250    21042808.383    86166796.1744   21042808.477  
                
  19859661.156   106273069.986                    82656829.513    19859664.289  
  19859659.090  
  22108483.875   117975077.702                                                  
  22108481.418  
  23561296.516   123815452.697    23561302.426    96479604.2684   23561302.727  
                
  20317316.398   106768228.825    20317320.930    83196048.4794                 
                
  19803757.234   105825293.226                    82308571.351    19803761.234  
  19803757.270  
  22382690.039   119690314.752                    93092475.790    22382693.914  
  22382688.871  
  21414651.281   114312863.161                    88910003.465    21414654.484  
  21414649.926  
  22962960.117   122405519.329                    95204298.259    22962964.656  
  22962959.594  
 21  8 16 23 34 20.0000000  0 16G 6R 7G17G15G13G14R16G24R17R 6G12G19
                                R15R24R18R14
  23997148.906   126105868.984    23997157.957    98264346.7524   23997158.430  
                
  23229446.664   124349047.713                    96715914.209    23229451.141  
  23229445.652  
  21453139.398   112737023.674    21453145.805    87847069.3574   21453145.684  
                
  22676079.156   119163598.868    22676085.836    92854785.8544   22676085.645  
                
  22778937.805   119704137.413    22778943.824    93275980.5964                 
                
  22829996.984   119972482.657    22830003.605    93485089.3744   22830003.641  
                
  20901821.617   111653787.458                    86841824.519    20901823.285  
  20901821.121  
  21039072.281   110561069.051    21039080.859    86151532.6424   21039080.965  
                
  19858681.070   106267825.367                    82652750.370    19858684.184  
  19858679.020  
  22111781.906   117992676.682                                                  
  22111779.449  
  23555620.664   123785625.864    23555626.555    96456362.5884   23555626.855  
                
  20316673.359   106764849.629    20316677.855    83193415.3464                 
                
  19805233.344   105833181.063                    82314706.332    19805237.348  
  19805233.387  
  22388669.695   119722290.601                    93117345.901    22388673.602  
  22388668.512  
  21407209.594   114273139.183                    88879107.062    21407212.848  
  21407208.262  
  22968544.094   122435285.425                    95227449.665    22968548.703  
  22968543.652  
 21  8 16 23 34 30.0000000  0 16G 6R 7G17G15G13G14R16G24R17R 6G12G19
                                R15R24R18R14
  23990944.438   126073264.693    23990953.539    98238940.8034   23990954.031  
                
  23226415.094   124332819.336                    96703292.163    23226419.547  
  23226414.125  
  21456619.398   112755311.228    21456625.789    87861319.4064   21456625.656  
                
  22681049.570   119189718.544    22681056.258    92875138.8404   22681056.066  
                
  22785429.055   119738249.095    22785434.988    93302561.1434                 
                
  22835088.617   119999239.352    22835095.246    93505938.7294   22835095.285  
                
  20897245.688   111629343.686                    86822812.713    20897247.332  
  20897245.184  
  21035353.219   110541525.240    21035361.777    86136303.7014   21035361.898  
                
  19857718.633   106262675.188                    82648744.670    19857721.746  
  19857716.590  
  22115093.859   118010350.015                                                  
  22115091.438  
  23549947.805   123755814.775    23549953.688    96433133.1724   23549954.008  
                
  20316043.445   106761539.408    20316047.902    83190835.9574                 
                
  19806716.883   105841108.692                    82320872.264    19806720.895  
  19806716.910  
  22394660.383   119754325.530                    93142261.945    22394664.312  
  22394659.172  
  21399776.391   114233460.456                    88848245.842    21399779.691  
  21399775.066  
  22974131.633   122465070.117                    95250615.545    22974136.191  
  22974131.195  
 21  8 16 23 34 40.0000000  0 16G 6R 7G17G15G13G14R16G24R17R 6G12G19
                                R15R24R18R14
  23984742.492   126040673.586    23984751.648    98213545.1584   23984752.164  
                
  23223398.219   124316669.694                    96690731.362    23223402.648  
  23223397.262  
  21460108.250   112773645.238    21460114.598    87875605.6494   21460114.473  
                
  22686027.359   119215876.973    22686034.066    92895522.0344   22686033.840  
                
  22791925.266   119772386.801    22791931.082    93329161.9584                 
                
  22840182.719   120026009.010    22840189.324    93526798.1994   22840189.391  
                
  20892673.734   111604921.147                    86803817.395    20892675.367  
  20892673.234  
  21031642.570   110522025.651    21031651.109    86121109.2124   21031651.227  
                
  19856773.805   106257619.270                    82644812.291    19856776.918  
  19856771.766  
  22118419.859   118028098.070                                                  
  22118417.465  
  23544277.953   123726019.258    23544283.812    96409915.8784   23544284.121  
                
  20315426.625   106758298.014    20315431.062    83188310.1994                 
                
  19808207.852   105849075.960                    82327069.024    19808211.871  
  19808207.867  
  22400662.055   119786419.115                    93167223.625    22400665.992  
  22400660.836  
  21392351.648   114193826.647                    88817419.535    21392354.934  
  21392350.340  
  22979722.648   122494873.201                    95273795.711    22979727.133  
  22979722.145  
 21  8 16 23 34 50.0000000  0 16G 6R 7G17G15G13G14R16G24R17R 6G12G19
                                R15R24R18R14
  23978543.031   126008095.546    23978552.207    98188159.6894   23978552.762  
                
  23220395.992   124300598.648                    96678231.653    23220400.445  
  23220394.965  
  21463605.859   112792025.275    21463612.156    87889927.7554   21463612.051  
                
  22691012.453   119242073.788    22691019.145    92915935.1444   22691018.906  
                
  22798426.352   119806550.201    22798432.098    93355782.7874                 
                
  22845279.234   120052791.365    22845285.789    93547667.5554   22845285.898  
                
  20888105.703   111580519.663                    86784838.483    20888107.375  
  20888105.203  
  21027940.305   110502570.100    21027948.832    86105949.0424   21027948.957  
                
  19855846.547   106252657.337                    82640953.014    19855849.660  
  19855844.504  
  22121759.641   118045919.813                                                  
  22121757.270  
  23538610.945   123696238.930    23538616.852    96386710.4374   23538617.168  
                
  20314822.836   106755125.084    20314827.270    83185837.7924                 
                
  19809706.148   105857082.400                    82333296.250    19809710.188  
  19809706.148  
  22406674.602   119818570.868                    93192230.538    22406678.516  
  22406673.367  
  21384935.336   114154237.946                    88786628.310    21384938.578  
  21384934.047  
  22985317.078   122524694.226                    95296989.875    22985321.465  
  22985316.531  
 21  8 16 23 35  0.0000000  0 16G 6R 7G17G15G13G14R16G24R17R 6G12G19
                                R15R24R18R14
  23972346.062   125975530.582    23972355.246    98162784.3874   23972355.840  
                
  23217408.445   124284606.156                    96665793.008    23217412.883  
  23217407.344  
  21467112.219   112810451.325    21467118.477    87904285.7184   21467118.398  
                
  22696004.812   119268308.771    22696011.453    92936377.9974   22696011.211  
                
  22804932.273   119840739.044    22804938.008    93382423.4364                 
                
  22850378.148   120079586.238    22850384.648    93568546.6714   22850384.801  
                
  20883541.609   111556139.129                    86765875.834    20883543.254  
  20883541.113  
  21024246.406   110483158.520    21024254.926    86090823.1294   21024255.039  
                
  19854936.828   106247789.310                    82637166.773    19854939.949  
  19854934.793  
  22125113.273   118063815.358                                                  
  22125110.883  
  23532946.836   123666473.731    23532952.754    96363516.7684   23532953.102  
                
  20314232.055   106752020.514    20314236.500    83183418.6514                 
                
  19811211.789   105865128.119                    82339554.029    19811215.832  
  19811211.777  
  22412697.977   119850780.570                    93217282.520    22412701.887  
  22412696.727  
  21377527.477   114114694.245                    88755872.101    21377530.707  
  21377526.184  
  22990914.859   122554533.181                    95320197.963    22990919.141  
  22990914.293  
 21  8 16 23 35 10.0000000  0 16G 6R 7G17G15G13G14R16G24R17R 6G12G19
                                R15R24R18R14
  23966151.625   125942978.952    23966160.875    98137419.4984   23966161.461  
                
  23214435.625   124268692.377                    96653415.631    23214440.039  
  23214434.562  
  21470627.359   112828923.486    21470633.582    87918679.6104   21470633.508  
                
  22701004.461   119294582.030    22701011.066    92956850.6704   22701010.824  
                
  22811443.086   119874953.478    22811448.812    93409084.0254                 
                
  22855479.469   120106393.796    22855485.984    93589435.6824   22855486.117  
                
  20878981.445   111531779.556                    86746929.506    20878983.102  
  20878980.953  
  21020560.938   110463791.195    21020569.469    86075731.7054   21020569.574  
                
  19854044.695   106243015.372                    82633453.717    19854047.820  
  19854042.664  
  22128480.742   118081784.710                                                  
  22128478.391  
  23527285.641   123636724.007    23527291.598    96340335.1704   23527291.957  
                
  20313654.312   106748984.449    20313658.770    83181052.8884                 
                
  19812724.797   105873213.184                    82345842.421    19812728.844  
  19812724.777  
  22418732.203   119883048.352                    93242379.689    22418736.148  
  22418730.965  
  21370128.125   114075195.863                    88725151.146    21370131.375  
  21370126.824  
  22996516.039   122584390.198                    95343420.087    22996520.254  
  22996515.430  
 21  8 16 23 35 20.0000000  0 16G 6R 7G17G15G13G14R16G24R17R 6G12G19
                                R15R24R18R14
  23959959.820   125910440.893    23959969.098    98112065.1814   23959969.684  
                
  23211477.602   124252857.661                    96641099.739    23211481.957  
  23211476.605  
  21474151.250   112847441.648    21474157.449    87933109.3464   21474157.383  
                
  22706011.359   119320893.460    22706017.957    92977353.0924   22706017.715  
                
  22817958.742   119909193.407    22817964.465    93435764.4894                 
                
  22860583.219   120133214.077    22860589.762    93610334.6084   22860589.852  
                
  20874425.281   111507441.329                    86727999.753    20874426.914  
  20874424.793  
  21016883.898   110444468.226    21016892.441    86060674.8514   21016892.527  
                
  19853170.141   106238335.445                    82629813.775    19853173.293  
  19853168.113  
  22131861.938   118099827.664                                                  
  22131859.590  
  23521627.320   123606989.714    23521633.336    96317165.6054   23521633.688  
                
  20313089.617   106746016.931    20313094.086    83178740.5384                 
                
  19814245.211   105881337.822                    82352161.572    19814249.273  
  19814245.191  
  22424777.266   119915374.035                    93267521.886    22424781.207  
  22424776.043  
  21362737.273   114035742.997                    88694465.600    21362740.531  
  21362735.953  
  23002120.578   122614265.340                    95366656.309    23002124.777  
  23002119.969  
 21  8 16 23 35 30.0000000  0 16G 6R 7G17G15G13G14R16G24R17R 6G12G19
                                R15R24R18R14
  23953770.539   125877916.417    23953779.914    98086721.4524   23953780.500  
                
  23208534.312   124237101.883                    96628845.258    23208538.602  
  23208533.340  
  21477683.867   112866005.725    21477690.051    87947574.8624   21477689.977  
                
  22711025.477   119347242.870    22711032.062    92997885.0904   22711031.824  
                
  22824479.219   119943458.621    22824484.980    93462464.6634                 
                
  22865689.359   120160046.997    22865695.875    93631243.3674   22865695.973  
                
  20869873.094   111483124.412                    86709086.595    20869874.715  
  20869872.609  
  21013215.312   110425189.657    21013223.859    86045652.5824   21013223.941  
                
  19852313.203   106233749.853                    82626247.206    19852316.363  
  19852311.184  
  22135257.000   118117944.397                                                  
  22135254.605  
  23515971.992   123577271.004    23515978.059    96294008.1754   23515978.383  
                
  20312537.945   106743117.935    20312542.422    83176481.5774                 
                
  19815773.008   105889501.919                    82358511.424    19815777.082  
  19815772.984  
  22430833.094   119947757.287                    93292708.851    22430837.059  
  22430831.871  
  21355354.922   113996335.953                    88663815.697    21355358.266  
  21355353.602  
  23007728.523   122644158.612                    95389906.616    23007732.711  
  23007727.898  
 21  8 16 23 35 40.0000000  0 16G 6R 7G17G15G13G14R16G24R17R 6G12G19
                                R15R24R18R14
  23947583.969   125845405.487    23947593.281    98061388.2594   23947593.875  
                
  23205605.719   124221424.842                    96616652.046    23205609.996  
  23205604.770  
  21481225.180   112884615.431    21481231.340    87962075.9294   21481231.266  
                
  22716046.781   119373629.981    22716053.352    93018446.4734   22716053.113  
                
  22831004.461   119977748.750    22831010.285    93489184.2364                 
                
  22870797.867   120186892.319    22870804.352    93652161.7904   22870804.480  
                
  20865324.867   111458828.596                    86690189.860    20865326.473  
  20865324.375  
  21009555.156   110405955.322    21009563.703    86030664.7904   21009563.766  
                
  19851473.812   106229258.108                    82622753.633    19851476.984  
  19851471.801  
  22138665.781   118136134.352                                                  
  22138663.418  
  23510319.664   123547567.633    23510325.711    96270862.6874   23510326.035  
                
  20311999.281   106740287.214    20312003.762    83174275.8294                 
                
  19817308.148   105897705.245                    82364891.776    19817312.223  
  19817308.117  
  22436899.703   119980198.105                    93317940.588    22436903.688  
  22436898.477  
