     2.11           OBSERVATION DATA    M (MIXED)           RINEX VERSION / TYPE
EFT-CORS.RU                             20210817 150528 UTC PGM / RUN BY / DATE 
MDNG                                                        MARKER NAME         
                                                            MARKER NUMBER       
MDNG                EFT-CORS.RU                             OBSERVER / AGENCY   
0                   TRIMBLE BD970       2.0                 REC # / TYPE / VERS 
0                   UNKNOWN EXT NONE                        ANT # / TYPE        
  3463911.2830  3030468.2400  4402179.3760                  APPROX POSITION XYZ 
        0.0000        0.0000        0.0000                  ANTENNA: DELTA H/E/N
     1     1                                                WAVELENGTH FACT L1/2
     6    C1    L1    P2    L2    C2    P1                  # / TYPES OF OBSERV 
    10.000                                                  INTERVAL            
  2021     8    14     0    30    0.0000000     GPS         TIME OF FIRST OBS   
  2021     8    14     1    30    0.0000000     GPS         TIME OF LAST OBS    
     0                                                      RCV CLOCK OFFS APPL 
                                                            END OF HEADER       
 21  8 14  0 30  0.0000000  0 16G 6R23G17G15R 4G13G14R13R12G12R14G19
                                G 2G24R22R 3
  22534659.586   118420433.037    22534668.367    92275697.9764   22534668.742  
                
  20523934.742   109789228.783                                                  
  20523933.016  
  22608691.039   118809483.377    22608696.684    92578854.1814   22608696.754  
                
  24154533.266   126932944.261    24154540.230    98908817.5444   24154540.090  
                
  22847515.836   122347409.307                    95159092.873    22847518.789  
  22847514.949  
  24575373.508   129144477.132    24575380.188   100632088.6084                 
                
  24219151.062   127272514.435    24219157.496    99173427.8974   24219157.582  
                
  19720532.469   105306558.622                    81905124.822    19720534.695  
  19720530.758  
  20398213.836   108963610.923                    84749476.200    20398217.215  
  20398213.316  
  22185441.922   116585289.446    22185447.746    90845714.6824   22185447.906  
                
  23249190.141   123931262.986                    96390978.627    23249194.371  
  23249189.707  
  20578520.320   108140869.132    20578524.145    84265636.7044                 
                
  23785927.055   124995887.862    23785931.324    97399414.9334                 
                
  20390173.703   107151099.589    20390181.902    83494404.2484   20390182.125  
                
  20331536.844   108531139.239                    84413116.377    20331538.734  
  20331535.207  
  23393772.469   125228685.779                    97400084.511    23393777.293  
  23393771.402  
 21  8 14  0 30 10.0000000  0 16G 6R23G17G15R 4G13G14R13R12G12R14G19
                                G 2G24R22R 3
  22529844.539   118395129.786    22529853.293    92255981.1574   22529853.684  
                
  20517750.078   109756145.078                                                  
  20517748.336  
  22613932.625   118837028.103    22613938.301    92600317.6044   22613938.332  
                
  24160692.758   126965312.625    24160699.762    98934039.6574   24160699.598  
                
  22848989.125   122355298.604                    95165228.974    22848992.039  
  22848988.277  
  24582449.039   129181658.910    24582455.672   100661061.4374                 
                
  24224712.039   127301737.280    24224718.418    99196198.9334   24224718.527  
                
  19717880.812   105292398.894                    81894111.705    19717883.039  
  19717879.082  
  20401668.109   108982062.992                    84763827.808    20401671.484  
  20401667.621  
  22180670.008   116560212.895    22180675.859    90826174.5254   22180676.016  
                
  23242733.195   123896843.504                    96364207.915    23242737.355  
  23242732.781  
  20581094.328   108154395.623    20581098.145    84276176.8344                 
                
  23779838.766   124963893.919    23779843.109    97374484.6044                 
                
  20389055.086   107145221.221    20389063.285    83489823.7004   20389063.508  
                
  20335101.758   108550168.945                    84427917.260    20335103.625  
  20335100.137  
  23399988.859   125261962.701                    97425966.525    23399993.727  
  23399987.828  
 21  8 14  0 30 20.0000000  0 16G 6R23G17G15R 4G13G14R13R12G12R14G19
                                G 2G24R22R 3
  22525037.672   118369869.608    22525046.434    92236297.9114   22525046.836  
                
  20511577.273   109723124.764                                                  
  20511575.539  
  22619178.906   118864597.544    22619184.609    92621800.2854   22619184.598  
                
  24166854.039   126997690.451    24166861.062    98959269.1294   24166860.906  
                
  22850477.609   122363269.288                    95171428.402    22850480.500  
  22850476.816  
  24589524.219   129218838.703    24589530.785   100690032.6884                 
                
  24230274.305   127330966.878    24230280.629    99218975.2494   24230280.762  
                
  19715236.602   105278279.007                    81883129.574    19715238.836  
  19715234.871  
  20405130.242   109000557.005                    84778212.033    20405133.617  
  20405129.770  
  22175902.117   116535157.509    22175907.992    90806650.8614   22175908.145  
                
  23236275.977   123862422.657                    96337436.139    23236280.062  
  23236275.559  
  20583679.391   108167980.214    20583683.207    84286762.2304                 
                
  23773753.383   124931915.276    23773757.730    97349566.1834                 
                
  20387947.734   107139402.039    20387955.945    83485289.2754   20387956.164  
                
  20338682.180   108569281.424                    84442782.512    20338684.043  
  20338680.547  
  23406211.414   125295272.475                    97451874.121    23406216.281  
  23406210.383  
 21  8 14  0 30 30.0000000  0 16G 6R23G17G15R 4G13G14R13R12G12R14G19
                                G 2G24R22R 3
  22520239.078   118344652.806    22520247.840    92216648.4634   22520248.227  
                
  20505416.375   109690168.153                                                  
  20505414.664  
  22624429.898   118892191.742    22624435.605    92643302.2554   22624435.586  
                
  24173017.102   127030077.602    24173024.168    98984505.8674   24173024.008  
                
  22851981.305   122371321.488                    95177691.229    22851984.184  
  22851980.512  
  24596598.961   129256016.504    24596605.523   100719002.4084                 
                
  24235837.859   127360203.287    24235844.148    99241756.8454   24235844.301  
                
  19712599.930   105264199.313                    81872178.694    19712602.180  
  19712598.211  
  20408600.273   109019093.204                    84792629.076    20408603.629  
  20408599.809  
  22171138.266   116510123.301    22171144.168    90787143.6834   22171144.297  
                
  23229818.523   123828000.804                    96310663.595    23229822.602  
  23229818.148  
  20586275.516   108181622.936    20586279.348    84297392.9254                 
                
  23767670.969   124899952.168    23767675.270    97324659.8704                 
                
  20386851.688   107133642.284    20386859.918    83480801.1534   20386860.117  
                
  20342278.102   108588476.715                    84457712.201    20342279.973  
  20342276.488  
  23412440.141   125328614.976                    97477807.192    23412444.945  
  23412439.031  
 21  8 14  0 30 40.0000000  0 16G 6R23G17G15R 4G13G14R13R12G12R14G19
                                G 2G24R22R 3
  22515448.719   118319479.282    22515457.477    92197032.7294   22515457.848  
                
  20499267.398   109657275.313                                                  
  20499265.707  
  22629685.531   118919810.355    22629691.242    92664823.2594   22629691.238  
                
  24179181.953   127062473.825    24179189.020    99009749.6924   24179188.855  
                
  22853500.141   122379454.804                    95184017.114    22853503.023  
  22853499.305  
  24603673.180   129293191.937    24603679.820   100747970.2754                 
                
  24241402.633   127389446.243    24241408.945    99264543.5634   24241409.051  
                
  19709970.727   105250159.534                    81861258.864    19709972.965  
  19709969.012  
  20412078.117   109037671.199                    84807078.632    20412081.484  
  20412077.668  
  22166378.398   116485110.063    22166384.324    90767652.8514   22166384.430  
                
  23223360.844   123793577.592                    96283889.977    23223364.867  
  23223360.480  
  20588882.633   108195323.423    20588886.488    84308068.6314                 
                
  23761591.586   124868004.434    23761595.703    97299765.5254                 
                
  20385766.906   107127941.717    20385775.164    83476359.1514   20385775.336  
                
  20345889.438   108607754.291                    84472705.876    20345891.344  
  20345887.793  
  23418674.953   125361989.932                    97503765.508    23418679.668  
  23418673.789  
 21  8 14  0 30 50.0000000  0 16G 6R23G17G15R 4G13G14R13R12G12R14G19
                                G 2G24R22R 3
  22510666.672   118294349.530    22510675.453    92177451.1094   22510675.793  
                
  20493130.391   109624446.526                                                  
  20493128.691  
  22634945.875   118947453.656    22634951.590    92686363.4924   22634951.590  
                
  24185348.586   127094879.413    24185355.660    99035000.8014   24185355.449  
                
  22855034.203   122387669.633                    95190406.416    22855037.082  
  22855033.367  
  24610747.062   129330365.358    24610753.715   100776936.5634                 
                
  24246968.688   127418696.128    24246975.043    99287335.6744   24246975.125  
                
  19707349.164   105236160.490                    81850370.712    19707351.391  
  19707347.453  
  20415563.891   109056291.550                    84821561.112    20415567.258  
  20415563.434  
  22161622.555   116460117.992    22161628.465    90748178.5184   22161628.562  
                
  23216902.984   123759153.550                    96257115.738    23216907.016  
  23216902.621  
  20591500.797   108209082.020    20591504.668    84318789.6144                 
                
  23755515.312   124836072.578    23755519.184    97274883.5544                 
                
  20384693.461   107122300.741    20384701.750    83471963.5884   20384701.898  
                
  20349516.266   108627114.582                    84487763.883    20349518.152  
  20349514.645  
  23424915.906   125395397.473                    97529749.123    23424920.473  
  23424914.652  
 21  8 14  0 31  0.0000000  0 16G 6R23G17G15R 4G13G14R13R12G12R14G19
                                G 2G24R22R 3
  22505892.953   118269263.528    22505901.746    92157903.5734   22505902.094  
                
  20487005.406   109591682.034                                                  
  20487003.703  
  22640210.891   118975121.527    22640216.633    92707922.8664   22640216.605  
                
  24191516.875   127127294.111    24191524.016    99060259.0044   24191523.773  
                
  22856583.453   122395965.705                    95196858.922    22856586.312  
  22856582.664  
  24617820.422   129367536.548    24617827.160   100805901.1404                 
                
  24252536.039   127447952.846    24252542.387    99310133.0964   24252542.469  
                
  19704735.172   105222201.892                    81839514.024    19704737.379  
  19704733.453  
  20419057.547   109074954.003                    84836076.358    20419060.898  
  20419057.102  
  22156870.805   116435147.378    22156876.715    90728720.9014   22156876.812  
                
  23210444.961   123724728.517                    96230340.719    23210448.930  
  23210444.602  
  20594129.977   108222898.440    20594133.871    84329555.6554                 
                
  23749442.047   124804156.670    23749445.762    97250014.0004                 
                
  20383631.352   107116719.314    20383639.672    83467614.4224   20383639.793  
                
  20353158.602   108646557.551                    84502886.187    20353160.477  
  20353156.965  
  23431162.766   125428837.277                    97555757.864    23431167.332  
  23431161.539  
 21  8 14  0 31 10.0000000  0 16G 6R23G17G15R 4G13G14R13R12G12R14G19
                                G 2G24R22R 3
  22501127.586   118244221.326    22501136.391    92138390.1744   22501136.746  
                
  20480892.422   109558981.740                                                  
  20480890.699  
  22645480.547   119002813.780    22645486.320    92729501.2484   22645486.258  
                
  24197686.875   127159717.664    24197694.059    99085524.1064   24197693.793  
                
  22858147.883   122404342.981                    95203374.582    22858150.762  
  22858147.125  
  24624893.430   129404705.267    24624900.125   100834863.7844                 
                
  24258104.711   127477216.243    24258110.969    99332935.7504   24258111.094  
                
  19702128.781   105208283.854                    81828688.885    19702130.984  
  19702127.059  
  20422559.078   109093658.578                    84850624.366    20422562.426  
  20422558.625  
  22152123.125   116410198.184    22152129.051    90709279.9784   22152129.129  
                
  23203986.742   123690302.627                    96203565.007    23203990.668  
  23203986.414  
  20596770.133   108236772.570    20596774.062    84340366.6684                 
                
  23743371.789   124772256.586    23743375.383    97225156.7904                 
                
  20382580.555   107111197.384    20382588.910    83463311.6184   20382589.016  
                
  20356816.281   108666082.565                    84518072.312    20356818.156  
  20356814.656  
  23437415.641   125462309.142                    97581791.523    23437420.203  
  23437414.430  
 21  8 14  0 31 20.0000000  0 16G 6R23G17G15R 4G13G14R13R12G12R14G19
                                G 2G24R22R 3
  22496370.555   118219222.984    22496379.402    92118910.9554   22496379.762  
                
  20474791.461   109526345.764                                                  
  20474789.742  
  22650754.805   119030530.242    22650760.594    92751098.4974   22650760.531  
                
  24203858.523   127192150.026    24203865.746    99110796.0894   24203865.465  
                
  22859727.422   122412801.332                    95209953.298    22859730.305  
  22859726.695  
  24631965.961   129441871.443    24631972.617   100863824.4264                 
                
  24263674.625   127506486.298    24263680.840    99355743.5954   24263681.035  
                
  19699529.953   105194406.287                    81817895.222    19699532.176  
  19699528.219  
  20426068.508   109112405.304                    84865205.143    20426071.836  
  20426068.059  
  22147379.508   116385270.335    22147385.449    90689855.6934   22147385.527  
                
  23197528.344   123655875.807                    96176788.603    23197532.285  
  23197528.016  
  20599421.250   108250704.328    20599425.223    84351222.5874                 
                
  23737304.547   124740372.457    23737308.043    97200312.0234                 
                
  20381541.086   107105734.939    20381549.473    83459055.1714   20381549.570  
                
  20360489.359   108685689.731                    84533322.341    20360491.250  
  20360487.734  
  23443674.414   125495812.876                    97607849.982    23443679.047  
  23443673.215  
 21  8 14  0 31 30.0000000  0 17G 6R23G17G15R 4G13G14R13R12G12R14G19
                                G 2R24G24R22R 3
  22491621.922   118194268.717    22491630.828    92099466.0854   22491631.176  
                
  20468702.602   109493774.436                                                  
  20468700.891  
  22656033.695   119058271.008    22656039.512    92772714.6664   22656039.441  
                
  24210031.914   127224591.179    24210039.070    99136074.9084   24210038.812  
                
  22861322.094   122421340.736                    95216595.089    22861324.973  
  22861321.348  
  24639037.930   129479035.112    24639044.621   100892783.1294                 
                
  24269245.836   127535763.119    24269252.062    99378556.6974   24269252.277  
                
  19696938.742   105180569.302                    81807133.118    19696940.961  
  19696937.008  
  20429585.836   109131194.179                    84879818.700    20429589.145  
  20429585.387  
  22142639.977   116360363.890    22142645.934    90670448.0764   22142645.988  
                
  23191069.789   123621448.147                    96150011.541    23191073.734  
  23191069.418  
  20602083.359   108264693.818    20602087.387    84362123.4824                 
                
  23731240.352   124708504.516    23731243.809    97175479.8624                 
                
  23550520.680   125935219.001                    97949615.961    23550525.723  
  23550520.086  
  20380512.969   107100332.134    20380521.383    83454845.1944   20380521.465  
                
  20364177.828   108705378.973                    84548636.185    20364179.707  
  20364176.207  
  23449939.141   125529348.382                    97633933.129    23449943.824  
  23449937.898  
 21  8 14  0 31 40.0000000  0 17G 6R23G17G15R 4G13G14R13R12G12R14G19
                                G 2R24G24R22R 3
  22486881.672   118169358.638    22486890.605    92080055.6264   22486890.965  
                
  20462625.820   109461267.806                                                  
  20462624.109  
  22661317.172   119086035.904    22661323.035    92794349.6464   22661322.938  
                
  24216206.914   127257041.019    24216214.078    99161360.5004   24216213.832  
                
  22862931.883   122429961.129                    95223299.808    22862934.758  
  22862931.082  
  24646109.367   129516196.105    24646116.102   100921739.7554                 
                
  24274818.297   127565046.621    24274824.551    99401374.9934   24274824.754  
                
  19694355.133   105166772.992                    81796402.655    19694357.352  
  19694353.398  
  20433111.039   109150025.154                    84894465.013    20433114.352  
  20433110.582  
  22137904.508   116335478.882    22137910.480    90651057.1604   22137910.512  
                
  23184611.078   123587019.773                    96123233.950    23184615.059  
  23184610.652  
  20604756.422   108278740.893    20604760.508    84373069.2504                 
                
  23725179.258   124676652.781    23725182.676    97150660.3354                 
                
  23541942.203   125889345.868                    97913936.854    23541947.203  
  23541941.621  
  20379496.195   107094988.975    20379504.641    83450681.6954   20379504.699  
                
  20367881.656   108725150.275                    84564013.872    20367883.555  
  20367880.035  
  23456209.898   125562915.560                    97660040.925    23456214.461  
  23456208.551  
 21  8 14  0 31 50.0000000  0 17G 6R23G17G15R 4G13G14R13R12G12R14G19
                                G 2R24G24R22R 3
  22482149.836   118144492.677    22482158.777    92060679.5444   22482159.148  
                
  20456561.141   109428825.812                                                  
  20456559.410  
  22666605.219   119113824.776    22666611.109    92816003.3124   22666611.008  
                
  24222383.531   127289499.249    24222390.668    99186652.6354   24222390.438  
                
  22864556.812   122438662.505                    95230067.535    22864559.660  
  22864555.996  
  24653180.250   129553354.117    24653186.996   100950694.0434                 
                
  24280392.023   127594336.679    24280398.297    99424198.4054   24280398.469  
                
  19691779.133   105153017.261                    81785703.761    19691781.340  
  19691777.398  
  20436644.086   109168898.038                    84909143.915    20436647.414  
  20436643.637  
  22133173.094   116310615.181    22133179.074    90631682.8764   22133179.121  
                
  23178152.242   123552590.542                    96096455.669    23178156.250  
  23178151.797  
  20607440.414   108292845.372    20607444.539    84384059.7544                 
                
  23719121.188   124644817.176    23719124.613    97125853.3684                 
                
  23533365.398   125843481.850                    97878264.835    23533370.371  
  23533364.805  
  20378490.758   107089705.372    20378499.230    83446564.5994   20378499.273  
                
  20371600.797   108745003.354                    84579455.149    20371602.719  
  20371599.156  
  23462486.375   125596513.905                    97686172.972    23462490.934  
  23462485.023  
 21  8 14  0 32  0.0000000  0 17G 6R23G17G15R 4G13G14R13R12G12R14G19
                                G 2R24G24R22R 3
  22477426.406   118119670.967    22477435.344    92041337.9504   22477435.734  
                
  20450508.562   109396448.676                                                  
  20450506.836  
  22671897.820   119141637.593    22671903.707    92837675.6354   22671903.625  
                
  24228561.758   127321965.739    24228568.844    99211951.2014   24228568.621  
                
  22866196.805   122447444.525                    95236897.993    22866199.633  
  22866195.992  
  24660250.648   129590509.114    24660257.301   100979645.9934                 
                
  24285966.953   127623633.279    24285973.227    99447026.9334   24285973.379  
                
  19689210.766   105139302.343                    81775036.602    19689212.992  
  19689209.023  
  20440185.023   109187813.086                    84923855.618    20440188.340  
  20440184.574  
  22128445.742   116285772.801    22128451.688    90612325.1804   22128451.754  
                
  23171693.211   123518160.391                    96069676.685    23171697.250  
  23171692.773  
  20610135.312   108307007.212    20610139.473    84395094.9464                 
                
  23713066.172   124612997.975    23713069.664    97101059.1794                 
                
  23524790.312   125797626.915                    97842599.864    23524795.203  
  23524789.688  
  20377496.656   107084481.348    20377505.152    83442493.9304   20377505.184  
                
  20375335.219   108764937.957                    84594959.831    20375337.188  
  20375333.562  
  23468768.594   125630143.390                    97712329.237    23468773.234  
  23468767.297  
 21  8 14  0 32 10.0000000  0 17G 6R23G17G15R 4G13G14R13R12G12R14G19
                                G 2R24G24R22R 3
  22472711.406   118094893.564    22472720.348    92022030.9044   22472720.754  
                
  20444468.133   109364136.522                                                  
  20444466.422  
  22677194.969   119169474.272    22677200.855    92859366.5494   22677200.785  
                
  24234741.555   127354440.449    24234748.629    99237256.1504   24234748.383  
                
  22867851.875   122456307.237                    95243791.233    22867854.703  
  22867851.117  
  24667320.398   129627661.016    24667327.020   101008595.5084                 
                
  24291543.117   127652936.387    24291549.352    99469860.4944   24291549.570  
                
  19686650.109   105125628.551                    81764401.432    19686652.352  
  19686648.387  
  20443733.805   109206769.991                    84938599.873    20443737.117  
  20443733.348  
  22123722.438   116260951.740    22123728.352    90592984.0884   22123728.430  
                
  23165234.031   123483729.490                    96042897.123    23165238.105  
  23165233.586  
  20612841.109   108321226.307    20612845.305    84406174.7594                 
                
  23707014.266   124581195.115    23707017.836    97076277.7404                 
                
  23516217.031   125751781.229                    97806942.090    23516221.805  
  23516216.320  
  20376513.898   107079316.925    20376522.402    83438469.7024   20376522.430  
                
  20379084.906   108784954.007                    84610527.880    20379086.863  
  20379083.234  
  23475056.570   125663803.745                    97738509.518    23475061.309  
  23475055.277  
 21  8 14  0 32 20.0000000  0 17G 6R23G17G15R 4G13G14R13R12G12R14G19
                                G 2R24G24R22R 3
  22468004.930   118070160.843    22468013.871    92002758.6504   22468014.281  
                
  20438439.938   109331889.699                                                  
  20438438.238  
  22682496.672   119197334.860    22682502.570    92881076.0984   22682502.496  
                
  24240922.953   127386923.439    24240929.969    99262567.5784   24240929.715  
                
  22869522.023   122465250.753                    95250747.307    22869524.852  
  22869521.270  
  24674389.641   129664809.884    24674396.145   101037542.6704                 
                
  24297120.539   127682246.180    24297126.758    99492699.2814   24297127.055  
                
  19684097.078   105111995.539                    81753797.985    19684099.344  
  19684095.359  
  20447290.484   109225769.116                    84953376.965    20447293.789  
  20447290.035  
  22119003.211   116236152.133    22119009.125    90573659.7424   22119009.215  
                
  23158774.828   123449298.191                    96016117.235    23158778.914  
  23158774.387  
  20615557.828   108335502.793    20615562.051    84417299.2914                 
                
  23700965.516   124549408.968    23700969.203    97051509.3534                 
                
  23507645.602   125705945.194                    97771291.822    23507650.242  
  23507644.762  
  20375542.531   107074212.367    20375551.043    83434492.1244   20375551.062  
                
  20382849.875   108805051.675                    84626159.402    20382851.863  
  20382848.164  
  23481350.266   125697495.155                    97764713.932    23481355.215  
  23481349.051  
 21  8 14  0 32 30.0000000  0 17G 6R23G17G15R 4G13G14R13R12G12R14G19
                                G 2R24G24R22R 3
  22463306.906   118045472.669    22463315.863    91983521.1254   22463316.266  
                
  20432423.898   109299707.986                                                  
  20432422.195  
  22687802.852   119225219.059    22687808.773    92902804.0424   22687808.711  
                
  24247105.719   127419414.290    24247112.785    99287885.1184   24247112.531  
                
  22871207.172   122474274.792                    95257765.980    22871209.988  
  22871206.363  
  24681458.148   129701955.461    24681464.641   101066487.2754                 
                
  24302699.219   127711562.466    24302705.430    99515543.1474   24302705.777  
                
  19681551.758   105098403.686                    81743226.540    19681554.023  
  19681550.043  
  20450855.008   109244810.259                    84968186.746    20450858.316  
  20450854.547  
  22114288.062   116211373.897    22114293.961    90554352.0244   22114294.051  
                
  23152315.461   123414866.211                    95989336.812    23152319.531  
  23152315.039  
  20618285.406   108349836.371    20618289.633    84428468.3104                 
                
  23694919.898   124517639.508    23694923.719    97026753.9384                 
                
  23499075.938   125660118.948                    97735649.178    23499080.492  
  23499075.000  
  20374582.523   107069167.513    20374591.047    83430561.0674   20374591.066  
                
  20386630.039   108825230.520                    84641854.051    20386632.031  
  20386628.324  
  23487649.695   125731217.361                    97790942.341    23487654.816  
  23487648.586  
 21  8 14  0 32 40.0000000  0 17G 6R23G17G15R 4G13G14R13R12G12R14G19
                                G 2R24G24R22R 3
  22458617.445   118020829.413    22458626.387    91964318.5834   22458626.793  
                
  20426420.141   109267591.882                                                  
  20426418.438  
  22693113.547   119253126.916    22693119.492    92924550.4174   22693119.434  
                
  24253290.070   127451913.160    24253297.125    99313208.9024   24253296.879  
                
  22872907.438   122483379.596                    95264847.489    22872910.230  
  22872906.637  
  24688526.094   129739097.803    24688532.574   101095429.3714                 
                
  24308279.195   127740885.435    24308285.383    99538392.1854   24308285.754  
                
  19679014.172   105084853.027                    81732687.136    19679016.434  
  19679012.465  
  20454427.469   109263893.684                    84983029.410    20454430.762  
  20454426.996  
  22109577.055   116186617.395    22109582.945    90535061.2524   22109583.047  
                
  23145856.070   123380433.853                    95962556.110    23145860.137  
  23145855.629  
  20621023.883   108364227.189    20621028.098    84439681.9364                 
                
  23688877.562   124485886.918    23688881.418    97002011.6694                 
                
  23490508.047   125614302.601                    97700014.237    23490512.617  
  23490507.090  
  20373633.930   107064182.621    20373642.465    83426676.7364   20373642.477  
                
  20390425.484   108845490.779                    84657612.040    20390427.539  
  20390423.785  
  23493954.781   125764970.238                    97817194.576    23493960.121  
  23493953.832  
 21  8 14  0 32 50.0000000  0 17G 6R23G17G15R 4G13G14R13R12G12R14G19
                                G 2R24G24R22R 3
  22453936.508   117996230.990    22453945.422    91945150.9804   22453945.840  
                
  20420428.625   109235541.369                                                  
  20420426.926  
  22698428.711   119281058.252    22698434.652    92946315.1014   22698434.605  
                
  24259475.891   127484419.886    24259482.938    99338538.8194   24259482.699  
                
  22874622.703   122492564.746                    95271991.495    22874625.477  
  22874621.895  
  24695593.367   129776236.714    24695599.844   101124368.7634                 
                
  24313860.422   127770214.917    24313866.605    99561246.3204   24313866.988  
                
  19676484.305   105071343.672                    81722179.862    19676486.547  
  19676482.594  
  20458007.789   109283019.102                    84997904.724    20458011.059  
  20458007.305  
  22104870.141   116161882.424    22104876.047    90515787.2584   22104876.160  
                
  23139396.555   123346000.945                    95935774.954    23139400.590  
  23139396.090  
  20623773.227   108378675.055    20623777.414    84450940.0154                 
                
  23682838.484   124454151.259    23682842.285    96977282.5884                 
                
  23481942.000   125568496.244                    97664387.074    23481946.586  
  23481941.047  
  20372696.719   107059257.538    20372705.254    83422839.0104   20372705.266  
                
  20394236.086   108865832.000                    84673432.982    20394238.090  
  20394234.375  
  23500265.695   125798753.349                    97843470.320    23500271.055  
  23500264.789  
 21  8 14  0 33  0.0000000  0 17G 6R23G17G15R 4G13G14R13R12G12R14G19
                                G 2R24G24R22R 3
  22449264.102   117971677.419    22449272.957    91926018.3264   22449273.410  
                
  20414449.367   109203556.423                                                  
  20414447.680  
  22703748.328   119309012.995    22703754.262    92968098.0174   22703754.215  
                
  24265663.195   127516934.222    24265670.215    99363874.6604   24265669.945  
                
  22876352.961   122501830.190                    95279197.964    22876355.672  
  22876352.152  
  24702659.961   129813371.986    24702666.430   101153305.3544                 
                
  24319442.891   127799550.776    24319449.043    99584105.4264   24319449.441  
                
  19673962.109   105057875.297                    81711704.466    19673964.355  
  19673960.387  
  20461595.945   109302186.422                    85012812.638    20461599.203  
  20461595.449  
  22100167.297   116137168.894    22100173.242    90496529.9744   22100173.344  
                
  23132936.906   123311567.451                    95908993.352    23132940.914  
  23132936.441  
  20626533.375   108393179.753    20626537.531    84462242.3864                 
                
  23676802.688   124422432.534    23676806.348    96952566.6954                 
                
  23473377.766   125522699.714                    97628767.555    23473382.398  
  23473376.855  
  20371770.875   107054392.204    20371779.410    83419047.8434   20371779.426  
                
  20398061.828   108886254.128                    84689316.856    20398063.844  
  20398060.133  
  23506582.406   125832566.680                    97869769.579    23506587.570  
  23506581.406  
 21  8 14  0 33 10.0000000  0 17G 6R23G17G15R 4G13G14R13R12G12R14G19
                                G 2R24G24R22R 3
  22444600.258   117947168.842    22444609.059    91906920.7374   22444609.539  
                
  20408482.414   109171637.277                                                  
  20408480.711  
  22709072.398   119336991.112    22709078.309    92989899.1394   22709078.273  
                
  24271851.969   127549456.155    24271858.914    99389216.4484   24271858.656  
                
  22878098.211   122511175.870                    95286466.817    22878100.895  
  22878097.441  
  24709725.867   129850503.561    24709732.336   101182239.0314                 
                
  24325026.594   127828893.083    24325032.715    99606969.5514   24325033.105  
                
  19671447.664   105044448.279                    81701261.225    19671449.918  
  19671445.941  
  20465191.977   109321395.796                    85027753.263    20465195.211  
  20465191.477  
  22095468.531   116112476.798    22095474.504    90477289.3884   22095474.602  
                
  23126477.195   123277133.563                    95882211.447    23126481.160  
  23126476.727  
  20629304.352   108407741.290    20629308.480    84473589.0434                 
                
  23670770.172   124390730.956    23670773.648    96927864.1494                 
                
  23464815.352   125476913.362                    97593155.939    23464820.105  
  23464814.543  
  20370856.422   107049586.741    20370864.965    83415303.3234   20370864.984  
                
  20401902.734   108906757.058                    84705263.581    20401904.770  
  20401901.023  
  23512904.484   125866409.845                    97896092.067    23512909.719  
  23512903.480  
 21  8 14  0 33 20.0000000  0 17G 6R23G17G15R 4G13G14R13R12G12R14G19
                                G 2R24G24R22R 3
  22439945.023   117922705.459    22439953.785    91887858.3624   22439954.285  
                
  20402527.797   109139784.091                                                  
  20402526.105  
  22714400.891   119364992.465    22714406.754    93011718.3834   22714406.750  
                
  24278042.141   127581985.613    24278049.004    99414564.0854   24278048.781  
                
  22879858.461   122520601.893                    95293798.171    22879861.156  
  22879857.660  
  24716791.117   129887631.402    24716797.562   101211169.8184                 
                
  24330611.547   127858241.874    24330617.637    99629838.7384   24330618.008  
                
  19668941.047   105031062.978                    81690850.433    19668943.297  
  19668939.312  
  20468795.914   109340647.325                    85042726.672    20468799.125  
  20468795.422  
  22090773.891   116087806.325    22090779.867    90458065.6554   22090779.988  
                
  23120017.430   123242699.396                    95855429.317    23120021.340  
  23120016.926  
  20632086.125   108422359.609    20632090.227    84484979.9474                 
                
  23664741.039   124359046.599    23664744.246    96903175.0304                 
                
  23456254.969   125431137.302                    97557552.346    23456259.750  
  23456254.152  
  20369953.383   107044841.210    20369961.918    83411605.5044   20369961.941  
                
  20405758.742   108927340.612                    84721273.021    20405760.750  
  20405757.023  
  23519232.102   125900282.915                    97922437.764    23519237.477  
  23519231.164  
 21  8 14  0 33 30.0000000  0 17G 6R23G17G15R 4G13G14R13R12G12R14G19
                                G 2R24G24R22R 3
  22435298.414   117898287.362    22435307.141    91868831.2724   22435307.676  
                
  20396585.539   109107996.963                                                  
  20396583.859  
  22719733.805   119393017.051    22719739.637    93033555.7194   22719739.645  
                
  24284233.617   127614522.340    24284240.496    99439917.3734   24284240.324  
                
  22881633.672   122530108.039                    95301191.839    22881636.375  
  22881632.871  
  24723855.555   129924755.475    24723862.043   101240097.6694                 
                
  24336197.734   127887597.112    24336203.793    99652712.9504   24336204.129  
                
  19666442.125   105017718.822                    81680471.658    19666444.375  
  19666440.410  
  20472407.711   109359940.871                    85057732.764    20472410.891  
  20472407.219  
  22086083.367   116063157.533    22086089.344    90438858.8224   22086089.480  
                
  23113557.531   123208264.858                    95828646.899    23113561.523  
  23113557.035  
  20634878.711   108437034.710    20634882.773    84496415.0934                 
                
  23658715.172   124327379.551    23658718.137    96878499.3724                 
                
  23447696.586   125385371.650                    97521956.829    23447701.344  
  23447695.754  
  20369061.750   107040155.655    20369070.277    83407954.4304   20369070.309  
                
  20409629.844   108948004.744                    84737345.128    20409631.852  
  20409628.117  
  23525565.297   125934185.695                    97948806.571    23525570.762  
  23525564.414  
 21  8 14  0 33 40.0000000  0 17G 6R23G17G15R 4G13G14R13R12G12R14G19
                                G 2R24G24R22R 3
  22430660.453   117873914.708    22430669.141    91849839.5844   22430669.711  
                
  20390655.672   109076276.135                                                  
  20390654.012  
  22725071.133   119421064.894    22725076.949    93055411.1794   22725076.953  
                
  24290426.484   127647066.402    24290433.422    99465276.3744   24290433.266  
                
  22883423.852   122539694.352                    95308647.819    22883426.551  
  22883423.043  
  24730919.398   129961875.675    24730925.789   101269022.5094                 
                
  24341785.172   127916958.841    24341791.191    99675592.2154   24341791.500  
                
  19663950.953   105004416.130                    81670125.116    19663953.199  
  19663949.254  
  20476027.367   109379276.439                    85072771.538    20476030.531  
  20476026.867  
  22081396.984   116038530.470    22081402.949    90419668.8994   22081403.078  
                
  23107097.641   123173830.289                    95801864.481    23107101.656  
  23107097.160  
  20637682.086   108451766.538    20637686.102    84507894.4354                 
                
  23652692.578   124295729.951    23652695.352    96853837.3344                 
                
  23439140.180   125339616.740                    97486369.689    23439144.941  
  23439139.328  
  20368181.547   107035530.152    20368190.059    83404350.1404   20368190.105  
                
  20413516.047   108968749.535                    84753479.975    20413518.023  
  20413514.332  
  23531904.125   125968118.057                    97975198.395    23531909.594  
  23531903.219  
 21  8 14  0 33 50.0000000  0 17G 6R23G17G15R 4G13G14R13R12G12R14G19
                                G 2R24G24R22R 3
  22426031.109   117849587.395    22426039.770    91830883.2384   22426040.363  
                
  20384738.180   109044621.560                                                  
  20384736.535  
  22730412.836   119449135.706    22730418.633    93077284.5434   22730418.633  
                
  24296620.781   127679617.487    24296627.680    99490640.8694   24296627.535  
                
  22885228.945   122549360.541                    95316166.000    22885231.625  
  22885228.164  
  24737982.398   129998991.932    24737988.766   101297944.2344                 
                
  24347373.805   127946326.856    24347379.816    99698476.3794   24347380.074  
                
  19661467.570   104991154.937                    81659810.850    19661469.816  
  19661465.875  
  20479654.898   109398654.036                    85087843.011    20479658.031  
  20479654.418  
  22076714.688   116013924.906    22076720.645    90400495.7354   22076720.773  
                
  23100637.664   123139395.258                    95775081.713    23100641.730  
  23100637.156  
  20640496.188   108466554.758    20640500.156    84519417.7234                 
                
  23646673.258   124264097.770    23646675.906    96829188.8624                 
                
  23430585.727   125293872.224                    97450790.597    23430590.461  
  23430584.855  
  20367312.742   107030964.572    20367321.238    83400792.5464   20367321.297  
                
  20417417.258   108989574.538                    84769677.192    20417419.191  
  20417415.531  
  23538248.555   126002079.675                    98001612.994    23538253.891  
  23538247.484  
 21  8 14  0 34  0.0000000  0 17G 6R23G17G15R 4G13G14R13R12G12R14G19
                                G 2R24G24R22R 3
  22421410.453   117825305.759    22421419.102    91811962.4934   22421419.711  
                
  20378833.133   109013033.515                                                  
  20378831.496  
  22735758.938   119477229.605    22735764.707    93099175.8964   22735764.711  
                
  24302816.453   127712175.804    24302823.312    99516010.9904   24302823.176  
                
  22887049.000   122559106.828                    95323746.454    22887051.711  
  22887048.199  
  24745044.625   130036104.047    24745050.957   101326862.8064                 
                
  24352963.648   127975701.380    24352969.664    99721365.6044   24352969.879  
                
  19658992.016   104977935.611                    81649529.162    19658994.246  
  19658990.305  
  20483290.320   109418073.773                    85102947.233    20483293.441  
  20483289.824  
  22072036.516   115989340.958    22072042.480    90381339.4274   22072042.594  
                
  23094177.727   123104960.113                    95748298.806    23094181.727  
  23094177.180  
  20643321.055   108481399.494    20643324.977    84530985.0514                 
                
  23640657.172   124232483.306    23640659.871    96804554.2034                 
                
  23422033.359   125248138.859                    97415220.191    23422038.023  
  23422032.492  
  20366455.391   107026459.157    20366463.863    83397281.8354   20366463.945  
                
  20421333.508   109010479.726                    84785936.788    20421335.492  
  20421331.773  
  23544598.344   126036070.500                    98028050.290    23544603.676  
  23544597.246  
 21  8 14  0 34 10.0000000  0 17G 6R23G17G15R 4G13G14R13R12G12R14G19
                                G 2R24G24R22R 3
  22416798.508   117801069.818    22416807.184    91793077.3484   22416807.785  
                
  20372940.531   108981512.064                                                  
  20372938.906  
  22741109.391   119505346.336    22741115.164    93121085.0324   22741115.176  
                
  24309013.406   127744741.066    24309020.305    99541386.5124   24309020.148  
                
  22888883.969   122568932.986                    95331389.010    22888886.680  
  22888883.129  
  24752106.016   130073211.889    24752112.320   101355778.0074                 
                
  24358554.633   128005082.256    24358560.719    99744259.7964   24358560.914  
                
  19656524.336   104964758.352                    81639280.168    19656526.605  
  19656522.637  
  20486933.594   109437535.467                    85118084.101    20486936.707  
  20486933.117  
  22067362.461   115964778.716    22067368.438    90362200.0234   22067368.531  
                
  23087717.766   123070524.979                    95721515.929    23087721.758  
  23087717.207  
  20646156.633   108496300.563    20646160.523    84542596.2744                 
                
  23634644.422   124200886.571    23634647.258    96779933.3844                 
                
  23413483.078   125202416.244                    97379658.144    23413487.641  
  23413482.176  
  20365609.469   107022013.824    20365617.930    83393817.9354   20365618.016  
                
  20425264.750   109031464.999                    84802258.662    20425266.734  
  20425263.020  
  23550953.609   126070090.368                    98054510.194    23550958.863  
  23550952.547  
 21  8 14  0 34 20.0000000  0 17G 6R23G17G15R 4G13G14R13R12G12R14G19
                                G 2R24G24R22R 3
  22412195.312   117776879.817    22412204.027    91774228.0024   22412204.598  
                
  20367060.430   108950057.498                                                  
  20367058.809  
  22746464.211   119533486.033    22746469.984    93143012.0744   22746469.984  
                
  24315211.633   127777313.324    24315218.605    99566767.4864   24315218.457  
                
  22890733.867   122578839.072                    95339093.744    22890736.598  
  22890733.047  
  24759166.547   130110315.375    24759172.867   101384689.8004                 
                
  24364146.828   128034469.676    24364153.043    99767159.0414   24364153.215  
                
  19654064.477   104951622.826                    81629063.656    19654066.750  
  19654062.809  
  20490584.789   109457039.451                    85133253.876    20490587.902  
  20490584.301  
  22062692.602   115940238.452    22062698.586    90343077.7554   22062698.660  
                
  23081257.820   123036089.867                    95694733.063    23081261.828  
  23081257.250  
  20649002.984   108511258.194    20649006.859    84554251.5824                 
                
  23628635.125   124169307.857    23628638.113    96755326.6014                 
                
  23404934.797   125156705.044                    97344104.973    23404939.398  
  23404933.973  
  20364775.023   107017628.767    20364783.477    83390401.0114   20364783.562  
                
  20429211.023   109052530.462                    84818642.909    20429213.004  
  20429209.281  
  23557314.258   126104139.263                    98080992.666    23557319.496  
  23557313.234  
 21  8 14  0 34 30.0000000  0 17G 6R23G17G15R 4G13G14R13R12G12R14G19
                                G 2R24G24R22R 3
  22407600.867   117752735.832    22407609.574    91755414.4934   22407610.133  
                
  20361192.820   108918669.788                                                  
  20361191.223  
  22751823.383   119561648.560    22751829.141    93164956.9014   22751829.137  
                
  24321411.148   127809892.383    24321418.199    99592153.7594   24321418.059  
                
  22892598.656   122588824.934                    95346860.510    22892601.395  
  22892597.859  
  24766226.273   130147414.442    24766232.582   101413598.1754                 
                
  24369740.250   128063863.524    24369746.578    99790063.3104   24369746.711  
                
  19651612.516   104938529.420                    81618879.899    19651614.762  
  19651610.840  
  20494243.852   109476585.516                    85148456.367    20494246.969  
  20494243.359  
  22058026.930   115915720.134    22058032.926    90323972.5764   22058032.980  
                
  23074797.930   123001654.957                    95667950.356    23074801.934  
  23074797.359  
  20651860.070   108526272.309    20651863.934    84565950.8884                 
                
  23622629.227   124137747.174    23622632.418    96730733.8864                 
                
  23396388.656   125111004.928                    97308560.435    23396393.207  
  23396387.820  
  20363952.039   107013303.943    20363960.488    83387031.0194   20363960.582  
                
  20433172.273   109073675.900                    84835089.373    20433174.273  
  20433170.559  
  23563680.344   126138216.884                    98107497.463    23563685.500  
  23563679.277  
 21  8 14  0 34 40.0000000  0 17G 6R23G17G15R 4G13G14R13R12G12R14G19
                                G 2R24G24R22R 3
  22403015.172   117728637.836    22403023.848    91736636.8394   22403024.422  
                
  20355337.742   108887349.082                                                  
  20355336.168  
  22757186.852   119589833.762    22757192.598    93186919.3994   22757192.598  
                
  24327611.961   127842478.054    24327619.066    99617545.1914   24327618.941  
                
  22894478.344   122598890.555                    95354689.319    22894481.113  
  22894477.520  
  24773285.148   130184509.026    24773291.418   101442503.0174                 
                
  24375334.891   128093263.684    24375341.285    99812972.5254   24375341.398  
                
  19649168.352   104925477.712                    81608728.573    19649170.574  
  19649166.676  
  20497910.797   109496173.664                    85163691.594    20497913.922  
  20497910.285  
  22053365.352   115891223.452    22053371.352    90304884.2614   22053371.402  
                
  23068338.008   122967219.980                    95641167.642    23068342.043  
  23068337.414  
  20654727.875   108541342.705    20654731.730    84577694.0574                 
                
  23616626.742   124106204.590    23616630.164    96706155.2694                 
                
  23387844.688   125065316.404                    97273024.929    23387849.188  
  23387843.816  
  20363140.508   107009039.331    20363148.953    83383707.9424   20363149.031  
                
  20437148.484   109094901.156                    84851597.913    20437150.473  
  20437146.793  
  23570051.719   126172323.067                    98134024.475    23570056.859  
  23570050.629  
 21  8 14  0 34 50.0000000  0 16G 6R23G17G15R 4G14R13R12G12R14G19G 2
                                R24G24R22R 3
  22398438.195   117704585.621    22398446.863    91717894.8494   22398447.441  
                
  20349495.156   108856095.152                                                  
  20349493.605  
  22762554.555   119618041.194    22762560.301    93208899.2194   22762560.301  
                
  24333813.945   127875069.898    24333821.133    99642941.4234   24333820.969  
                
  22896372.812   122609035.377                    95362579.713    22896375.598  
  22896371.930  
  24380930.641   128122669.828    24380937.141    99835886.3784   24380937.234  
                
  19646732.016   104912467.801                    81598609.755    19646734.219  
  19646730.344  
  20501585.539   109515803.531                    85178959.262    20501588.672  
  20501585.008  
  22048707.883   115866748.290    22048713.879    90285812.7234   22048713.941  
                
  23061878.023   122932784.801                    95614384.720    23061882.074  
  23061877.469  
  20657606.312   108556468.974    20657610.152    84589480.7664                 
                
  23610627.617   124074679.863    23610631.285    96681590.5644                 
                
  23379302.773   125019638.943                    97237498.021    23379307.266  
  23379301.883  
  20362340.375   107004834.615    20362348.820    83380431.5444   20362348.906  
                
  20441139.523   109116205.544                    84868167.990    20441141.488  
  20441137.840  
  23576428.406   126206457.284                    98160573.315    23576433.449  
  23576427.246  
 21  8 14  0 35  0.0000000  0 16G 6R23G17G15R 4G14R13R12G12R14G19G 2
                                R24G24R22R 3
  22393869.961   117680579.362    22393878.684    91699188.6744   22393879.250  
                
  20343665.078   108824908.140                                                  
  20343663.531  
  22767926.477   119646270.783    22767932.246    93230896.2934   22767932.234  
                
  24340017.117   127907667.886    24340024.375    99668342.4654   24340024.180  
                
  22898282.102   122619259.473                    95370531.747    22898284.797  
  22898281.191  
  24386527.523   128152082.001    24386534.102    99858804.9504   24386534.188  
                
  19644303.539   104899499.793                    81588523.520    19644305.707  
  19644301.863  
  20505268.102   109535475.173                    85194259.419    20505271.250  
  20505267.543  
  22044054.469   115842294.522    22044060.477    90266757.8514   22044060.543  
                
  23055418.062   122898349.590                    95587601.786    23055422.105  
  23055417.555  
  20660495.359   108571651.069    20660499.191    84601310.9704                 
                
  23604632.016   124043173.197    23604635.832    96657039.9294                 
                
  23370763.047   124973972.929                    97201980.015    23370767.488  
  23370762.094  
  20361551.656   107000689.892    20361560.102    83377201.8834   20361560.191  
                
  20445145.398   109137589.219                    84884799.742    20445147.371  
  20445143.719  
  23582810.273   126240619.398                    98187143.837    23582815.207  
  23582809.051  
 21  8 14  0 35 10.0000000  0 16G 6R23G17G15R 4G14R13R12G12R14G19G 2
                                R24G24R22R 3
  22389310.602   117656619.815    22389319.426    91680518.9064   22389319.953  
                
  20337847.680   108793788.979                                                  
  20337846.145  
  22773302.719   119674523.082    22773308.512    93252911.0684   22773308.496  
                
  24346221.547   127940272.630    24346228.906    99693748.7424   24346228.684  
                
  22900206.273   122629563.297                    95378545.855    22900208.883  
  22900205.410  
  24392125.727   128181500.811    24392132.320    99881728.6924   24392132.398  
                
  19641883.016   104886574.341                    81578470.400    19641885.168  
  19641881.344  
  20508958.586   109555189.111                    85209592.480    20508961.770  
  20508958.012  
  22039405.320   115817863.149    22039411.312    90247720.4204   22039411.375  
                
  23048958.172   122863914.903                    95560819.240    23048962.207  
  23048957.695  
  20663395.141   108586889.550    20663398.973    84613185.1154                 
                
  23598640.070   124011685.290    23598643.918    96632503.8964                 
                
  23362225.648   124928319.166                    97166471.542    23362229.977  
  23362224.594  
  20360774.484   106996605.841    20360782.930    83374019.5094   20360783.004  
                
  20449166.203   109159052.600                    84901493.497    20449168.180  
  20449164.535  
  23589197.555   126274809.883                    98213736.438    23589202.270  
  23589196.215  
 21  8 14  0 35 20.0000000  0 15G 6R23G17G15R 4G14R13R12G12R14G19G 2
                                R24G24R22
  22384760.109   117632706.799    22384769.016    91661885.4074   22384769.508  
                
  20332042.922   108762737.430                                                  
  20332041.402  
  22778683.227   119702797.823    22778689.035    93274943.3354   22778689.016  
                
  24352427.242   127972883.664    24352434.617    99719159.9424   24352434.371  
                
  22902145.266   122639946.513                    95386621.717    22902147.879  
  22902144.445  
  24397725.188   128210926.026    24397731.754    99904657.4244   24397731.836  
                
  19639470.430   104873691.244                    81568450.214    19639472.562  
  19639468.770  
  20512656.992   109574945.308                    85224958.400    20512660.191  
  20512656.402  
  22034760.359   115793453.772    22034766.293    90228700.1254   22034766.391  
                
  23042498.391   122829480.655                    95534037.079    23042502.422  
  23042497.953  
  20666305.594   108602184.106    20666309.453    84625102.9554                 
                
  23592651.734   123980215.922    23592655.531    96607982.3174                 
                
  23353690.367   124882677.308                    97130972.330    23353694.719  
  23353689.324  
  20360008.820   106992582.231    20360017.266    83370884.2284   20360017.336  
                
  20453201.883   109180595.355                    84918248.968    20453203.863  
  20453200.219  
 21  8 14  0 35 30.0000000  0 15G 6R23G17G15R 4G14R13R12G12R14G19G 2
                                R24G24R22
  22380218.469   117608840.303    22380227.410    91643288.1394   22380227.887  
                
  20326250.805   108731753.507                                                  
  20326249.297  
  22784067.961   119731094.815    22784073.773    93296992.9384   22784073.754  
                
  24358634.117   128005500.746    24358641.469    99744575.8474   24358641.195  
                
  22904099.062   122650409.044                    95394759.190    22904101.641  
  22904098.227  
  24403325.812   128240357.477    24403332.367    99927591.0314   24403332.430  
                
  19637065.758   104860850.448                    81558462.923    19637067.879  
  19637064.078  
  20516363.227   109594743.384                    85240356.902    20516366.445  
  20516362.621  
  22030119.562   115769066.247    22030125.469    90209696.8804   22030125.586  
                
  23036038.703   122795046.690                    95507255.132    23036042.699  
  23036038.250  
  20669226.664   108617534.476    20669230.562    84637064.2764                 
                
  23586666.898   123948765.069    23586670.582    96583475.1504                 
