     2.11           OBSERVATION DATA    M (MIXED)           RINEX VERSION / TYPE
EFT-CORS.RU                             20210817 150613 UTC PGM / RUN BY / DATE 
MDNG                                                        MARKER NAME         
                                                            MARKER NUMBER       
MDNG                EFT-CORS.RU                             OBSERVER / AGENCY   
0                   TRIMBLE BD970       2.0                 REC # / TYPE / VERS 
0                   UNKNOWN EXT NONE                        ANT # / TYPE        
  3463911.2830  3030468.2400  4402179.3760                  APPROX POSITION XYZ 
        0.0000        0.0000        0.0000                  ANTENNA: DELTA H/E/N
     1     1                                                WAVELENGTH FACT L1/2
     6    C1    L1    P2    L2    C2    P1                  # / TYPES OF OBSERV 
    10.000                                                  INTERVAL            
  2021     8    14     9    30    0.0000000     GPS         TIME OF FIRST OBS   
  2021     8    14    10    30    0.0000000     GPS         TIME OF LAST OBS    
     0                                                      RCV CLOCK OFFS APPL 
                                                            END OF HEADER       
 21  8 14  9 30  0.0000000  0 13R 4G 8G18G27R 3G32G10G23G16R18R20R 5
                                R19
  19307230.781   103389396.930                    80413977.732    19307233.836  
  19307229.816  
  22056592.711   115908190.303    22056601.754    90318113.9394   22056602.398  
                
  22814224.828   119889556.670    22814232.211    93420472.5494   22814232.348  
                
  20624636.125   108383214.380    20624644.449    84454489.3294   20624644.469  
                
  22251643.234   119114821.444                    92644871.106    22251648.023  
  22251641.840  
  22772299.555   119669276.004    22772309.059    93248838.4104   22772309.293  
                
  20415974.211   107286707.171    20415983.113    83600095.2084   20415982.578  
                
  21353078.016   112211202.745    21353085.094    87437352.1964   21353084.945  
                
  24183833.383   127086901.797    24183839.938    99028778.4234                 
                
  22666871.922   120997278.747                    94108991.990    22666876.695  
  22666870.141  
  20714185.055   110768045.971                    86152984.182    20714191.473  
  20714184.094  
  20672011.695   110503773.078                    85947394.022    20672016.125  
  20672011.469  
  19708282.367   105426058.066                    81998074.548    19708286.094  
  19708280.742  
 21  8 14  9 30 10.0000000  0 14R 4G 8G21G18G27R 3G32G10G23G16R18R20
                                R 5R19
  19308349.102   103395385.441                    80418635.454    19308352.156  
  19308348.168  
  22052416.367   115886243.486    22052425.418    90301012.5294   22052426.066  
                
  24766393.281   130148255.458    24766401.934   101414275.2164                 
                
  22819238.211   119915902.151    22819245.656    93441001.4704   22819245.770  
                
  20624305.641   108381477.629    20624313.961    84453136.0124   20624313.992  
                
  22258731.320   119152764.421                    92674382.314    22258736.078  
  22258729.957  
  22766247.422   119637471.898    22766256.910    93224056.0024   22766257.148  
                
  20416274.992   107288287.788    20416283.902    83601326.8624   20416283.363  
                
  21357331.023   112233552.481    21357338.094    87454767.5654   21357337.973  
                
  24189816.891   127118345.276    24189823.469    99053279.8434                 
                
  22673211.258   121031118.534                    94135311.815    22673216.074  
  22673209.438  
  20708910.164   110739838.858                    86131045.310    20708916.578  
  20708909.227  
  20665779.734   110470459.730                    85921483.652    20665784.184  
  20665779.496  
  19710339.719   105437063.501                    82006634.325    19710343.449  
  19710338.078  
 21  8 14  9 30 20.0000000  0 14R 4G 8G21G18G27R 3G32G10G23G16R18R20
                                R 5R19
  19309483.109   103401457.920                    80423358.497    19309486.152  
  19309482.227  
  22048248.953   115864343.568    22048258.000    90283947.6604   22048258.648  
                
  24761429.617   130122171.248    24761438.160   101393949.8814                 
                
  22824255.219   119942266.635    22824262.688    93461545.2134   22824262.781  
                
  20623987.500   108379805.811    20623995.816    84451833.2964   20623995.859  
                
  22265825.336   119190739.101                    92703918.176    22265830.082  
  22265823.996  
  22760200.477   119605694.931    22760209.938    93199294.7244   22760210.168  
                
  20416584.430   107289913.863    20416593.348    83602593.9364   20416592.801  
                
  21361589.891   112255932.962    21361596.969    87472206.9024   21361596.844  
                
  24195803.180   127149803.807    24195809.887    99077792.9604                 
                
  22679556.117   121064988.280                    94161654.933    22679561.039  
  22679554.402  
  20703640.617   110711660.193                    86109128.588    20703647.023  
  20703639.676  
  20659558.328   110437202.791                    85895617.147    20659562.781  
  20659558.078  
  19712408.008   105448127.428                    82015239.606    19712411.734  
  19712406.352  
 21  8 14  9 30 30.0000000  0 14R 4G 8G21G18G27R 3G32G10G23G16R18R20
                                R 5R19
  19310632.992   103407615.427                    80428147.673    19310636.020  
  19310632.145  
  22044090.727   115842491.960    22044099.758    90266920.4314   22044100.422  
                
  24756466.594   130096089.948    24756474.945   101373626.8224                 
                
  22829276.062   119968651.207    22829283.500    93482104.6154   22829283.562  
                
  20623681.945   108378200.056    20623690.262    84450582.0594   20623690.316  
                
  22272925.391   119228746.290                    92733479.307    22272930.180  
  22272924.062  
  22754158.922   119573946.309    22754168.387    93174555.5314   22754168.637  
                
  20416902.711   107291586.458    20416911.648    83603897.2614   20416911.094  
                
  21365854.812   112278345.265    21365861.879    87489671.0274   21365861.762  
                
  24201792.555   127181278.371    24201799.352    99102318.5594                 
                
  22685906.906   121098889.008                    94188022.145    22685911.828  
  22685905.191  
  20698376.648   110683511.393                    86087235.087    20698383.035  
  20698375.699  
  20653347.672   110404003.292                    85869795.335    20653352.129  
  20653347.426  
  19714487.453   105459251.073                    82023891.326    19714491.184  
  19714485.746  
 21  8 14  9 30 40.0000000  0 14R 4G 8G21G18G27R 3G32G10G23G16R18R20
                                R 5R19
  19311798.586   103413857.084                    80433002.292    19311801.602  
  19311797.754  
  22039941.523   115820687.717    22039950.551    90249930.1144   22039951.215  
                
  24751503.953   130070010.792    24751512.184   101353305.4044                 
                
  22834300.586   119995055.077    22834307.969    93502679.0434   22834308.004  
                
  20623388.805   108376659.584    20623397.117    84449381.6914   20623397.188  
                
  22280031.422   119266785.312                    92763065.207    22280036.199  
  22280030.094  
  22748122.578   119542225.285    22748132.109    93149837.8764   22748132.352  
                
  20417229.695   107293304.734    20417238.652    83605236.1814   20417238.086  
                
  21370125.625   112300788.490    21370132.684    87507159.2524   21370132.570  
                
  24207784.781   127212768.179    24207791.711    99126856.0584                 
                
  22692263.250   121132819.686                    94214412.630    22692268.211  
  22692261.535  
  20693118.094   110655391.631                    86065364.159    20693124.477  
  20693117.148  
  20647147.672   110370860.764                    85844017.803    20647152.121  
  20647147.430  
  19716577.906   105470433.583                    82032588.829    19716581.648  
  19716576.180  
 21  8 14  9 30 50.0000000  0 14R 4G 8G21G18G27R 3G32G10G23G16R18R20
                                R 5R19
  19312980.008   103420183.526                    80437922.872    19312983.016  
  19312979.188  
  22035801.477   115798931.613    22035810.516    90232977.3094   22035811.168  
                
  24746541.836   130043934.479    24746549.980   101332986.1994                 
                
  22839328.883   120021478.868    22839336.207    93523269.0134   22839336.266  
                
  20623108.219   108375185.103    20623116.531    84448232.7444   20623116.605  
                
  22287143.445   119304856.480                    92792676.102    22287148.211  
  22287142.094  
  22742091.625   119510532.692    22742101.223    93125142.3664   22742101.457  
                
  20417565.484   107295069.360    20417574.465    83606611.2104   20417573.883  
                
  21374402.430   112323263.253    21374409.477    87524672.0504   21374409.379  
                
  24213780.117   127244273.713    24213787.031    99151405.7954                 
                
  22698625.352   121166781.065                    94240827.006    22698630.336  
  22698623.668  
  20687865.102   110627301.604                    86043516.359    20687871.480  
  20687864.156  
  20640958.422   110337775.681                    85818284.965    20640962.863  
  20640958.219  
  19718679.406   105481675.263                    82041332.359    19718683.152  
  19718677.656  
 21  8 14  9 31  0.0000000  0 14R 4G 8G21G18G27R 3G32G10G23G16R18R20
                                R 5R19
  19314177.195   103426594.326                    80442909.048    19314180.191  
  19314176.410  
  22031670.570   115777223.592    22031679.652    90216061.9784   22031680.270  
                
  24741579.984   130017860.677    24741588.238   101312669.0124                 
                
  22844360.938   120047922.376    22844368.227    93543874.3304   22844368.328  
                
  20622840.156   108373776.420    20622848.469    84447135.0644   20622848.559  
                
  22294261.383   119342959.387                    92822311.689    22294266.168  
  22294260.008  
  22736066.086   119478868.400    22736075.699    93100468.8974   22736075.914  
                
  20417910.047   107296880.065    20417919.047    83608022.1504   20417918.465  
                
  21378685.188   112345769.273    21378692.223    87542209.2084   21378692.133  
                
  24219778.336   127275794.572    24219785.285    99175967.5004                 
                
  22704993.258   121200772.905                    94267265.074    22704998.148  
  22704991.516  
  20682617.719   110599241.475                    86021691.818    20682624.070  
  20682616.785  
  20634779.945   110304748.129                    85792596.882    20634784.383  
  20634779.758  
  19720792.055   105492976.495                    82050122.189    19720795.809  
  19720790.258  
 21  8 14  9 31 10.0000000  0 14R 4G 8G21G18G27R 3G32G10G23G16R18R20
                                R 5R19
  19315390.086   103433089.236                    80447960.642    19315393.070  
  19315389.312  
  22027548.758   115755563.345    22027557.891    90199183.8664   22027558.496  
                
  24736618.750   129991789.301    24736626.953   101292353.6674                 
                
  22849396.688   120074385.250    22849403.961    93564494.7364   22849404.062  
                
  20622584.547   108372433.199    20622592.859    84446088.3974   20622592.965  
                
  22301385.203   119381093.679                    92851971.682    22301390.016  
  22301383.805  
  22730045.898   119447232.176    22730055.496    93075817.3124   22730055.727  
                
  20418263.320   107298736.501    20418272.340    83609468.7224   20418271.738  
                
  21382973.820   112368306.153    21382980.859    87559770.4124   21382980.762  
                
  24225779.461   127307330.265    24225786.344    99200540.7654                 
                
  22711366.758   121234794.772                    94293726.525    22711371.613  
  22711364.980  
  20677375.859   110571210.848                    85999890.227    20677382.191  
  20677374.941  
  20628612.195   110271777.909                    85766953.375    20628616.625  
  20628612.020  
  19722915.703   105504336.543                    82058957.777    19722919.445  
  19722913.859  
 21  8 14  9 31 20.0000000  0 14R 4G 8G21G18G27R 3G32G10G23G16R18R20
                                R 5R19
  19316618.602   103439667.854                    80453077.347    19316621.582  
  19316617.855  
  22023436.031   115733950.840    22023445.180    90182342.9564   22023445.773  
                
  24731657.969   129965719.983    24731666.023   101272039.8674                 
                
  22854436.062   120100867.269    22854443.320    93585130.0614   22854443.398  
                
  20622341.359   108371155.255    20622349.680    84445092.6064   20622349.797  
                
  22308514.805   119419259.057                    92881655.849    22308519.668  
  22308513.395  
  22724031.070   119415623.922    22724040.598    93051187.5074   22724040.828  
                
  20418625.227   107300638.397    20418634.258    83610950.7164   20418633.641  
                
  21387268.266   112390873.579    21387275.320    87577355.4154   21387275.211  
                
  24231783.305   127338880.609    24231790.191    99225125.4414                 
                
  22717745.711   121268846.407                    94320211.126    22717750.637  
  22717743.992  
  20672139.516   110543209.636                    85978111.506    20672145.812  
  20672138.641  
  20622455.125   110238864.822                    85741354.319    20622459.543  
  20622454.938  
  19725050.312   105515755.324                    82067839.062    19725054.055  
  19725048.426  
 21  8 14  9 31 30.0000000  0 14R 4G 8G21G18G27R 3G32G10G23G16R18R20
                                R 5R19
  19317862.820   103446330.527                    80458259.434    19317865.809  
  19317862.090  
  22019332.438   115712386.301    22019341.574    90165539.4184   22019342.168  
                
  24726697.562   129939652.898    24726705.531   101251727.8884                 
                
  22859479.117   120127368.621    22859486.348    93605780.4674   22859486.453  
                
  20622110.656   108369942.880    20622118.984    84444147.8954   20622119.109  
                
  22315650.234   119457455.596                    92911364.245    22315655.148  
  22315648.812  
  22718021.641   119384043.988    22718031.086    93026579.7554   22718031.316  
                
  20418995.844   107302585.972    20419004.879    83612468.3114   20419004.262  
                
  21391568.570   112413471.745    21391575.648    87594964.3714   21391575.523  
                
  24237789.922   127370445.745    24237796.910    99249721.6074                 
                
  22724130.383   121302928.078                    94346719.071    22724135.254  
  22724128.625  
  20666908.727   110515238.221                    85956355.959    20666915.012  
  20666907.895  
  20616308.812   110206009.227                    85715799.977    20616313.219  
  20616308.625  
  19727195.953   105527233.130                    82076766.231    19727199.691  
  19727194.023  
 21  8 14  9 31 40.0000000  0 14R 4G 8G21G18G27R 3G32G10G23G16R18R20
                                R 5R19
  19319122.688   103453077.035                    80463506.718    19319125.676  
  19319121.969  
  22015237.930   115690869.540    22015247.055    90148773.1214   22015247.656  
                
  24721737.461   129913588.084    24721745.465   101231417.6744                 
                
  22864525.836   120153889.299    22864533.070    93626445.9114   22864533.172  
                
  20621892.414   108368796.028    20621900.762    84443254.2414   20621900.887  
                
  22322791.430   119495682.913                    92941096.576    22322796.359  
  22322790.008  
  22712017.586   119352492.417    22712026.953    93001994.1104   22712027.199  
                
  20419375.125   107304579.143    20419384.156    83614021.4334   20419383.547  
                
  21395874.688   112436100.543    21395881.785    87612597.1964   21395881.637  
                
  24243799.305   127402025.367    24243806.348    99274329.1084                 
                
  22730520.562   121337039.662                    94373250.285    22730525.477  
  22730518.852  
  20661683.516   110487296.710                    85934623.699    20661689.824  
  20661682.703  
  20610173.250   110173211.221                    85690290.428    20610177.656  
  20610173.094  
  19729352.656   105538770.019                    82085739.364    19729356.367  
  19729350.727  
 21  8 14  9 31 50.0000000  0 14R 4G 8G21G18G27R 3G32G10G23G16R18R20
                                R 5R19
  19320398.242   103459907.459                    80468819.268    19320401.215  
  19320397.539  
  22011152.594   115669400.954    22011161.688    90132044.3604   22011162.301  
                
  24716777.891   129887525.696    24716785.844   101211109.2714                 
                
  22869576.250   120180429.357    22869583.480    93647126.4534   22869583.590  
                
  20621686.672   108367714.810    20621695.051    84442411.7344   20621695.160  
                
  22329938.383   119533941.063                    92970852.915    22329943.305  
  22329936.969  
  22706018.977   119320969.401    22706028.285    92977430.7244   22706028.543  
                
  20419763.109   107306617.970    20419772.129    83615610.1404   20419771.531  
                
  21400186.648   112458759.981    21400193.762    87630253.9054   21400193.598  
                
  24249811.477   127433619.498    24249818.543    99298947.8904                 
                
  22736916.336   121371181.225                    94399804.777    22736921.363  
  22736914.699  
  20656463.891   110459385.044                    85912914.620    20656470.219  
  20656463.102  
  20604048.500   110140470.898                    85664825.730    20604052.875  
  20604048.371  
  19731520.391   105550365.948                    82094758.421    19731524.078  
  19731518.484  
 21  8 14  9 32  0.0000000  0 14R 4G 8G21G18G27R 3G32G10G23G16R18R20
                                R 5R19
  19321689.414   103466821.571                    80474196.913    19321692.387  
  19321688.730  
  22007076.453   115647980.727    22007085.504    90115353.2684   22007086.133  
                
  24711818.742   129861465.591    24711826.691   101190802.7264                 
                
  22874630.297   120206988.633    22874637.543    93667821.9754   22874637.648  
                
  20621493.391   108366699.102    20621501.797    84441620.2724   20621501.895  
                
  22337091.062   119572229.841                    93000633.059    22337095.980  
  22337089.676  
  22700025.773   119289474.904    22700035.066    92952889.5634   22700035.316  
                
  20420159.742   107308702.289    20420168.738    83617234.2884   20420168.152  
                
  21404504.406   112481449.871    21404511.527    87647934.3284   21404511.340  
                
  24255826.391   127465227.951    24255833.484    99323577.8414                 
                
  22743317.680   121405352.448                    94426382.385    22743322.828  
  22743316.145  
  20651249.906   110431503.480                    85891228.961    20651256.230  
  20651249.125  
  20597934.586   110107788.477                    85639406.066    20597938.934  
  20597934.469  
  19733699.156   105562020.907                    82103823.373    19733702.820  
  19733697.273  
 21  8 14  9 32 10.0000000  0 14R 4G 8G21G18G27R 3G32G10G23G16R18R20
                                R 5R19
  19322996.172   103473819.169                    80479639.494    19322999.148  
  19322995.516  
  22003009.438   115626608.416    22003018.465    90098699.5214   22003019.094  
                
  24706860.117   129835407.646    24706867.988   101170497.8644                 
                
  22879687.984   120233566.950    22879695.250    93688532.3434   22879695.328  
                
  20621312.547   108365748.803    20621320.980    84440879.7784   20621321.074  
                
  22344249.422   119610548.936                    93030436.785    22344254.344  
  22344248.008  
  22694037.984   119258008.894    22694047.297    92928370.6004   22694047.531  
                
  20420564.992   107310831.902    20420573.969    83618893.7294   20420573.395  
                
  21408827.906   112504169.979    21408835.020    87665638.3054   21408834.844  
                
  24261843.969   127496850.424    24261851.059    99348218.7074                 
                
  22749724.664   121439553.240                    94452982.951    22749729.801  
  22749723.121  
  20646041.469   110403651.632                    85869566.406    20646047.797  
  20646040.699  
  20591831.430   110075163.645                    85614031.214    20591835.793  
  20591831.305  
  19735888.930   105573734.672                    82112934.083    19735892.562  
  19735887.070  
 21  8 14  9 32 20.0000000  0 14R 4G 8G21G18G27R 3G32G10G23G16R18R20
                                R 5R19
  19324318.555   103480900.335                    80485147.069    19324321.531  
  19324317.930  
  21998951.648   115605284.522    21998960.656    90082083.4994   21998961.309  
                
  24701901.891   129809352.106    24701909.766   101150194.8894                 
                
  22884749.383   120260164.557    22884756.652    93709257.7484   22884756.727  
                
  20621144.219   108364864.149    20621152.672    84440190.4414   20621152.746  
                
  22351413.430   119648898.408                    93060264.147    22351418.352  
  22351411.977  
  22688055.711   119226571.715    22688065.055    92903874.1044   22688065.246  
                
  20420978.922   107313007.058    20420987.883    83620588.6594   20420987.316  
                
  21413157.203   112526920.508    21413164.320    87683365.9924   21413164.137  
                
  24267864.281   127528487.064    24267871.348    99372870.6364                 
                
  22756137.195   121473783.803                    94479606.699    22756142.359  
  22756135.660  
  20640838.719   110375830.161                    85847927.494    20640845.039  
  20640837.945  
  20585739.148   110042596.836                    85588701.463    20585743.523  
  20585739.027  
  19738089.719   105585507.340                    82122090.601    19738093.332  
  19738087.879  
 21  8 14  9 32 30.0000000  0 14R 4G 8G21G18G27R 3G32G10G23G16R18R20
                                R 5R19
  19325656.461   103488064.733                    80490719.389    19325659.453  
  19325655.840  
  21994902.984   115584008.691    21994911.965    90065504.9264   21994912.629  
                
  24696944.133   129783298.669    24696951.871   101129893.5124                 
                
  22889814.359   120286781.073    22889821.664    93729997.8934   22889821.703  
                
  20620988.297   108364044.814    20620996.770    84439552.0024   20620996.828  
                
  22358583.055   119687277.968                    93090114.886    22358587.980  
  22358581.523  
  22682078.859   119195163.104    22682088.242    92879399.8694   22682088.406  
                
  20421401.414   107315227.319    20421410.367    83622318.7344   20421409.816  
                
  21417492.188   112549700.993    21417499.305    87701117.0134   21417499.117  
                
  24273887.180   127560137.511    24273894.230    99397533.3054                 
                
  22762555.352   121508043.676                    94506253.253    22762560.422  
  22762553.695  
  20635641.602   110348038.850                    85826312.042    20635647.906  
  20635640.805  
  20579657.680   110010087.927                    85563416.774    20579662.074  
  20579657.562  
  19740301.508   105597338.900                    82131292.915    19740305.117  
  19740299.688  
 21  8 14  9 32 40.0000000  0 14R 4G 8G21G18G27R 3G32G10G23G16R18R20
                                R 5R19
  19327009.891   103495312.273                    80496356.360    19327012.898  
  19327009.273  
  21990863.508   115562781.093    21990872.465    90048963.9474   21990873.152  
                
  24691986.758   129757247.331    24691994.344   101109593.7604                 
                
  22894882.953   120313416.486    22894890.262    93750752.7524   22894890.285  
                
  20620844.828   108363290.826    20620853.309    84438964.4754   20620853.348  
                
  22365758.227   119725687.145                    93119988.674    22365763.176  
  22365756.660  
  22676107.469   119163783.177    22676116.887    92854947.9804   22676117.035  
                
  20421832.500   107317492.693    20421841.449    83624083.9534   20421840.906  
                
  21421832.875   112572511.386    21421839.988    87718891.3504   21421839.801  
                
  24279912.578   127591801.525    24279919.723    99422206.5364                 
                
  22768978.930   121542332.874                    94532922.633    22768983.988  
  22768977.250  
  20630450.102   110320277.573                    85804719.941    20630456.414  
  20630449.309  
  20573587.031   109977636.825                    85538177.033    20573591.438  
  20573586.918  
  19742524.305   105609229.322                    82140541.025    19742527.910  
  19742522.516  
 21  8 14  9 32 50.0000000  0 14R 4G 8G21G18G27R 3G32G10G23G16R18R20
                                R 5R19
  19328378.938   103502643.433                    80502058.378    19328381.945  
  19328378.312  
  21986833.344   115541602.498    21986842.316    90032461.1514   21986842.996  
                
  24687029.781   129731198.657    24687037.391   101089296.1364                 
                
  22899955.227   120340071.360    22899962.570    93771522.7604   22899962.578  
                
  20620713.891   108362602.745    20620722.379    84438428.3054   20620722.398  
                
  22372939.055   119764126.654                    93149886.042    22372944.004  
  22372937.449  
  22670141.648   119132432.581    22670151.086    92830518.9474   22670151.219  
                
  20422272.258   107319803.659    20422281.211    83625884.7054   20422280.668  
                
  21426179.352   112595352.171    21426186.465    87736689.3594   21426186.285  
                
  24285940.734   127623479.479    24285947.879    99446890.6524                 
                
  22775408.016   121576651.815                    94559615.130    22775413.062  
  22775406.359  
  20625264.375   110292547.185                    85783151.861    20625270.684  
  20625263.605  
  20567527.352   109945244.368                    85512982.902    20567531.758  
  20567527.238  
  19744758.211   105621179.177                    82149835.350    19744761.809  
  19744756.453  
 21  8 14  9 33  0.0000000  0 14R 4G 8G21G18G27R 3G32G10G23G16R18R20
                                R 5R19
  19329763.555   103510057.971                    80507825.239    19329766.566  
  19329762.910  
  21982812.398   115520472.327    21982821.402    90015996.0904   21982822.051  
                
  24682073.320   129705152.353    24682080.875   101069000.3154                 
                
  22905031.133   120366745.327    22905038.496    93792307.6544   22905038.504  
                
  20620595.445   108361980.297    20620603.938    84437943.2774   20620603.949  
                
  22380125.430   119802595.804                    93179806.497    22380130.348  
  22380123.832  
  22664181.344   119101111.099    22664190.805    92806112.5994   22664190.941  
                
  20422720.625   107322159.887    20422729.586    83627720.7264   20422729.020  
                
  21430531.516   112618222.960    21430538.645    87754510.7494   21430538.461  
                
  24291971.461   127655171.048    24291978.629    99471585.3814                 
                
  22781842.523   121611000.321                    94586330.597    22781847.680  
  22781840.961  
  20620084.367   110264847.286                    85761607.507    20620090.641  
  20620083.594  
  20561478.570   109912910.215                    85487834.127    20561483.008  
  20561478.438  
  19747003.133   105633187.992                    82159175.542    19747006.723  
  19747001.402  
 21  8 14  9 33 10.0000000  0 14R 4G 8G21G18G27R 3G32G10G23G16R18R20
                                R 5R19
  19331163.734   103517555.786                    80513656.880    19331166.738  
  19331163.098  
  21978800.789   115499391.188    21978809.820    89999569.2334   21978810.449  
                
  24677117.367   129679108.602    24677124.836   101048706.4584                 
                
  22910110.695   120393438.564    22910118.094    93813107.5754   22910118.098  
                
  20620489.516   108361423.652    20620498.000    84437509.5234   20620498.004  
                
  22387317.367   119841094.799                    93209750.157    22387322.289  
  22387315.781  
  22658226.641   119069818.991    22658236.156    92781729.1494   22658236.301  
                
  20423177.648   107324561.528    20423186.617    83629592.1454   20423186.043  
                
  21434889.438   112641123.872    21434896.586    87772355.6104   21434896.387  
                
  24298004.688   127686876.286    24298011.996    99496290.7384                 
                
  22788282.617   121645378.395                    94613069.057    22788287.844  
  22788281.105  
  20614910.156   110237178.430                    85740087.283    20614916.422  
  20614909.348  
  20555440.766   109880634.687                    85462730.952    20555445.234  
  20555440.625  
  19749259.141   105645256.015                    82168561.778    19749262.754  
  19749257.418  
 21  8 14  9 33 20.0000000  0 14R 4G 8G21G18G27R 3G32G10G23G16R18R20
                                R 5R19
  19332579.438   103525136.825                    80519553.242    19332582.445  
  19332578.793  
  21974798.445   115478358.798    21974807.500    89983180.3634   21974808.129  
                
  24672161.805   129653067.393    24672169.293   101028414.6784                 
                
  22915193.922   120420151.009    22915201.297    93833922.4564   22915201.348  
                
  20620396.109   108360932.773    20620404.578    84437127.0174   20620404.586  
                
  22394514.812   119879623.373                    93239716.802    22394519.750  
  22394513.246  
  22652277.523   119038556.353    22652287.117    92757368.6604   22652287.246  
                
  20423643.281   107327008.482    20423652.250    83631498.8634   20423651.664  
                
  21439253.047   112664054.774    21439260.215    87790223.8374   21439260.000  
                
  24304040.562   127718594.989    24304047.934    99521006.5844                 
                
  22794728.336   121679785.980                    94639830.496    22794733.570  
  22794726.777  
  20609741.719   110209540.423                    85718591.056    20609747.953  
  20609740.879  
  20549413.930   109848417.819                    85437673.394    20549418.406  
  20549413.801  
  19751526.234   105657383.376                    82177994.164    19751529.848  
  19751524.516  
 21  8 14  9 33 30.0000000  0 14R 4G 8G21G18G27R 3G32G10G23G16R18R20
                                R 5R19
  19334010.664   103532800.909                    80525514.198    19334013.684  
  19334010.012  
  21970805.445   115457375.474    21970814.527    89966829.7294   21970815.137  
                
  24667206.711   129627028.603    24667214.184   101008124.6864                 
                
  22920280.766   120446882.506    22920288.168    93854752.1714   22920288.219  
                
  20620315.203   108360507.582    20620323.645    84436795.6944   20620323.672  
                
  22401717.734   119918181.279                    93269706.272    22401722.680  
  22401716.184  
  22646334.016   119007323.129    22646343.680    92733031.0954   22646343.816  
                
  20424117.516   107329500.599    20424126.469    83633440.7794   20424125.879  
                
  21443622.328   112687015.471    21443629.516    87808115.2884   21443629.293  
                
  24310078.945   127750326.960    24310086.387    99545732.7594                 
                
  22801179.344   121714222.719                    94666614.603    22801184.773  
  22801177.902  
  20604579.031   110181933.243                    85697118.795    20604585.246  
  20604578.211  
  20543398.078   109816259.626                    85412661.477    20543402.547  
  20543397.961  
  19753804.359   105669569.698                    82187472.411    19753807.949  
  19753802.641  
 21  8 14  9 33 40.0000000  0 14R 4G 8G21G18G27R 3G32G10G23G16R18R20
                                R 5R19
  19335457.258   103540547.336                    80531539.209    19335460.281  
  19335456.598  
  21966821.609   115436440.263    21966830.727    89950516.5844   21966831.320  
                
  24662252.039   129600991.602    24662259.395   100987836.1124                 
                
  22925371.094   120473632.409    22925378.562    93875596.2264   22925378.598  
                
  20620246.672   108360147.439    20620255.078    84436515.0634   20620255.125  
                
  22408926.000   119956767.651                    93299717.886    22408930.930  
  22408924.480  
  22640396.023   118976118.815    22640405.715    92708716.0564   22640405.848  
                
  20424600.219   107332037.200    20424609.141    83635417.3524   20424608.566  
                
  21447997.148   112710005.256    21448004.344    87826029.4074   21448004.109  
                
  24316119.617   127782071.495    24316127.223    99570468.7504                 
                
  22807635.656   121748688.096                    94693420.949    22807641.320  
  22807634.383  
  20599422.039   110154356.481                    85675670.239    20599428.238  
  20599421.207  
  20537393.102   109784159.616                    85387694.814    20537397.551  
  20537393.000  
  19756093.375   105681814.378                    82196996.047    19756096.984  
  19756091.680  
 21  8 14  9 33 50.0000000  0 14R 4G 8G21G18G27R 3G32G10G23G16R18R20
                                R 5R19
  19336919.344   103548376.722                    80537628.735    19336922.375  
  19336918.660  
  21962847.117   115415554.236    21962856.273    89934241.7584   21962856.859  
                
  24657297.789   129574957.192    24657305.156   100967549.5774                 
                
  22930465.078   120500401.456    22930472.574    93896455.2144   22930472.594  
                
  20620190.664   108359853.122    20620199.039    84436285.7234   20620199.109  
                
  22416139.750   119995383.334                    93329752.281    22416144.668  
  22416138.246  
  22634463.695   118944944.253    22634473.352    92684424.1914   22634473.500  
                
  20425091.523   107334619.010    20425100.410    83637429.1554   20425099.855  
                
  21452377.641   112733024.841    21452384.844    87843966.7374   21452384.594  
                
  24322162.883   127813829.174    24322170.527    99595214.9784                 
                
  22814097.773   121783182.898                    94720250.208    22814103.387  
  22814096.457  
  20594270.898   110126810.994                    85654245.954    20594277.062  
  20594270.066  
  20531399.141   109752118.511                    85362773.946    20531403.570  
  20531399.020  
  19758393.500   105694118.456                    82206565.873    19758397.109  
  19758391.805  
 21  8 14  9 34  0.0000000  0 14R 4G 8G21G18G27R 3G32G10G23G16R18R20
                                R 5R19
  19338397.117   103556290.109                    80543783.598    19338400.156  
  19338396.406  
  21958882.211   115394718.526    21958891.402    89918006.1474   21958891.996  
                
  24652344.047   129548926.351    24652351.609   100947265.8544                 
                
  22935562.891   120527190.668    22935570.398    93917329.9054   22935570.422  
                
  20620147.383   108359625.677    20620155.734    84436108.4944   20620155.832  
                
  22423359.148   120034029.193                    93359810.157    22423364.043  
  22423357.684  
  22628537.234   118913800.557    22628546.836    92660156.3774   22628547.016  
                
  20425591.609   107337247.017    20425600.453    83639476.9564   20425599.926  
                
  21456763.977   112756075.147    21456771.172    87861928.0184   21456770.938  
                
  24328208.836   127845600.833    24328216.527    99619972.1034                 
                
  22820565.438   121817707.898                    94747102.959    22820571.074  
  22820564.117  
  20589125.805   110099297.859                    85632846.852    20589131.957  
  20589124.953  
  20525416.438   109720137.555                    85337899.872    20525420.836  
  20525416.285  
  19760704.898   105706482.783                    82216182.569    19760708.523  
  19760703.211  
 21  8 14  9 34 10.0000000  0 14R 4G 8G21G18G27R 3G32G10G23G16R18R20
                                R 5R19
  19339890.250   103564285.752                    80550002.428    19339893.301  
  19339889.508  
  21954926.570   115373931.547    21954935.805    89901808.4984   21954936.383  
                
  24647390.789   129522897.477    24647398.457   100926983.6424                 
                
  22940664.227   120553998.328    22940671.770    93938218.9904   22940671.785  
                
  20620116.516   108359463.434    20620124.852    84435982.0674   20620124.957  
                
  22430583.812   120072703.164                    93389889.898    22430588.707  
  22430582.383  
  22622616.352   118882686.183    22622625.906    92635911.4174   22622626.117  
                
  20426100.172   107339919.525    20426108.980    83641559.4374   20426108.477  
                
  21461155.836   112779154.477    21461163.012    87879911.9064   21461162.812  
                
  24334257.125   127877384.813    24334264.836    99644738.8134                 
                
  22827038.516   121852261.471                    94773977.933    22827044.133  
  22827037.148  
  20583986.438   110071815.460                    85611471.653    20583992.590  
  20583985.609  
  20519444.688   109688215.190                    85313071.395    20519449.082  
  20519444.535  
  19763027.258   105718905.775                    82225844.892    19763030.887  
  19763025.562  
 21  8 14  9 34 20.0000000  0 14R 4G 8G21G18G27R 3G32G10G23G16R18R20
                                R 5R19
  19341398.742   103572363.729                    80556285.313    19341401.805  
  19341397.969  
  21950980.234   115353193.469    21950989.523    89885648.9634   21950990.082  
                
  24642438.188   129496870.855    24642445.762   100906703.1884                 
                
  22945769.109   120580824.651    22945776.668    93959122.5984   22945776.691  
                
  20620098.094   108359366.629    20620106.430    84435906.6384   20620106.547  
                
  22437813.734   120111405.488                    93419991.681    22437818.672  
  22437812.324  
  22616701.094   118851601.418    22616710.578    92611689.5174   22616710.820  
                
  20426617.227   107342636.691    20426626.004    83643676.7064   20426625.512  
                
  21465553.234   112802262.938    21465560.410    87897918.4914   21465560.215  
                
  24340307.766   127909181.133    24340315.473    99669515.1624                 
                
  22833516.984   121886843.808                    94800875.267    22833522.543  
  22833515.570  
  20578852.891   110044364.116                    85590120.605    20578859.062  
  20578852.078  
  20513483.938   109656351.617                    85288288.613    20513488.316  
  20513483.770  
  19765360.602   105731387.506                    82235552.896    19765364.230  
  19765358.922  
 21  8 14  9 34 30.0000000  0 14R 4G 8G21G18G27R 3G32G10G23G16R18R20
                                R 5R19
  19342922.711   103580524.525                    80562632.593    19342925.785  
  19342921.914  
  21947043.320   115332504.948    21947052.691    89869528.0524   21947053.215  
                
  24637486.008   129470846.822    24637493.566   100886424.7234                 
                
  22950877.633   120607670.106    22950885.211    93980041.1144   22950885.227  
                
  20620092.234   108359335.758    20620100.578    84435882.5814   20620100.699  
                
  22445049.008   120150136.413                    93450115.720    22445053.945  
  22445047.613  
  22610791.602   118820546.839    22610801.020    92587491.1474   22610801.301  
                
  20427142.867   107345398.959    20427151.629    83645829.1244   20427151.148  
                
  21469956.250   112825400.947    21469963.438    87915948.1004   21469963.238  
                
  24346360.883   127940990.183    24346368.527    99694301.4134                 
                
  22840001.008   121921455.266                    94827795.276    22840006.426  
  22839999.445  
  20573725.312   110016944.584                    85568794.316    20573731.473  
  20573724.504  
  20507534.328   109624547.550                    85263552.121    20507538.699  
  20507534.156  
  19767705.055   105743928.675                    82245307.136    19767708.691  
  19767703.375  
 21  8 14  9 34 40.0000000  0 14R 4G 8G21G18G27R 3G32G10G23G16R18R20
                                R 5R19
  19344462.141   103588768.078                    80569044.243    19344465.207  
  19344461.320  
  21943115.867   115311866.050    21943125.309    89853445.8074   21943125.797  
                
  24632534.227   129444825.540    24632541.871   100866148.3944                 
                
  22955989.805   120634534.719    22955997.410    94000974.5554   22955997.406  
                
  20620098.922   108359370.877    20620107.285    84435909.9504   20620107.395  
                
  22452289.648   120188895.998                    93480262.056    22452294.535  
  22452288.270  
  22604887.898   118789522.635    22604897.293    92563316.4504   22604897.590  
                
  20427677.094   107348206.363    20427685.852    83648016.7084   20427685.375  
                
  21474364.883   112848568.483    21474372.082    87934000.7224   21474371.875  
                
  24352416.320   127972811.892    24352424.000    99719097.5434                 
                
  22846490.359   121956095.945                    94854738.007    22846495.773  
  22846488.828  
  20568603.680   109989556.897                    85547492.789    20568609.848  
  20568602.879  
  20501595.883   109592803.208                    85238862.076    20501600.254  
  20501595.707  
  19770060.570   105756529.046                    82255107.416    19770064.211  
  19770058.898  
 21  8 14  9 34 50.0000000  0 14R 4G 8G21G18G27R 3G32G10G23G16R18R20
                                R 5R19
  19346016.961   103597094.095                    80575520.045    19346020.020  
  19346016.137  
  21939197.805   115291276.559    21939207.309    89837402.0604   21939207.773  
                
  24627582.953   129418806.787    24627590.680   100845874.0774                 
                
  22961105.562   120661418.188    22961113.184    94021922.7144   22961113.172  
                
  20620118.125   108359471.746    20620126.512    84435988.5524   20620126.602  
                
  22459535.570   120227683.769                    93510430.311    22459540.379  
  22459534.223  
  22598989.938   118758528.608    22598999.352    92539165.2754   22598999.648  
                
  20428219.852   107351058.589    20428228.613    83650239.2234   20428228.129  
                
  21478779.078   112871765.224    21478786.277    87952076.0954   21478786.070  
                
  24358474.094   128004645.868    24358481.852    99743903.2074                 
                
  22852985.102   121990765.444                    94881703.152    22852990.492  
  22852983.586  
  20563487.953   109962200.852                    85526215.878    20563494.145  
  20563487.125  
  20495668.523   109561118.110                    85214218.121    20495672.898  
  20495668.352  
  19772427.164   105769188.731                    82264953.828    19772430.820  
  19772425.461  
 21  8 14  9 35  0.0000000  0 14R 4G 8G21G18G27R 3G32G10G23G16R18R20
                                R 5R19
  19347587.172   103605502.491                    80582059.902    19347590.219  
  19347586.359  
  21935289.195   115270736.758    21935298.750    89821397.0314   21935299.195  
                
  24622632.250   129392790.651    24622640.027   100825601.8104                 
                
  22966224.945   120688320.621    22966232.574    94042885.6384   22966232.578  
                
  20620149.852   108359638.490    20620158.262    84436118.4784   20620158.344  
                
  22466786.750   120266499.673                    93540620.459    22466791.508  
  22466785.461  
  22593097.758   118727564.987    22593107.199    92515037.7784   22593107.488  
                
  20428771.148   107353955.687    20428779.926    83652496.7104   20428779.434  
                
  21483198.828   112894991.190    21483206.035    87970174.2484   21483205.836  
                
  24364534.258   128036492.151    24364542.008    99768718.4544                 
                
  22859485.430   122025463.863                    94908690.808    22859490.590  
  22859483.789  
  20558378.180   109934876.731                    85504963.802    20558384.395  
  20558377.309  
  20489752.320   109529492.681                    85189620.566    20489756.691  
  20489752.172  
  19774804.883   105781907.930                    82274846.541    19774808.535  
  19774803.160  
 21  8 14  9 35 10.0000000  0 14R 4G 8G21G18G27R 3G32G10G23G16R18R20
                                R 5R19
  19349172.781   103613993.304                    80588663.877    19349175.809  
  19349171.973  
  21931390.086   115250246.816    21931399.684    89805430.8414   21931400.117  
                
  24617682.094   129366777.259    24617689.906   100805331.6404                 
                
  22971347.938   120715242.048    22971355.578    94063863.3584   22971355.578  
                
  20620194.133   108359871.146    20620202.562    84436299.7664   20620202.645  
                
  22474043.164   120305343.672                    93570832.448    22474047.938  
  22474041.945  
  22587211.383   118696631.885    22587220.840    92490934.0754   22587221.145  
                
  20429330.992   107356897.676    20429339.777    83654789.1744   20429339.277  
                
  21487624.141   112918246.359    21487631.352    87988295.1554   21487631.156  
                
  24370596.727   128068350.649    24370604.500    99793543.2374                 
                
  22865990.992   122060191.148                    94935700.892    22865996.113  
  22865989.410  
  20553274.414   109907584.675                    85483736.639    20553280.637  
  20553273.512  
  20483847.281   109497926.913                    85165069.425    20483851.660  
  20483847.129  
  19777193.656   105794686.276                    82284785.245    19777197.324  
  19777191.918  
 21  8 14  9 35 20.0000000  0 14R 4G 8G21G18G27R 3G32G10G23G16R18R20
                                R 5R19
  19350773.664   103622565.950                    80595331.488    19350776.680  
  19350772.863  
  21927500.383   115229806.293    21927510.027    89789503.1744   21927510.461  
                
  24612732.406   129340766.091    24612740.219   100785063.2174                 
                
  22976474.438   120742181.948    22976482.078    94084855.4664   22976482.055  
                
  20620250.859   108360169.251    20620259.309    84436532.0534   20620259.363  
                
  22481304.688   120344215.051                    93601065.746    22481309.449  
  22481303.527  
  22581330.734   118665728.926    22581340.191    92466853.8514   22581340.512  
                
  20429899.281   107359884.023    20429908.070    83657116.2014   20429907.570  
                
  21492054.906   112941530.170    21492062.121    88006438.3784   21492061.914  
                
  24376661.430   128100220.775    24376669.176    99818377.1014                 
                
  22872501.922   122094946.766                    94962733.001    22872506.980  
  22872500.344  
  20548176.594   109880324.356                    85462534.185    20548182.828  
  20548175.680  
  20477953.367   109466420.580                    85140564.501    20477957.762  
  20477953.230  
  19779593.422   105807523.456                    82294769.717    19779597.090  
  19779591.664  
 21  8 14  9 35 30.0000000  0 14R 4G 8G21G18G27R 3G32G10G23G16R18R20
                                R 5R19
  19352389.961   103631221.117                    80602063.295    19352392.957  
  19352389.184  
  21923620.211   115209415.868    21923629.902    89773614.5424   21923630.320  
                
  24607783.234   129314757.903    24607791.023   100764797.0894                 
                
  22981604.609   120769141.084    22981612.203    94105862.5834   22981612.211  
                
  20620320.195   108360533.590    20620328.648    84436815.9544   20620328.703  
                
  22488571.438   120383114.460                    93631320.830    22488576.164  
  22488570.266  
  22575455.992   118634856.996    22575465.453    92442797.8124   22575465.773  
                
  20430476.148   107362915.486    20430484.938    83659478.3874   20430484.438  
                
  21496491.258   112964843.335    21496498.457    88024604.4774   21496498.254  
                
  24382728.430   128132103.193    24382736.219    99843220.5424                 
                
  22879018.398   122129731.417                    94989787.726    22879023.316  
  22879016.719  
  20543084.852   109853096.537                    85441356.995    20543091.094  
  20543083.926  
  20472070.719   109434974.510                    85116106.469    20472075.133  
  20472070.578  
  19782004.344   105820420.231                    82304800.531    19782008.016  
  19782002.543  
 21  8 14  9 35 40.0000000  0 14R 4G 8G21G18G27R 3G32G10G23G16R18R20
                                R 5R19
  19354021.641   103639958.657                    80608859.165    19354024.617  
  19354020.863  
  21919749.602   115189075.677    21919759.316    89757765.0494   21919759.703  
                
  24602834.664   129288752.646    24602842.379   100744533.3004                 
                
  22986738.422   120796119.357    22986745.973    94126884.6044   22986746.012  
                
  20620402.125   108360964.102    20620410.582    84437151.4154   20620410.629  
                
  22495843.375   120422041.758                    93661597.604    22495848.102  
  22495842.191  
  22569587.148   118604016.087    22569596.613    92418765.9484   22569596.934  
                
  20431061.578   107365991.940    20431070.359    83661875.6224   20431069.855  
                
  21500933.164   112988185.688    21500940.355    88042793.3224   21500940.176  
                
  24388797.680   128163997.688    24388805.559    99868073.3604                 
                
  22885540.352   122164545.092                    95016865.025    22885545.113  
  22885538.570  
  20537999.156   109825901.210                    85420205.070    20538005.398  
  20537998.219  
  20466199.352   109403588.767                    85091695.333    20466203.789  
  20466199.191  
  19784426.375   105833376.504                    82314877.637    19784430.051  
  19784424.559  
 21  8 14  9 35 50.0000000  0 14R 4G 8G21G18G27R 3G32G10G23G16R18R20
                                R 5R19
  19355668.555   103648777.834                    80615718.533    19355671.516  
  19355667.758  
  21915888.438   115168785.183    21915898.148    89741954.2644   21915898.531  
                
  24597886.531   129262749.648    24597894.137   100724271.1924                 
                
  22991875.750   120823116.107    22991883.309    94147921.0034   22991883.344  
                
  20620496.516   108361460.131    20620504.973    84437537.9244   20620505.012  
                
  22503120.367   120460996.113                    93691895.397    22503125.113  
  22503119.180  
  22563724.102   118573205.664    22563733.559    92394757.8374   22563733.910  
                
  20431655.430   107369112.683    20431664.199    83664307.3714   20431663.703  
                
  21505380.484   113011556.511    21505387.668    88061004.3414   21505387.496  
                
  24394869.148   128195903.469    24394877.020    99892934.9784                 
                
  22892067.539   122199386.898                    95043964.166    22892072.238  
  22892065.668  
  20532919.445   109798737.778                    85399077.971    20532925.691  
  20532918.500  
  20460339.141   109372262.643                    85067330.573    20460343.617  
  20460338.965  
  19786859.398   105846391.608                    82325000.481    19786863.059  
  19786857.543  
 21  8 14  9 36  0.0000000  0 14R 4G 8G21G18G27R 3G32G10G23G16R18R20
                                R 5R19
  19357330.789   103657678.998                    80622641.671    19357333.758  
  19357329.973  
  21912036.773   115148544.528    21912046.473    89726182.3364   21912046.863  
                
  24592938.992   129236749.398    24592946.469   100704011.2834                 
                
  22997016.656   120850131.714    22997024.219    94168972.1064   22997024.273  
                
  20620603.461   108362022.101    20620611.918    84437975.8264   20620611.965  
                
  22510402.508   120499977.760                    93722214.443    22510407.242  
  22510401.309  
  22557866.969   118542426.240    22557876.387    92370773.8854   22557876.781  
                
  20432257.789   107372278.100    20432266.539    83666773.9284   20432266.055  
                
  21509833.297   113034956.152    21509840.480    88079237.8264   21509840.309  
                
  24400942.852   128227820.823    24400950.656    99917805.6514                 
                
  22898599.984   122234257.388                    95071085.643    22898604.727  
  22898598.117  
  20527845.867   109771607.162                    85377976.393    20527852.141  
  20527844.918  
  20454490.234   109340996.900                    85043012.797    20454494.773  
  20454490.055  
  19789303.547   105859466.117                    82335169.546    19789307.211  
  19789301.691  
 21  8 14  9 36 10.0000000  0 14R 4G 8G21G18G27R 3G32G10G23G16R18R20
                                R 5R19
  19359008.273   103666661.879                    80629628.354    19359011.230  
  19359007.434  
  21908194.641   115128353.976    21908204.312    89710449.4364   21908204.707  
                
  24587991.805   129210751.635    24587999.293   100683753.2934                 
                
  23002161.117   120877165.887    23002168.664    94190037.6964   23002168.711  
                
  20620722.906   108362649.770    20620731.352    84438464.9174   20620731.398  
                
  22517689.688   120538986.391                    93752554.485    22517694.395  
  22517688.457  
  22552015.711   118511677.672    22552025.070    92346813.9654   22552025.500  
                
  20432868.594   107375487.891    20432877.332    83669275.0594   20432876.852  
                
  21514291.531   113058384.284    21514298.715    88097493.5144   21514298.555  
                
  24407018.688   128259749.411    24407026.465    99942685.0524                 
                
  22905137.703   122269156.051                    95098229.021    22905142.473  
  22905135.852  
  20522778.336   109744508.868                    85356899.940    20522784.621  
  20522777.391  
  20448652.539   109309791.184                    85018741.700    20448657.109  
  20448652.363  
  19791758.758   105872599.845                    82345384.654    19791762.398  
  19791756.895  
 21  8 14  9 36 20.0000000  0 14R 4G 8G21G18G27R 3G32G10G23G16R18R20
                                R 5R19
  19360701.070   103675726.758                    80636678.806    19360704.012  
  19360700.211  
  21904362.109   115108213.912    21904371.746    89694755.8864   21904372.141  
                
  24583044.883   129184756.801    24583052.641   100663497.6124                 
                
  23007309.180   120904219.086    23007316.699    94211118.1104   23007316.730  
                
  20620854.945   108363343.609    20620863.375    84439005.5704   20620863.434  
                
  22524981.938   120578022.321                    93782915.746    22524986.613  
  22524980.641  
  22546170.414   118480960.506    22546179.738    92322878.5134   22546180.180  
                
  20433487.906   107378742.473    20433496.641    83671811.0954   20433496.164  
                
  21518755.250   113081841.294    21518762.426    88115771.6964   21518762.277  
                
  24413096.688   128291689.485    24413104.461    99967573.4234                 
                
  22911680.828   122304083.451                    95125394.748    22911685.559  
  22911678.977  
  20517716.945   109717443.438                    85335849.059    20517723.258  
  20517716.008  
  20442826.172   109278645.993                    84994517.677    20442830.762  
  20442825.996  
  19794225.070   105885792.962                    82355645.977    19794228.711  
  19794223.207  
 21  8 14  9 36 30.0000000  0 14R 4G 8G21G18G27R 3G32G10G23G16R18R20
                                R 5R19
  19362409.203   103684873.708                    80643793.100    19362412.117  
  19362408.340  
  21900539.211   115088124.435    21900548.805    89679101.7504   21900549.215  
                
  24578098.805   129158765.067    24578106.527   100643244.2994                 
                
  23012460.914   120931291.386    23012468.379    94232213.3964   23012468.430  
                
  20620999.594   108364103.700    20621008.000    84439597.8524   20621008.051  
                
  22532279.273   120617085.412                    93813298.112    22532283.902  
  22532277.934  
  22540331.125   118450274.887    22540340.434    92298967.6504   22540340.859  
                
  20434115.773   107382041.889    20434124.512    83674382.0714   20434124.031  
                
  21523224.469   113105327.189    21523231.637    88134072.3874   21523231.504  
                
  24419176.836   128323641.089    24419184.641    99992470.7464                 
