     2.11           OBSERVATION DATA    M (MIXED)           RINEX VERSION / TYPE
EFT-CORS.RU                             20210817 144811 UTC PGM / RUN BY / DATE 
MDNG                                                        MARKER NAME         
                                                            MARKER NUMBER       
MDNG                EFT-CORS.RU                             OBSERVER / AGENCY   
0                   TRIMBLE BD970       2.0                 REC # / TYPE / VERS 
0                   UNKNOWN EXT NONE                        ANT # / TYPE        
  3463911.2830  3030468.2400  4402179.3760                  APPROX POSITION XYZ 
        0.0000        0.0000        0.0000                  ANTENNA: DELTA H/E/N
     1     1                                                WAVELENGTH FACT L1/2
     6    C1    L1    P2    L2    C2    P1                  # / TYPES OF OBSERV 
    10.000                                                  INTERVAL            
  2021     8    16     4    30    0.0000000     GPS         TIME OF FIRST OBS   
  2021     8    16     5    30    0.0000000     GPS         TIME OF LAST OBS    
     0                                                      RCV CLOCK OFFS APPL 
                                                            END OF HEADER       
 21  8 16  4 30  0.0000000  0 17G26R 3R 2G20R16R19G29G12R10R18G18R 9
                                R20G 5G31G 2G25
  24302899.500   127712601.059    24302909.273    99516348.5864   24302909.074  
                
  23014984.039   123201021.853                    95823017.017    23014988.820  
  23014982.910  
  23335729.547   124523933.520                    96851937.399    23335733.008  
  23335727.648  
  22131525.586   116301940.737    22131531.438    90624934.4564                 
                
  21415484.742   114397670.164                    88975949.334    21415487.062  
  21415484.328  
  19543439.836   104544265.557                    81312193.482    19543442.496  
  19543437.559  
  20611920.789   108316389.010    20611926.934    84402410.0134   20611927.023  
                
  22420827.453   117822239.444    22420834.395    91809562.3794   22420834.551  
                
  21706844.938   115709698.862                                                  
  21706843.984  
  21541448.484   114989718.371                    89436443.981    21541451.969  
  21541446.875  
  22796567.039   119796795.010    22796574.391    93348167.8534   22796574.461  
                
  19580865.641   104560722.717                    81325009.270    19580868.500  
  19580864.980  
  21883728.891   117022143.182                    91017244.665    21883735.301  
  21883727.637  
  22021839.383   115725558.559    22021846.652    90175800.4234   22021846.680  
                
  22970288.055   120709675.048    22970293.984    94059502.8184   22970294.266  
                
  23867549.297   125424819.242    23867553.980    97733643.5944                 
                
  20505362.844   107756429.290    20505371.852    83966077.7624   20505372.395  
                
 21  8 16  4 30 10.0000000  0 17G26R 3R 2G20R16R19G29G12R10R18G18R 9
                                R20G 5G31G 2G25
  24296475.703   127678844.061    24296485.590    99490044.4654   24296485.375  
                
  23010663.070   123177891.246                    95805026.557    23010667.801  
  23010661.953  
  23337046.680   124530961.933                    96857403.911    23337050.137  
  23337044.781  
  22132235.344   116305670.492    22132241.148    90627840.7724                 
                
  21422771.680   114436595.555                    89006224.631    21422774.023  
  21422771.246  
  19544597.469   104550458.109                    81317009.920    19544600.141  
  19544595.199  
  20610530.430   108309082.607    20610536.578    84396716.7174   20610536.672  
                
  22426889.859   117854097.461    22426896.770    91834386.8024   22426896.945  
                
  21700929.953   115678168.697                                                  
  21700929.008  
  21547133.969   115020067.824                    89460049.082    21547137.426  
  21547132.359  
  22790473.242   119764771.638    22790480.520    93323214.5764   22790480.613  
                
  19581607.242   104564682.827                    81328089.362    19581610.098  
  19581606.598  
  21878512.906   116994251.140                    90995550.858    21878519.336  
  21878511.676  
  22017999.859   115705381.794    22018007.121    90160078.2914   22018007.148  
                
  22971049.922   120713678.717    22971055.828    94062622.5564   22971056.133  
                
  23873062.094   125453789.160    23873066.766    97756217.5484                 
                
  20508552.375   107773190.363    20508561.387    83979138.3334   20508561.941  
                
 21  8 16  4 30 20.0000000  0 17G26R 3R 2G20R16R19G29G12R10R18G18R 9
                                R20G 5G31G 2G25
  24290054.836   127645102.242    24290064.793    99463752.1794   24290064.547  
                
  23006353.398   123154821.203                    95787083.169    23006358.098  
  23006352.262  
  23338379.102   124538071.913                    96862933.893    23338382.555  
  23338377.215  
  22132957.242   116309464.071    22132962.996    90630796.8094                 
                
  21430066.547   114475563.474                    89036533.021    21430068.902  
  21430066.098  
  19545763.852   104556697.457                    81321862.752    19545766.512  
  19545761.574  
  20609146.195   108301808.418    20609152.340    84391048.5194   20609152.441  
                
  22432958.312   117885987.259    22432965.207    91859236.0014   22432965.387  
                
  21695025.711   115646695.746                                                  
  21695024.770  
  21552821.875   115050430.342                    89483664.369    21552825.332  
  21552820.246  
  22784384.711   119732775.937    22784391.848    93298282.8544   22784391.992  
                
  19582365.867   104568733.867                    81331240.161    19582368.730  
  19582365.215  
  21873303.234   116966392.552                    90973883.083    21873309.641  
  21873302.000  
  22014170.789   115685259.896    22014178.031    90144398.9034   22014178.062  
                
  22971823.602   120717744.405    22971829.473    94065790.6284   22971829.785  
                
  23878576.844   125482769.281    23878581.496    97778799.4544                 
                
  20511752.383   107790006.439    20511761.414    83992241.7604   20511761.961  
                
 21  8 16  4 30 30.0000000  0 17G26R 3R 2G20R16R19G29G12R10R18G18R 9
                                R20G 5G31G 2G25
  24283636.938   127611375.837    24283646.895    99437471.8654   24283646.648  
                
  23002055.023   123131811.605                    95769186.823    23002059.699  
  23002053.902  
  23339726.773   124545263.366                    96868527.254    23339730.242  
  23339724.895  
  22133691.312   116313321.633    22133697.008    90633802.7034                 
                
  21437369.367   114514573.953                    89066874.483    21437371.723  
  21437368.914  
  19546939.039   104562983.917                    81326752.215    19546941.684  
  19546936.762  
  20607768.109   108294566.532    20607774.254    84385405.4874   20607774.352  
                
  22439032.812   117917908.852    22439039.699    91884109.9444   22439039.875  
                
  21689132.156   115615279.859                                                  
  21689131.227  
  21558512.219   115080805.809                    89507289.714    21558515.672  
  21558510.578  
  22778301.453   119700808.091    22778308.469    93273372.8424   22778308.645  
                
  19583141.523   104572875.933                    81334461.765    19583144.391  
  19583140.832  
  21868099.867   116938567.676                    90952241.528    21868106.227  
  21868098.605  
  22010352.188   115665193.121    22010359.422    90128762.4734   22010359.438  
                
  22972609.102   120721872.275    22972614.953    94069007.1544   22972615.270  
                
  23884093.547   125511759.723    23884098.160    97801389.4104                 
                
  20514962.867   107806877.637    20514971.934    84005388.1474   20514972.461  
                
 21  8 16  4 30 40.0000000  0 17G26R 3R 2G20R16R19G29G12R10R18G18R 9
                                R20G 5G31G 2G25
  24277221.992   127577665.104    24277231.961    99411203.7794   24277231.711  
                
  22997768.070   123108863.070                    95751337.966    22997772.738  
  22997766.969  
  23341089.828   124552536.855                    96874184.413    23341093.316  
  23341087.973  
  22134437.586   116317243.280    22134443.238    90636858.5494                 
                
  21444680.164   114553626.935                    89097249.019    21444682.535  
  21444679.711  
  19548123.000   104569317.264                    81331678.155    19548125.637  
  19548120.719  
  20606396.211   108287357.166    20606402.355    84379787.8034   20606402.469  
                
  22445113.391   117949862.372    22445120.305    91909008.7804   22445120.465  
                
  21683249.461   115583921.812                                                  
  21683248.520  
  21564205.078   115111194.665                    89530925.491    21564208.492  
  21564203.410  
  22772223.562   119668868.325    22772230.445    93248484.7084   22772230.633  
                
  19583934.281   104577109.250                    81337754.320    19583937.156  
  19583933.543  
  21862902.828   116910776.747                    90930626.363    21862909.164  
  21862901.570  
  22006544.148   115645181.773    22006551.363    90113169.2294   22006551.387  
                
  22973406.461   120726062.444    22973412.324    94072272.2184   22973412.621  
                
  23889612.258   125540760.749    23889616.824    97823987.6084                 
                
  20518183.867   107823804.081    20518192.973    84018577.5864   20518193.473  
                
 21  8 16  4 30 50.0000000  0 17G26R 3R 2G20R16R19G29G12R10R18G18R 9
                                R20G 5G31G 2G25
  24270809.930   127543969.530    24270819.938    99384947.5094   24270819.648  
                
  22993492.406   123085975.137                    95733536.250    22993497.086  
  22993491.297  
  23342468.055   124559891.357                    96879904.539    23342471.559  
  23342466.180  
  22135195.961   116321228.599    22135201.613    90639963.9994                 
                
  21451998.766   114592721.803                    89127656.113    21452001.168  
  21451998.320  
  19549315.664   104575697.255                    81336640.383    19549318.309  
  19549313.387  
  20605030.391   108280179.796    20605036.539    84374195.0464   20605036.656  
                
  22451199.898   117981847.103    22451206.836    91933931.9394   22451206.984  
                
  21677377.516   115552621.132                                                  
  21677376.582  
  21569900.297   115141596.088                    89554571.050    21569903.688  
  21569898.633  
  22766150.930   119636956.181    22766157.680    93223618.0904   22766157.879  
                
  19584744.016   104581433.233                    81341117.414    19584746.883  
  19584743.273  
  21857712.070   116883019.344                    90909037.279    21857718.398  
  21857710.789  
  22002746.562   115625225.404    22002753.754    90097618.8294   22002753.793  
                
  22974215.547   120730314.293    22974221.438    94075585.3514   22974221.691  
                
  23895132.820   125569771.508    23895137.375    97846593.3794                 
                
  20521415.281   107840785.239    20521424.434    84031809.6534   20521424.902  
                
 21  8 16  4 31  0.0000000  0 17G26R 3R 2G20R16R19G29G12R10R18G18R 9
                                R20G 5G31G 2G25
  24264400.859   127510289.566    24264410.883    99358703.3894   24264410.562  
                
  22989228.148   123063148.278                    95715782.022    22989232.875  
  22989227.055  
  23343861.602   124567327.540                    96885688.251    23343865.125  
  23343859.734  
  22135966.492   116325277.770    22135972.160    90643119.2024                 
                
  21459325.266   114631858.601                    89158095.828    21459327.664  
  21459324.805  
  19550517.039   104582123.817                    81341638.814    19550519.695  
  19550514.762  
  20603670.727   108273034.728    20603676.887    84368627.4634   20603677.008  
                
  22457292.422   118013863.356    22457299.344    91958879.6634   22457299.512  
                
  21671516.359   115521377.939                                                  
  21671515.434  
  21575597.922   115172010.397                    89578226.623    21575601.316  
  21575596.238  
  22760083.602   119605071.980    22760090.297    93198773.2514   22760090.484  
                
  19585570.805   104585848.254                    81344551.316    19585573.660  
  19585570.066  
  21852527.602   116855295.724                    90887474.468    21852533.969  
  21852526.336  
  21998959.523   115605324.412    21998966.695    90082111.5804   21998966.727  
                
  22975036.445   120734628.150    22975042.359    94078946.7934   22975042.605  
                
  23900655.297   125598792.247    23900659.859    97869206.9234                 
                
  20524657.141   107857821.319    20524666.328    84045084.5104   20524666.777  
                
 21  8 16  4 31 10.0000000  0 17G26R 3R 2G20R16R19G29G12R10R18G18R 9
                                R20G 5G31G 2G25
  24257994.758   127476625.202    24258004.785    99332471.4114   24258004.441  
                
  22984975.273   123040382.461                    95698075.268    22984980.023  
  22984974.191  
  23345270.438   124574845.284                    96891535.381    23345273.965  
  23345268.621  
  22136749.133   116329390.568    22136754.812    90646323.9904                 
                
  21466659.570   114671037.165                    89188568.034    21466661.961  
  21466659.133  
  19551727.164   104588597.185                    81346673.653    19551729.812  
  19551724.887  
  20602317.203   108265921.948    20602323.371    84363085.0384   20602323.488  
                
  22463390.914   118045911.006    22463397.812    91983851.8414   22463397.980  
                
  21665666.086   115490192.633                                                  
  21665665.137  
  21581297.938   115202437.428                    89601892.072    21581301.312  
  21581296.270  
  22754021.555   119573215.726    22754028.246    93173950.2024   22754028.395  
                
  19586414.609   104590354.093                    81348055.865    19586417.445  
  19586413.895  
  21847349.406   116827605.667                    90865937.775    21847355.789  
  21847348.176  
  21995183.031   115585478.880    21995190.188    90066647.5384   21995190.227  
                
  22975869.133   120739003.960    22975875.062    94082356.5124   22975875.324  
                
  23906179.656   125627822.858    23906184.203    97891828.1734                 
                
  20527909.445   107874912.242    20527918.645    84058402.1134   20527919.090  
                
 21  8 16  4 31 20.0000000  0 17G26R 3R 2G20R16R19G29G12R10R18G18R 9
                                R20G 5G31G 2G25
  24251591.656   127442976.646    24251601.660    99306251.7624   24251601.324  
                
  22980733.875   123017678.024                    95680416.257    22980738.637  
  22980732.797  
  23346694.484   124582444.166                    96897445.585    23346698.012  
  23346692.680  
  22137543.953   116333567.385    22137549.641    90649578.6614                 
                
  21474001.719   114710257.521                    89219072.748    21474004.133  
  21474001.281  
  19552945.977   104595117.000                    81351744.622    19552948.613  
  19552943.688  
  20600969.852   108258841.546    20600976.035    84357567.8504   20600976.160  
                
  22469495.398   118077990.186    22469502.285    92008848.5964   22469502.445  
                
  21659826.656   115459065.295                                                  
  21659825.715  
  21587000.359   115232877.328                    89625567.539    21587003.746  
  21586998.723  
  22747964.852   119541387.624    22747971.539    93149149.0924   22747971.684  
                
  19587275.445   104594950.898                    81351631.170    19587278.262  
  19587274.742  
  21842177.547   116799949.489                    90844427.428    21842183.941  
  21842176.320  
  21991417.141   115565689.038    21991424.281    90051226.9004   21991424.316  
                
  22976713.609   120743441.728    22976719.535    94085814.5134   22976719.805  
                
  23911705.906   125656863.477    23911710.410    97914457.2324                 
                
  20531172.203   107892058.135    20531181.418    84071762.5454   20531181.863  
                
 21  8 16  4 31 30.0000000  0 17G26R 3R 2G20R16R19G29G12R10R18G18R 9
                                R20G 5G31G 2G25
  24245191.586   127409344.034    24245201.551    99280044.5434   24245201.227  
                
  22976503.984   122995035.163                    95662805.161    22976508.742  
  22976502.930  
  23348133.789   124590124.531                    96903419.216    23348137.305  
  23348131.996  
  22138350.961   116337808.231    22138356.660    90652883.2244                 
                
  21481351.625   114749519.530                    89249609.849    21481354.062  
  21481351.207  
  19554173.500   104601683.446                    81356851.862    19554176.137  
  19554171.219  
  20599628.664   108251793.590    20599634.855    84352075.9374   20599634.973  
                
  22475605.875   118110100.871    22475612.746    92033869.9024   22475612.906  
                
  21653998.164   115427996.241                                                  
  21653997.215  
  21592705.141   115263329.769                    89649252.761    21592708.512  
  21592703.520  
  22741913.508   119509587.753    22741920.223    93124369.9794   22741920.363  
                
  19588153.344   104599638.813                    81355277.323    19588156.145  
  19588152.629  
  21837012.023   116772327.210                    90822943.434    21837018.414  
  21837010.770  
  21987661.875   115545955.034    21987669.020    90035849.7804   21987669.055  
                
  22977569.875   120747941.439    22977575.809    94089320.7974   22977576.109  
                
  23917234.055   125685914.083    23917238.520    97937094.0544                 
                
  20534445.422   107909258.964    20534454.660    84085165.7844   20534455.098  
                
 21  8 16  4 31 40.0000000  0 17G26R 3R 2G20R16R19G29G12R10R18G18R 9
                                R20G 5G31G 2G25
  24238794.523   127375727.208    24238804.422    99253849.6094   24238804.125  
                
  22972285.586   122972453.739                    95645241.821    22972290.340  
  22972284.480  
  23349588.352   124597886.384                    96909456.188    23349591.875  
  23349586.590  
  22139170.094   116342112.828    22139175.809    90656237.4524                 
                
  21488709.320   114788823.144                    89280179.320    21488711.762  
  21488708.926  
  19555409.695   104608296.323                    81361995.210    19555412.336  
  19555407.391  
  20598293.602   108244777.838    20598299.801    84346609.1124   20598299.906  
                
  22481722.289   118142242.772    22481729.129    92058915.5324   22481729.289  
                
  21648180.586   115396985.358                                                  
  21648179.648  
  21598412.250   115293794.615                    89672947.634    21598415.605  
  21598410.672  
  22735867.477   119477815.931    22735874.270    93099612.7394   22735874.410  
                
  19589048.234   104604417.515                    81358994.098    19589051.023  
  19589047.504  
  21831852.859   116744738.772                    90801485.767    21831859.207  
  21831851.605  
  21983917.180   115526276.648    21983924.352    90020515.9904   21983924.379  
                
  22978437.891   120752502.955    22978443.848    94092875.2234   22978444.141  
                
  23922764.047   125714974.350    23922768.516    97959738.4174                 
                
  20537729.039   107926514.476    20537738.297    84098611.6374   20537738.727  
                
 21  8 16  4 31 50.0000000  0 17G26R 3R 2G20R16R19G29G12R10R18G18R 9
                                R20G 5G31G 2G25
  24232400.508   127342126.398    24232410.328    99227667.1584   24232410.070  
                
  22968078.672   122949933.917                    95627726.416    22968083.449  
  22968077.570  
  23351058.133   124605729.374                    96915556.271    23351061.680  
  23351056.312  
  22140001.383   116346481.269    22140007.125    90659641.4404                 
                
  21496074.688   114828167.762                    89310780.695    21496077.160  
  21496074.344  
  19556654.555   104614955.472                    81367174.547    19556657.180  
  19556652.227  
  20596964.711   108237794.437    20596970.926    84341167.5084   20596971.027  
                
  22487844.672   118174415.988    22487851.488    92083985.5524   22487851.648  
                
  21642373.953   115366032.752                                                  
  21642373.023  
  21604121.750   115324272.199                    89696652.432    21604125.086  
  21604120.207  
  22729826.852   119446072.393    22729833.738    93074877.5354   22729833.875  
                
  19589960.164   104609287.192                    81362781.595    19589962.938  
  19589959.430  
  21826700.039   116717184.080                    90780054.324    21826706.312  
  21826698.785  
  21980183.133   115506654.125    21980190.324    90005225.7434   21980190.336  
                
  22979317.688   120757126.343    22979323.691    94096477.8444   22979323.957  
                
  23928295.922   125744044.415    23928300.441    97982390.3974                 
                
  20541023.102   107943824.788    20541032.379    84112100.1904   20541032.809  
                
 21  8 16  4 32  0.0000000  0 17G26R 3R 2G20R16R19G29G12R10R18G18R 9
                                R20G 5G31G 2G25
  24226009.508   127308541.548    24226019.281    99201497.1584   24226019.047  
                
  22963883.344   122927475.968                    95610259.101    22963888.086  
  22963882.250  
  23352543.195   124613653.972                    96921719.821    23352546.727  
  23352541.406  
  22140844.781   116350913.398    22140850.527    90663095.0544                 
                
  21503447.820   114867553.759                    89341414.225    21503450.301  
  21503447.469  
  19557908.055   104621660.892                    81372389.875    19557910.707  
  19557905.703  
  20595641.938   108230843.287    20595648.176    84335751.0304   20595648.258  
                
  22493972.930   118206620.110    22493979.730    92109079.6774   22493979.879  
                
  21636578.273   115335138.552                                                  
  21636577.359  
  21609833.523   115354761.953                    89720366.681    21609836.840  
  21609832.004  
  22723791.586   119414357.063    22723798.586    93050164.2914   22723798.695  
                
  19590889.109   104614247.745                    81366639.795    19590891.852  
  19590888.387  
  21821553.500   116689663.290                    90758649.274    21821559.758  
  21821552.285  
  21976459.711   115487087.443    21976466.891    89989978.9894   21976466.895  
                
  22980209.211   120761811.373    22980215.281    94100128.5094   22980215.527  
                
  23933829.602   125773124.065    23933834.195    98005049.8554                 
                
  20544327.539   107961189.702    20544336.852    84125631.2914   20544337.262  
                
 21  8 16  4 32 10.0000000  0 17G26R 3R 2G20R16R19G29G12R10R18G18R 9
                                R20G 5G31G 2G25
  24219621.586   127274972.828    24219631.305    99175339.7084   24219631.105  
                
  22959699.562   122905079.838                    95592839.903    22959704.285  
  22959698.527  
  23354043.461   124621659.615                    96927946.423    23354047.004  
  23354041.703  
  22141700.305   116355409.249    22141706.031    90666598.3264                 
                
  21510828.648   114906980.697                    89372079.610    21510831.152  
  21510828.293  
  19559170.180   104628412.504                    81377641.133    19559172.828  
  19559167.824  
  20594325.328   108223924.479    20594331.586    84330359.7554   20594331.656  
                
  22500107.094   118238855.256    22500113.914    92134197.9644   22500114.031  
                
  21630793.633   115304303.185                                                  
  21630792.738  
  21615547.633   115385264.187                    89744090.637    21615550.949  
  21615546.137  
  22717761.711   119382670.028    22717768.812    93025473.1134   22717768.906  
                
  19591835.062   104619299.038                    81370568.570    19591837.777  
  19591834.379  
  21816413.273   116662176.141                    90737270.399    21816419.496  
  21816412.070  
  21972746.953   115467576.822    21972754.102    89974775.9194   21972754.129  
                
  22981112.477   120766558.096    22981118.605    94103827.2534   22981118.836  
                
  23939365.102   125802213.282    23939369.738    98027716.7534                 
                
  20547642.383   107978609.308    20547651.738    84139204.9974   20547652.125  
                
 21  8 16  4 32 20.0000000  0 17G26R 3R 2G20R16R19G29G12R10R18G18R 9
                                R20G 5G31G 2G25
  24213236.711   127241420.327    24213246.383    99149194.8974   24213246.207  
                
  22955527.406   122882745.862                    95575469.039    22955532.152  
  22955526.379  
  23355559.000   124629746.709                    96934236.357    23355562.586  
  23355557.285  
  22142567.984   116359968.930    22142573.668    90670151.3274                 
                
  21518217.125   114946448.605                    89402776.859    21518219.637  
  21518216.750  
  19560441.000   104635210.510                    81382928.476    19560443.648  
  19560438.633  
  20593014.898   108217038.099    20593021.172    84324993.7484   20593021.234  
                
  22506247.172   118271121.461    22506254.004    92159340.4514   22506254.105  
                
  21625020.031   115273526.676                                                  
  21625019.160  
  21621264.023   115415778.569                    89767824.029    21621267.336  
  21621262.520  
  22711737.289   119351011.443    22711744.441    93000804.0924   22711744.508  
                
  19592798.062   104624441.317                    81374568.132    19592800.746  
  19592797.406  
  21811279.414   116634722.964                    90715917.929    21811285.621  
  21811278.188  
  21969044.875   115448122.340    21969051.980    89959616.6124   21969052.035  
                
  22982027.508   120771366.559    22982033.707    94107574.1094   22982033.906  
                
  23944902.438   125831312.090    23944907.090    98050391.1564                 
                
  20550967.633   107996083.566    20550977.031    84152821.2964   20550977.391  
                
 21  8 16  4 32 30.0000000  0 17G26R 3R 2G20R16R19G29G12R10R18G18R 9
                                R20G 5G31G 2G25
  24206854.836   127207884.212    24206864.598    99123062.9214   24206864.449  
                
  22951366.898   122860474.256                    95558146.687    22951371.656  
  22951365.906  
  23357089.742   124637914.990                    96940589.468    23357093.383  
  23357088.047  
  22143447.820   116364592.511    22143453.453    90673754.1204                 
                
  21525613.211   114985957.165                    89433505.741    21525615.758  
  21525612.836  
  19561720.438   104642054.649                    81388251.693    19561723.098  
  19561718.059  
  20591710.633   108210184.139    20591716.918    84319652.9994   20591716.988  
                
  22512393.141   118303418.653    22512399.965    92184507.0794   22512400.090  
                
  21619257.477   115242809.056                                                  
  21619256.605  
  21626982.734   115446305.315                    89791567.052    21626986.066  
  21626981.246  
  22705718.297   119319381.410    22705725.473    92976157.3294   22705725.539  
                
  19593778.062   104629674.430                    81378638.338    19593780.730  
  19593777.430  
  21806151.883   116607303.842                    90694591.972    21806158.121  
  21806150.672  
  21965353.508   115428724.150    21965360.609    89944501.1514   21965360.672  
                
  22982954.289   120776236.809    22982960.559    94111369.1004   22982960.723  
                
  23950441.602   125860420.556    23950446.273    98073073.0644                 
                
  20554303.297   108013612.551    20554312.727    84166480.2434   20554313.059  
                
 21  8 16  4 32 40.0000000  0 17G26R 3R 2G20R16R19G29G12R10R18G18R 9
                                R20G 5G31G 2G25
  24200476.141   127174364.427    24200485.879    99096943.6214   24200485.773  
                
  22947218.023   122838264.911                    95540872.752    22947222.805  
  22947217.062  
  23358635.672   124646164.391                    96947005.671    23358639.352  
  23358633.953  
  22144339.758   116369279.777    22144345.375    90677406.5394                 
                
  21533016.906   115025506.412                    89464266.247    21533019.422  
  21533016.520  
  19563008.492   104648944.929                    81393610.799    19563011.152  
  19563006.117  
  20590412.508   108203362.484    20590418.797    84314337.4254   20590418.863  
                
  22518544.969   118335746.660    22518551.793    92209697.7294   22518551.938  
                
  21613506.008   115212150.506                                                  
  21613505.105  
  21632703.695   115476844.174                    89815319.487    21632707.023  
  21632702.238  
  22699704.719   119287779.816    22699711.930    92951532.7194   22699711.992  
                
  19594775.078   104634998.468                    81382779.264    19594777.727  
  19594774.465  
  21801030.672   116579918.565                    90673292.326    21801036.945  
  21801029.441  
  21961672.844   115409382.197    21961679.934    89929429.5224   21961679.984  
                
  22983892.766   120781168.552    22983899.082    94115212.0134   22983899.219  
                
  23955982.547   125889538.426    23955987.234    98095762.2974                 
                
  20557649.320   108031196.022    20557658.746    84180181.6424   20557659.074  
                
 21  8 16  4 32 50.0000000  0 17G26R 3R 2G20R16R19G29G12R10R18G18R 9
                                R20G 5G31G 2G25
  24194100.641   127140861.139    24194110.305    99070837.1704   24194110.234  
                
  22943080.805   122816118.085                    95523647.481    22943085.633  
  22943079.828  
  23360196.766   124654494.758                    96953484.824    23360200.453  
  23360195.012  
  22145243.828   116374030.729    22145249.484    90681108.5884                 
                
  21540428.180   115065096.121                    89495058.232    21540430.680  
  21540427.809  
  19564305.125   104655881.122                    81399005.605    19564307.793  
  19564302.773  
  20589120.555   108196573.240    20589126.836    84309047.1054   20589126.914  
                
  22524702.680   118368105.576    22524709.508    92234912.4584   22524709.633  
                
  21607765.648   115181551.182                                                  
  21607764.723  
  21638426.938   115507395.142                    89839081.351    21638430.258  
  21638425.480  
  22693696.602   119256206.806    22693703.836    92926930.3894   22693703.895  
                
  19595789.141   104640413.506                    81386990.956    19595791.773  
  19595788.539  
  21795915.836   116552567.261                    90652019.109    21795922.117  
  21795914.613  
  21958002.930   115390096.731    21958009.969    89914401.8964   21958010.043  
                
  22984842.969   120786161.874    22984849.301    94119102.9204   22984849.449  
                
  23961525.289   125918665.661    23961529.980    98118458.8454                 
                
  20561005.734   108048834.047    20561015.141    84193925.5534   20561015.477  
                
 21  8 16  4 33  0.0000000  0 17G26R 3R 2G20R16R19G29G12R10R18G18R 9
                                R20G 5G31G 2G25
  24187728.305   127107374.254    24187737.879    99044743.5104   24187737.840  
                
  22938955.289   122794033.720                    95506470.750    22938960.129  
  22938954.285  
  23361773.062   124662906.186                    96960027.017    23361776.766  
  23361771.324  
  22146160.000   116378845.260    22146165.695    90684860.1734                 
                
  21547846.969   115104725.772                    89525881.286    21547849.395  
  21547846.605  
  19565610.344   104662863.159                    81404436.075    19565613.012  
  19565608.004  
  20587834.734   108189816.253    20587840.996    84303781.9244   20587841.094  
                
  22530866.211   118400495.094    22530873.004    92260151.0354   22530873.129  
                
  21602036.398   115151011.059                                                  
  21602035.473  
  21644152.406   115537957.967                    89862852.427    21644155.727  
  21644150.945  
  22687693.875   119224662.243    22687701.105    92902350.2124   22687701.168  
                
  19596820.164   104645919.104                    81391273.093    19596822.773  
  19596819.559  
  21790807.352   116525249.739                    90630772.151    21790813.605  
  21790806.051  
  21954343.734   115370867.561    21954350.738    89899418.1444   21954350.824  
                
  22985804.867   120791216.665    22985811.215    94123041.7164   22985811.383  
                
  23967069.766   125947801.979    23967074.465    98141162.4614                 
                
  20564372.492   108066526.402    20564381.867    84207711.7984   20564382.215  
                
 21  8 16  4 33 10.0000000  0 17G26R 3R 2G20R16R19G29G12R10R18G18R 9
                                R20G 5G31G 2G25
  24181359.156   127073903.845    24181368.613    99018662.6454   24181368.594  
                
  22934841.461   122772011.988                    95489342.746    22934846.285  
  22934840.449  
  23363364.617   124671398.960                    96966632.476    23363368.301  
  23363362.879  
  22147088.266   116383723.371    22147093.992    90688661.2964                 
                
  21555273.266   115144395.620                    89556735.595    21555275.691  
  21555272.895  
  19566924.062   104669890.697                    81409901.936    19566926.730  
  19566921.758  
  20586555.039   108183091.431    20586561.281    84298541.8014   20586561.395  
                
  22537035.547   118432915.111    22537042.293    92285413.3754   22537042.438  
                
  21596318.281   115120530.326                                                  
  21596317.316  
  21649880.094   115568532.624                    89886632.702    21649883.414  
  21649878.637  
  22681696.562   119193146.157    22681703.754    92877792.2204   22681703.832  
                
  19597868.164   104651515.353                    81395625.715    19597870.746  
  19597867.582  
  21785705.156   116497965.941                    90609551.417    21785711.402  
  21785703.809  
  21950695.258   115351694.754    21950702.273    89884478.3034   21950702.348  
                
  22986778.430   120796332.791    22986784.801    94127028.3024   22986784.961  
                
  23972615.953   125976947.342    23972620.625    98163873.1194                 
                
  20567749.562   108084273.012    20567758.898    84221540.3164   20567759.266  
                
 21  8 16  4 33 20.0000000  0 17G26R 3R 2G20R16R19G29G12R10R18G18R 9
                                R20G 5G31G 2G25
  24174993.180   127040450.278    24175002.602    98992594.9294   24175002.586  
                
  22930739.359   122750053.333                    95472263.813    22930744.242  
  22930738.348  
  23364971.281   124679972.449                    96973300.713    23364974.988  
  23364969.531  
  22148028.680   116388665.343    22148034.434    90692512.1944                 
                
  21562707.070   115184105.571                    89587621.091    21562709.477  
  21562706.672  
  19568246.391   104676964.282                    81415403.626    19568249.062  
  19568244.086  
  20585281.555   108176399.204    20585287.789    84293327.0844   20585287.898  
                
  22543210.727   118465365.811    22543217.461    92310699.6344   22543217.621  
                
  21590611.383   115090109.453                                                  
  21590610.414  
  21655610.008   115599119.297                    89910422.317    21655613.359  
  21655608.543  
  22675704.742   119161658.947    22675711.883    92853256.7334   22675711.969  
                
  19598933.188   104657202.466                    81400049.019    19598935.750  
  19598932.621  
  21780609.344   116470716.296                    90588357.255    21780615.586  
  21780608.027  
  21947057.602   115332578.818    21947064.641    89869582.8014   21947064.707  
                
  22987763.734   120801510.544    22987770.133    94131062.9074   22987770.277  
                
  23978163.938   126006102.089    23978168.555    98186591.0994                 
                
  20571137.023   108102074.192    20571146.320    84235411.3734   20571146.699  
                
 21  8 16  4 33 30.0000000  0 17G26R 3R 2G20R16R19G29G12R10R18G18R 9
                                R20G 5G31G 2G25
  24168630.414   127007013.546    24168639.848    98966540.3354   24168639.840  
                
  22926649.055   122728157.741                    95455233.887    22926653.949  
  22926648.035  
  23366593.180   124688627.140                    96980032.118    23366596.895  
  23366591.402  
  22148981.234   116393671.054    22148986.988    90696412.7494                 
                
  21570148.312   115223855.260                    89618537.516    21570150.699  
  21570147.922  
  19569577.289   104684083.674                    81420940.926    19569579.973  
  19569574.984  
  20584014.250   108169739.452    20584020.477    84288137.6634   20584020.586  
                
  22549391.727   118497847.089    22549398.469    92336009.7104   22549398.609  
                
  21584915.742   115059748.478                                                  
  21584914.746  
  21661342.133   115629717.689                    89934221.052    21661345.492  
  21661340.664  
  22669718.398   119130200.542    22669725.484    92828743.6944   22669725.582  
                
  19600015.227   104662980.381                    81404542.952    19600017.754  
  19600014.691  
  21775519.906   116443500.791                    90567189.659    21775526.156  
  21775518.617  
  21943430.734   115313519.587    21943437.762    89854731.4714   21943437.820  
                
  22988760.727   120806749.750    22988767.148    94135145.4074   22988767.293  
                
  23983713.664   126035266.048    23983718.242    98209316.2584                 
                
  20574534.836   108119929.772    20574544.098    84249324.8014   20574544.492  
                
 21  8 16  4 33 40.0000000  0 17G26R 3R 2G20R16R19G29G12R10R18G18R 9
                                R20G 5G31G 2G25
  24162270.836   126973593.596    24162280.273    98940498.8124   24162280.270  
                
  22922570.539   122706325.187                    95438253.026    22922575.430  
  22922569.465  
  23368230.211   124697362.607                    96986826.380    23368233.914  
  23368228.391  
  22149945.891   116398740.447    22149951.637    90700362.9304                 
                
  21577597.047   115263644.848                    89649484.962    21577599.359  
  21577596.648  
  19570916.688   104691248.574                    81426513.630    19570919.375  
  19570914.387  
  20582753.102   108163112.084    20582759.328    84282973.4834   20582759.438  
                
  22555578.484   118530358.751    22555585.219    92361343.4604   22555585.363  
                
  21579231.336   115029447.370                                                  
  21579230.340  
  21667076.445   115660327.831                    89958028.929    21667079.824  
  21667074.973  
  22663737.516   119098770.910    22663744.551    92804253.0764   22663744.652  
                
  19601114.234   104668848.986                    81409107.415    19601116.730  
  19601113.734  
  21770436.781   116416319.180                    90546048.428    21770443.051  
  21770435.484  
  21939814.672   115294517.117    21939821.660    89839924.3744   21939821.742  
                
  22989769.383   120812050.283    22989775.797    94139275.6874   22989775.949  
                
  23989265.086   126064438.970    23989269.684    98232048.4004                 
                
  20577942.977   108137839.615    20577952.215    84263280.5174   20577952.605  
                
 21  8 16  4 33 50.0000000  0 17G26R 3R 2G20R16R19G29G12R10R18G18R 9
                                R20G 5G31G 2G25
  24155914.492   126940190.700    24155923.949    98914470.5864   24155923.957  
                
  22918503.898   122684556.114                    95421321.517    22918508.750  
  22918502.758  
  23369882.422   124706179.043                    96993683.588    23369886.109  
  23369880.590  
  22150922.688   116403873.558    22150928.410    90704362.7544                 
                
  21585053.188   115303473.992                    89680463.187    21585055.465  
  21585052.793  
  19572264.641   104698459.184                    81432121.882    19572267.328  
  19572262.344  
  20581498.141   108156517.228    20581504.371    84277834.6364   20581504.473  
                
  22561771.078   118562900.966    22561777.773    92386701.0254   22561777.922  
                
  21573558.211   114999206.472                                                  
  21573557.230  
  21672812.961   115690949.732                    89981845.962    21672816.355  
  21672811.488  
  22657762.156   119067370.257    22657769.156    92779785.0424   22657769.270  
                
  19602230.258   104674808.461                    81413742.570    19602232.730  
  19602229.773  
  21765360.078   116389171.725                    90524933.736    21765366.336  
  21765358.750  
  21936209.492   115275571.797    21936216.453    89825161.7884   21936216.539  
                
  22990789.742   120817412.251    22990796.121    94143453.8474   22990796.281  
                
  23994818.227   126093620.942    23994822.891    98254787.5824                 
                
  20581361.461   108155803.839    20581370.672    84277278.6084   20581371.062  
                
 21  8 16  4 34  0.0000000  0 17G26R 3R 2G20R16R19G29G12R10R18G18R 9
                                R20G 5G31G 2G25
  24149561.406   126906804.953    24149570.910    98888455.7454   24149570.922  
                
  22914449.094   122662850.591                    95404439.454    22914453.941  
  22914447.926  
  23371549.797   124715076.446                    97000603.764    23371553.492  
  23371547.930  
  22151911.609   116409070.418    22151917.336    90708412.2604                 
                
  21592516.766   115343342.810                    89711472.275    21592518.977  
  21592516.371  
  19573621.109   104705715.350                    81437765.561    19573623.801  
  19573618.824  
  20580249.383   108149954.916    20580255.617    84272721.1484   20580255.711  
                
  22567969.461   118595473.704    22567976.105    92412082.3714   22567976.270  
                
  21567896.398   114969025.828                                                  
  21567895.484  
  21678551.695   115721583.387                    90005672.149    21678555.121  
  21678550.223  
  22651792.320   119035998.655    22651799.312    92755339.6514   22651799.418  
                
  19603363.312   104680858.841                    81418448.425    19603365.777  
  19603362.848  
  21760289.727   116362058.324                    90503845.522    21760295.965  
  21760288.426  
  21932615.156   115256683.533    21932622.137    89810443.6814   21932622.199  
                
  22991821.797   120822835.647    22991828.148    94147679.8934   22991828.309  
                
  24000373.109   126122811.990    24000377.816    98277533.8294                 
                
  20584790.289   108173822.432    20584799.480    84291319.0644   20584799.875  
                
 21  8 16  4 34 10.0000000  0 17G26R 3R 2G20R16R19G29G12R10R18G18R 9
                                R20G 5G31G 2G25
  24143211.586   126873436.253    24143221.070    98862454.1614   24143221.082  
                
  22910406.156   122641208.493                    95387606.736    22910411.016  
  22910404.973  
  23373232.281   124724054.531                    97007586.708    23373235.961  
  23373230.375  
  22152912.609   116414330.767    22152918.371    90712511.2394                 
                
  21599987.594   115383250.722                    89742511.751    21599989.867  
  21599987.215  
  19574986.055   104713016.921                    81443444.561    19574988.762  
  19574983.766  
  20579006.766   108143424.935    20579013.004    84267632.8504   20579013.094  
                
  22574173.594   118628076.635    22574180.207    92437487.2444   22574180.375  
                
  21562245.891   114938905.419                                                  
  21562244.984  
  21684292.570   115752228.521                    90029507.225    21684295.992  
  21684291.086  
  22645827.984   119004655.972    22645834.977    92730916.7874   22645835.066  
                
  19604513.320   104686999.815                    81423224.725    19604515.762  
  19604512.863  
  21755225.742   116334979.016                    90482783.843    21755231.969  
  21755224.461  
  21929031.672   115237852.279    21929038.699    89795770.0154   21929038.719  
                
  22992865.484   120828320.284    22992871.816    94151953.6224   22992871.984  
                
  24005929.664   126152011.838    24005934.387    98300286.9564                 
                
  20588229.422   108191895.160    20588238.598    84305401.7004   20588238.992  
                
 21  8 16  4 34 20.0000000  0 17G26R 3R 2G20R16R19G29G12R10R18G18R 9
                                R20G 5G31G 2G25
  24136865.039   126840084.697    24136874.520    98836465.9464   24136874.520  
                
  22906375.109   122619630.085                    95370823.544    22906379.996  
  22906373.906  
  23374929.969   124733113.772                    97014632.756    23374933.680  
  23374928.023  
  22153925.703   116419654.662    22153931.512    90716659.7374                 
                
  21607465.805   115423198.097                    89773581.918    21607468.141  
  21607465.414  
  19576359.484   104720363.840                    81449158.825    19576362.199  
  19576357.207  
  20577770.305   108136927.322    20577776.535    84262569.7774   20577776.633  
                
  22580383.461   118660709.737    22580390.094    92462915.6274   22580390.238  
                
  21556606.727   114908845.511                                                  
  21556605.812  
  21690035.578   115782885.033                    90053351.169    21690038.980  
  21690034.094  
  22639869.156   118973342.272    22639876.184    92706516.5184   22639876.262  
                
  19605680.305   104693231.432                    81428071.545    19605682.734  
  19605679.859  
  21750168.070   116307933.614                    90461748.531    21750174.328  
  21750166.762  
  21925459.070   115219078.243    21925466.113    89781140.9144   21925466.125  
                
  22993920.805   120833866.037    22993927.125    94156274.9884   22993927.293  
                
  24011487.859   126181220.401    24011492.547    98323046.8594                 
                
  20591678.844   108210022.005    20591688.004    84319526.5114   20591688.391  
                
 21  8 16  4 34 30.0000000  0 17G26R 3R 2G20R16R19G29G12R10R18G18R 9
                                R20G 5G31G 2G25
  24130521.797   126806750.492    24130531.242    98810491.2334   24130531.227  
                
  22902356.000   122598115.608                    95354090.078    22902360.902  
  22902354.797  
  23376642.758   124742253.516                    97021741.425    23376646.449  
  23376640.785  
  22154950.914   116425042.205    22154956.781    90720857.8274                 
                
  21614951.281   115463184.439                    89804682.379    21614953.715  
  21614950.867  
  19577741.391   104727756.088                    81454908.367    19577744.113  
  19577739.094  
  20576540.039   108130462.197    20576546.266    84257532.0264   20576546.375  
                
  22586599.109   118693373.154    22586605.773    92488367.6244   22586605.887  
                
  21550978.992   114878846.454                                                  
  21550978.082  
  21695780.773   115813553.089                    90077204.114    21695784.141  
  21695779.285  
  22633915.906   118942057.722    22633922.961    92682138.9664   22633923.020  
                
  19606864.281   104699553.774                    81432988.927    19606866.695  
  19606863.848  
  21745116.789   116280922.404                    90440739.825    21745123.109  
  21745115.473  
  21921897.383   115200361.475    21921904.422    89766556.4424   21921904.418  
                
  22994987.773   120839473.008    22994994.082    94160644.0414   22994994.246  
                
  24017047.742   126210437.725    24017052.391    98345813.5974                 
                
  20595138.578   108228202.993    20595147.711    84333693.5104   20595148.105  
                
 21  8 16  4 34 40.0000000  0 17G26R 3R 2G20R16R19G29G12R10R18G18R 9
                                R20G 5G31G 2G25
  24124181.805   126773433.601    24124191.285    98784530.0344   24124191.238  
                
  22898348.867   122576665.055                    95337406.311    22898353.734  
  22898347.652  
  23378370.703   124751474.159                    97028913.010    23378374.387  
  23378368.734  
  22155988.211   116430493.298    22155994.129    90725105.4284                 
                
  21622444.039   115503209.727                    89835813.110    21622446.547  
  21622443.641  
  19579131.750   104735193.615                    81460693.105    19579134.484  
  19579129.465  
  20575315.930   108124029.521    20575322.156    84252519.5444   20575322.277  
                
  22592820.461   118726066.635    22592827.156    92513843.0574   22592827.258  
                
  21545362.617   114848908.013                                                  
  21545361.738  
  21701528.070   115844232.529                    90101065.876    21701531.422  
  21701526.559  
  22627968.195   118910802.313    22627975.223    92657784.0984   22627975.297  
                
  19608065.211   104705966.613                    81437976.679    19608067.613  
  19608064.797  
  21740071.922   116253945.307                    90419757.651    21740078.277  
  21740070.586  
  21918346.586   115181702.020    21918353.602    89752016.6144   21918353.617  
                
  22996066.367   120845141.079    22996072.629    94165060.7114   22996072.852  
                
  24022609.258   126239663.696    24022613.910    98368587.0674                 
                
  20598608.602   108246438.072    20598617.703    84347902.6604   20598618.117  
                
 21  8 16  4 34 50.0000000  0 17G26R 3R 2G20R16R19G29G12R10R18G18R 9
                                R20G 5G31G 2G25
  24117845.125   126740134.410    24117854.676    98758582.6294   24117854.602  
                
  22894353.742   122555278.742                    95320772.520    22894358.586  
  22894352.527  
  23380113.773   124760775.431                    97036147.340    23380117.430  
  23380111.832  
  22157037.664   116436008.210    22157043.633    90729402.7584                 
                
  21629944.133   115543273.768                    89866974.023    21629946.672  
  21629943.770  
  19580530.633   104742676.670                    81466513.266    19580533.363  
  19580528.352  
  20574098.070   108117629.620    20574104.301    84247532.6114   20574104.422  
                
  22599047.602   118758790.439    22599054.301    92539342.1154   22599054.410  
                
  21539757.758   114819030.918                                                  
  21539756.914  
  21707277.508   115874923.346                    90124936.510    21707280.828  
  21707276.016  
  22622026.133   118879576.389    22622033.094    92633452.2204   22622033.191  
                
  19609283.188   104712470.471                    81443035.244    19609285.578  
  19609282.793  
  21735033.492   116227002.662                    90398802.263    21735039.887  
  21735032.148  
  21914806.781   115163100.270    21914813.758    89737521.7594   21914813.809  
                
  22997156.641   120850870.500    22997162.855    94169525.2054   22997163.133  
                
  24028172.469   126268898.545    24028177.129    98391367.4634                 
                
  20602088.969   108264727.452    20602098.039    84362154.1204   20602098.461  
                
 21  8 16  4 35  0.0000000  0 17G26R 3R 2G20R16R19G29G12R10R18G18R 9
                                R20G 5G31G 2G25
  24111511.727   126706852.546    24111521.371    98732648.7364   24111521.281  
                
  22890370.586   122533956.614                    95304188.637    22890375.441  
  22890369.395  
  23381871.992   124770157.628                    97043444.614    23381875.617  
  23381870.078  
  22158099.164   116441586.425    22158105.125    90733749.4174                 
                
  21637451.469   115583376.342                    89898164.907    21637453.992  
  21637451.105  
  19581937.906   104750204.649                    81472368.350    19581940.652  
  19581935.621  
  20572886.352   108111261.996    20572892.602    84242570.8264   20572892.707  
                
  22605280.391   118791543.969    22605287.066    92564864.3374   22605287.176  
                
  21534164.266   114789214.428                                                  
  21534163.426  
  21713029.031   115905625.284                    90148815.790    21713032.352  
  21713027.551  
  22616089.594   118848379.540    22616096.512    92609142.9874   22616096.625  
                
  19610518.086   104719064.730                    81448164.111    19610520.461  
  19610517.715  
  21730001.391   116200093.873                    90377873.234    21730007.832  
  21730000.031  
  21911277.875   115144555.862    21911284.805    89723071.5964   21911284.879  
                
  22998258.516   120856660.862    22998264.715    94174037.1694   22998265.008  
                
  24033737.273   126298141.816    24033741.930    98414154.3984                 
                
  20605579.555   108283070.626    20605588.598    84376447.4974   20605589.027  
                
 21  8 16  4 35 10.0000000  0 17G26R 3R 2G20R16R19G29G12R10R18G18R 9
                                R20G 5G31G 2G25
  24105181.727   126673588.523    24105191.465    98706728.7644   24105191.375  
                
  22886399.500   122512699.035                    95287654.973    22886404.340  
  22886398.324  
  23383645.312   124779620.359                    97050804.494    23383648.910  
  23383643.355  
  22159172.797   116447228.447    22159178.754    90738145.8124                 
                
  21644966.062   115623517.651                    89929385.922    21644968.574  
  21644965.688  
  19583353.664   104757777.986                    81478258.722    19583356.414  
  19583351.391  
  20571680.867   108104927.128    20571687.145    84237634.5674   20571687.242  
                
  22611518.922   118824327.602    22611525.570    92590410.0214   22611525.680  
                
  21528582.328   114759459.581                                                  
  21528581.512  
  21718782.672   115936338.488                    90172703.832    21718785.965  
  21718781.211  
  22610158.656   118817212.218    22610165.598    92584856.7714   22610165.699  
                
  19611769.992   104725749.798                    81453363.595    19611772.355  
  19611769.629  
  21724975.703   116173219.549                    90356971.001    21724982.207  
  21724974.414  
  21907760.000   115126069.354    21907766.883    89708666.5364   21907766.977  
                
  22999372.039   120862512.483    22999378.238    94178596.8664   22999378.531  
                
  24039303.750   126327393.845    24039308.430    98436948.1664                 
                
  20609080.461   108301468.005    20609089.496    84390783.1164   20609089.938  
                
 21  8 16  4 35 20.0000000  0 17G26R 3R 2G20R16R19G29G12R10R18G18R 9
                                R20G 5G31G 2G25
  24098855.109   126640342.041    24098864.855    98680822.4154   24098864.773  
                
  22882440.414   122491505.725                    95271171.305    22882445.258  
  22882439.297  
  23385433.750   124789163.808                    97058227.151    23385437.355  
  23385431.785  
  22160258.477   116452933.764    22160264.422    90742591.5134                 
                
  21652487.812   115663697.121                    89960636.623    21652490.250  
  21652487.410  
  19584777.781   104765396.100                    81484183.908    19584780.551  
  19584775.516  
  20570481.531   108098624.608    20570487.840    84232723.5154   20570487.922  
                
  22617763.102   118857140.906    22617769.719    92615978.8284   22617769.828  
                
  21523011.867   114729765.905                                                  
  21523011.082  
  21724538.367   115967062.699                    90196600.428    21724541.645  
  21724536.922  
  22604233.258   118786074.069    22604240.238    92560593.3014   22604240.305  
                
  19613038.820   104732525.250                    81458633.389    19613041.184  
  19613038.441  
  21719956.391   116146379.232                    90336095.172    21719962.906  
  21719955.109  
  21904253.070   115107640.375    21904259.934    89694306.3044   21904260.035  
                
  23000497.133   120868424.866    23000503.324    94183203.9074   23000503.625  
                
