     2.11           OBSERVATION DATA    M (MIXED)           RINEX VERSION / TYPE
EFT-CORS.RU                             20210817 150543 UTC PGM / RUN BY / DATE 
MDNG                                                        MARKER NAME         
                                                            MARKER NUMBER       
MDNG                EFT-CORS.RU                             OBSERVER / AGENCY   
0                   TRIMBLE BD970       2.0                 REC # / TYPE / VERS 
0                   UNKNOWN EXT NONE                        ANT # / TYPE        
  3463911.2830  3030468.2400  4402179.3760                  APPROX POSITION XYZ 
        0.0000        0.0000        0.0000                  ANTENNA: DELTA H/E/N
     1     1                                                WAVELENGTH FACT L1/2
     6    C1    L1    P2    L2    C2    P1                  # / TYPES OF OBSERV 
    10.000                                                  INTERVAL            
  2021     8    14     3    30    0.0000000     GPS         TIME OF FIRST OBS   
  2021     8    14     4    30    0.0000000     GPS         TIME OF LAST OBS    
     0                                                      RCV CLOCK OFFS APPL 
                                                            END OF HEADER       
 21  8 14  3 30  0.0000000  0 15G 6R23G20G29R13R15G 5G12R14G31G 2R24
                                G24R17G25
  23893168.852   125559437.888    23893178.668    97838556.2564   23893179.148  
                
  22032493.242   117858989.124                                                  
  22032491.336  
  22814397.211   119890468.725    22814403.320    93421173.2864                 
                
  21680595.656   113932302.051    21680602.340    88778446.9224   21680602.473  
                
  22863153.203   122087951.929                    94957312.933    22863157.391  
  22863150.859  
  20491582.031   109500795.213                    85167282.430    20491586.070  
  20491582.211  
  24237145.430   127367054.443    24237153.242    99247091.9654   24237153.457  
                
  20561583.641   108051856.348    20561589.781    84196285.6924   20561589.980  
                
  19346802.148   103129339.873                    80211705.072    19346806.250  
  19346802.027  
  23660267.859   124335542.027    23660274.273    96884858.9324   23660274.496  
                
  21930977.508   115248060.211    21930982.199    89803704.8674                 
                
  19484266.242   104191133.197                    81037550.630    19484270.289  
  19484265.449  
  24866736.383   130675571.297    24866746.301   101825155.0864   24866746.496  
                
  20253825.484   108382305.409                    84297344.737    20253829.016  
  20253823.676  
  20109799.641   105677706.866    20109808.789    82346307.5924   20109809.207  
                
 21  8 14  3 30 10.0000000  0 15G 6R23G20G29R13R15G 5G12R14G31G 2R24
                                G24R17G25
  23899536.625   125592900.721    23899546.438    97864631.1824   23899546.922  
                
  22039246.898   117895116.557                                                  
  22039245.051  
  22810620.375   119870621.335    22810626.477    93405707.7944                 
                
  21676826.195   113912493.375    21676832.867    88763011.5844   21676832.996  
                
  22871147.508   122130640.366                    94990515.025    22871151.609  
  22871145.133  
  20486430.375   109473266.275                    85145871.032    20486434.422  
  20486430.547  
  24230799.477   127333706.363    24230807.320    99221106.4644   24230807.547  
                
  20564415.617   108066738.427    20564421.777    84207882.1144   20564421.969  
                
  19349355.453   103142950.405                    80222291.031    19349359.535  
  19349355.328  
  23656302.250   124314702.594    23656308.691    96868620.4214   23656308.902  
                
  21934567.227   115266924.313    21934571.949    89818404.1644                 
                
  19487027.859   104205900.813                    81049036.543    19487031.898  
  19487027.059  
  24873632.930   130711812.136    24873642.707   101853394.6934   24873642.910  
                
  20249639.930   108359907.665                    84279924.259    20249643.457  
  20249638.121  
  20108595.609   105671379.633    20108604.762    82341377.2794   20108605.180  
                
 21  8 14  3 30 20.0000000  0 15G 6R23G20G29R13R15G 5G12R14G31G 2R24
                                G24R17G25
  23905908.547   125626385.394    23905918.375    97890723.1194   23905918.883  
                
  22046003.164   117931257.865                                                  
  22046001.355  
  22806851.992   119850818.367    22806858.078    93390276.8884                 
                
  21673062.219   113892713.574    21673068.902    88747598.7524   21673069.023  
                
  22879146.508   122173353.413                    95023736.265    22879150.445  
  22879143.996  
  20481289.547   109445795.239                    85124504.666    20481293.605  
  20481289.730  
  24224455.164   127300366.380    24224462.906    99195127.2454   24224463.145  
                
  20567256.703   108081668.398    20567262.879    84219515.8504   20567263.070  
                
  19351923.984   103156642.096                    80232940.125    19351928.055  
  19351923.863  
  23652346.516   124293915.017    23652353.000    96852422.3044   23652353.195  
                
  21938164.633   115285828.774    21938169.367    89833134.9054                 
                
  19489799.797   104220723.589                    81060565.363    19489803.848  
  19489798.996  
  24880528.281   130748047.319    24880537.992   101881629.8994   24880538.234  
                
  20245464.516   108337564.206                    84262546.027    20245468.059  
  20245462.723  
  20107401.500   105665104.540    20107410.656    82336487.5964   20107411.078  
                
 21  8 14  3 30 30.0000000  0 15G 6R23G20G29R13R15G 5G12R14G31G 2R24
                                G24R17G25
  23912284.578   125659891.655    23912294.434    97916831.8774   23912294.953  
                
  22052761.977   117967412.798                                                  
  22052760.188  
  22803092.047   119831059.651    22803098.160    93374880.5074                 
                
  21669303.703   113872962.425    21669310.430    88732208.2494   21669310.535  
                
  22887149.820   122216090.605                    95056976.301    22887153.734  
  22887147.426  
  20476159.570   109418382.189                    85103183.401    20476163.629  
  20476159.773  
  24218112.430   127267034.342    24218119.988    99169154.2174   24218120.266  
                
  20570106.852   108096645.965    20570113.043    84231186.6744   20570113.238  
                
  19354507.656   103170414.483                    80243651.977    19354511.715  
  19354507.535  
  23648400.617   124273179.127    23648407.086    96836264.4624   23648407.312  
                
  21941769.656   115304773.239    21941774.402    89847896.8284                 
                
  19492581.969   104235601.080                    81072136.744    19492586.031  
  19492581.176  
  24887422.570   130784276.580    24887432.176   101909860.4754   24887432.449  
                
  20241299.227   108315274.894                    84245209.896    20241302.797  
  20241297.445  
  20106217.289   105658881.438    20106226.449    82331638.4184   20106226.867  
                
 21  8 14  3 30 40.0000000  0 15G 6R23G20G29R13R15G 5G12R14G31G 2R24
                                G24R17G25
  23918664.664   125693419.240    23918674.551    97942957.2504   23918675.078  
                
  22059523.297   118003581.249                                                  
  22059521.480  
  22799340.508   119811345.199    22799346.652    93359518.5934                 
                
  21665550.602   113853239.748    21665557.391    88716839.9344   21665557.473  
                
  22895157.836   122258851.959                    95090235.120    22895161.543  
  22895155.348  
  20471040.414   109391026.981                    85081907.136    20471044.473  
  20471040.625  
  24211771.203   127233710.224    24211778.590    99143187.3664   24211778.855  
                
  20572966.055   108111671.131    20572972.277    84242894.5924   20572972.457  
                
  19357106.469   103184267.576                    80254426.596    19357110.527  
  19357106.340  
  23644464.555   124252494.917    23644471.023    96820146.8864   23644471.270  
                
  21945382.258   115323757.577    21945387.012    89862689.8134                 
                
  19495374.352   104250533.223                    81083750.628    19495378.422  
  19495373.570  
  24894315.664   130820499.685    24894325.195   101938086.2654   24894325.496  
                
  20237144.055   108293039.727                    84227915.880    20237147.645  
  20237142.277  
  20105042.953   105652710.254    20105052.117    82326829.7024   20105052.539  
                
 21  8 14  3 30 50.0000000  0 15G 6R23G20G29R13R15G 5G12R14G31G 2R24
                                G24R17G25
  23925048.812   125726968.235    23925058.723    97969099.3014   23925059.262  
                
  22066287.125   118039763.124                                                  
  22066285.316  
  22795597.438   119791675.227    22795603.598    93344191.3434                 
                
  21661802.945   113833545.692    21661809.781    88701493.9264   21661809.844  
                
  22903170.109   122301637.320                    95123512.584    22903173.855  
  22903167.695  
  20465932.156   109363730.004                    85060676.156    20465936.207  
  20465932.359  
  24205431.492   127200394.480    24205438.801    99117227.0304   24205439.047  
                
  20575834.344   108126744.095    20575840.598    84254639.7534   20575840.766  
                
  19359720.422   103198201.416                    80265264.016    19359724.469  
  19359720.293  
  23640538.359   124231862.667    23640544.824    96804069.8114   23640545.086  
                
  21949002.469   115342781.891    21949007.250    89877513.9444                 
                
  19498176.969   104265520.032                    81095407.032    19498181.051  
  19498176.203  
  24901207.578   130856716.689    24901217.082   101966307.2884   24901217.387  
                
  20232999.008   108270858.767                    84210664.025    20233002.609  
  20232997.219  
  20103878.531   105646591.171    20103887.699    82322061.5774   20103888.125  
                
 21  8 14  3 31  0.0000000  0 15G 6R23G20G29R13R15G 5G12R14G31G 2R24
                                G24R17G25
  23931437.031   125760538.503    23931446.957    97995257.9274   23931447.504  
                
  22073053.492   118075958.503                                                  
  22073051.691  
  22791862.852   119772049.854    22791869.066    93328898.8594                 
                
  21658060.750   113813880.305    21658067.621    88686170.2524   21658067.676  
                
  22911187.078   122344446.676                    95156808.727    22911190.699  
  22911184.566  
  20460834.805   109336491.315                    85039490.514    20460838.867  
  20460835.023  
  24199093.344   127167087.050    24199100.617    99091273.2004   24199100.836  
                
  20578711.727   108141864.766    20578718.012    84266422.0894   20578718.164  
                
  19362349.531   103212216.028                    80276164.262    19362353.578  
  19362349.379  
  23636622.078   124211282.380    23636628.543    96788033.2124   23636628.809  
                
  21952630.266   115361846.072    21952635.070    89892369.1444                 
                
  19500989.789   104280561.444                    81107105.903    19500993.883  
  19500989.016  
  24908098.242   130892927.490    24908107.824   101994523.4744   24908108.102  
                
  20228864.109   108248732.085                    84193454.388    20228867.734  
  20228862.324  
  20102724.031   105640524.205    20102733.215    82317334.0764   20102733.641  
                
 21  8 14  3 31 10.0000000  0 15G 6R23G20G29R13R15G 5G12R14G31G 2R24
                                G24R17G25
  23937829.320   125794130.210    23937839.246    98021433.2734   23937839.809  
                
  22079822.367   118112167.318                                                  
  22079820.570  
  22788136.820   119752469.399    22788143.105    93313641.3684                 
                
  21654324.070   113794243.888    21654330.934    88670869.1484   21654330.996  
                
  22919208.516   122387280.037                    95190123.558    22919212.016  
  22919205.973  
  20455748.461   109309311.417                    85018350.581    20455752.527  
  20455748.684  
  24192756.812   127133788.355    24192764.086    99065326.1704   24192764.289  
                
  20581598.227   108157033.382    20581604.547    84278241.7884   20581604.676  
                
  19364993.828   103226311.589                    80287127.468    19364997.875  
  19364993.656  
  23632715.734   124190754.341    23632722.207    96772037.3414   23632722.441  
                
  21956265.680   115380950.277    21956270.488    89907255.5244                 
                
  19503812.859   104295657.651                    81118847.391    19503816.965  
  19503812.070  
  24914987.711   130929132.278    24914997.426   102022734.9744   24914997.676  
                
  20224739.406   108226659.995                    84176287.200    20224743.043  
  20224737.629  
  20101579.516   105634509.693    20101588.719    82312647.4344   20101589.121  
                
 21  8 14  3 31 20.0000000  0 15G 6R23G20G29R13R15G 5G12R14G31G 2R24
                                G24R17G25
  23944225.641   125827743.004    23944235.578    98047625.0524   23944236.137  
                
  22086593.680   118148389.196                                                  
  22086591.848  
  22784419.297   119732933.669    22784425.645    93298418.7324                 
                
  21650592.859   113774636.228    21650599.688    88655590.4414   21650599.754  
                
  22927234.289   122430137.220                    95223456.902    22927237.816  
  22927231.840  
  20450673.078   109282190.157                    84997256.271    20450677.148  
  20450673.297  
  24186421.898   127100498.234    24186429.180    99039385.8174   24186429.398  
                
  20584493.797   108172249.677    20584500.145    84290098.6354   20584500.258  
                
  19367653.242   103240487.783                    80298153.390    19367657.297  
  19367653.055  
  23628819.281   124170278.351    23628825.758    96756082.0264   23628825.961  
                
  21959908.648   115400094.198    21959913.449    89922172.8594                 
                
  19506646.062   104310808.058                    81130631.042    19506650.191  
  19506645.262  
  24921875.977   130965330.651    24921885.801   102050941.4894   24921886.023  
                
  20220624.836   108204642.097                    84159162.179    20220628.488  
  20220623.062  
  20100444.930   105628547.395    20100454.160    82308001.4844   20100454.547  
                
 21  8 14  3 31 30.0000000  0 14G 6R23G20G29R13R15G 5G12R14G31G 2R24
                                R17G25
  23950625.727   125861375.667    23950635.688    98073832.3074   23950636.238  
                
  22093367.227   118184623.054                                                  
  22093365.395  
  22780710.109   119713441.676    22780716.512    93283230.1674                 
                
  21646866.898   113755056.141    21646873.715    88640333.2344   21646873.793  
                
  22935264.227   122473016.658                    95256807.548    22935267.777  
  22935261.828  
  20445608.492   109255126.529                    84976206.777    20445612.566  
  20445608.711  
  24180088.469   127067215.762    24180095.738    99013451.4274   24180095.961  
                
  20587398.211   108187512.419    20587404.582    84301991.6694   20587404.668  
                
  19370327.562   103254743.411                    80309241.092    19370331.613  
  19370327.363  
  23624932.547   124149853.382    23624939.039    96740166.4644   23624939.215  
                
  21963558.953   115419276.644    21963563.727    89937120.2154                 
                
  19509489.219   104326011.695                    81142456.080    19509493.352  
  19509488.414  
  20216520.203   108182677.371                    84142078.493    20216523.852  
  20216518.445  
  20099320.070   105622636.214    20099329.328    82303395.3624   20099329.695  
                
 21  8 14  3 31 40.0000000  0 14G 6R23G20G29R13R15G 5G12R14G31G 2R24
                                R17G25
  23957029.883   125895029.684    23957039.836    98100056.1944   23957040.387  
                
  22100143.273   118220870.359                                                  
  22100141.457  
  22777009.547   119693995.085    22777016.000    93268076.9694                 
                
  21643146.453   113735505.103    21643153.270    88625098.6564   21643153.340  
                
  22943298.680   122515919.879                    95290176.683    22943302.168  
  22943296.266  
  20440555.000   109228122.235                    84955203.442    20440559.078  
  20440555.227  
  24173756.805   127033942.504    24173764.047    98987524.2174   24173764.273  
                
  20590311.766   108202823.245    20590318.148    84313922.1784   20590318.238  
                
  19373017.117   103269080.226                    80320391.942    19373021.168  
  19373016.902  
  23621055.828   124129481.146    23621062.340    96724291.9874   23621062.488  
                
  21967216.859   115438499.066    21967221.598    89952098.7244                 
                
  19512342.578   104341269.874                    81154323.546    19512346.723  
  19512341.770  
  20212425.820   108160767.511                    84125037.477    20212429.469  
  20212424.055  
  20098205.250   105616777.802    20098214.531    82298830.3644   20098214.871  
                
 21  8 14  3 31 50.0000000  0 14G 6R23G20G29R13R15G 5G12R14G31G 2R24
                                R17G25
  23963438.195   125928705.553    23963448.113    98126297.1264   23963448.672  
                
  22106921.922   118257131.502                                                  
  22106920.109  
  22773317.750   119674594.563    22773324.250    93252959.6814                 
                
  21639431.656   113715983.719    21639438.492    88609887.1984   21639438.551  
                
  22951337.477   122558847.574                    95323564.853    22951341.133  
  22951335.281  
  20435512.750   109201177.956                    84934246.760    20435516.828  
  20435512.980  
  24167427.086   127000679.200    24167434.254    98961604.7454   24167434.496  
                
  20593234.602   108218182.852    20593240.992    84325890.6954   20593241.082  
                
  19375721.961   103283498.563                    80331606.192    19375726.012  
  19375721.734  
  23617189.289   124109162.305    23617195.785    96708459.1264   23617195.918  
                
  21970882.477   115457761.976    21970887.188    89967108.7784                 
                
  19515206.211   104356582.979                    81166233.736    19515210.363  
  19515205.402  
  20208341.797   108138913.138                    84108039.634    20208345.457  
  20208340.027  
  20097100.602   105610972.793    20097109.898    82294306.9774   20097110.215  
                
 21  8 14  3 32  0.0000000  0 14G 6R23G20G29R13R15G 5G12R14G31G 2R24
                                R17G25
  23969850.344   125962401.648    23969860.250    98152553.8074   23969860.816  
                
  22113702.859   118293404.964                                                  
  22113701.047  
  22769634.438   119655238.608    22769640.961    93237877.1244                 
                
  21635722.242   113696490.620    21635729.113    88594697.7854   21635729.164  
                
  22959380.867   122601798.124                    95356970.814    22959384.359  
  22959378.664  
  20430481.484   109174292.374                    84913335.766    20430485.555  
  20430481.719  
  24161098.844   126967424.370    24161106.066    98935691.8874   24161106.305  
                
  20596166.414   108233589.600    20596172.809    84337895.9484   20596172.891  
                
  19378441.820   103297996.910                    80342882.676    19378445.883  
  19378441.578  
  23613332.633   124088895.383    23613339.090    96692666.7024   23613339.238  
                
  21974555.492   115477063.741    21974560.184    89982149.1014                 
                
  19518079.867   104371949.678                    81178185.614    19518084.035  
  19518079.066  
  20204267.852   108117112.606                    84091083.664    20204271.520  
  20204266.094  
  20096005.820   105605219.660    20096015.129    82289824.0094   20096015.430  
                
 21  8 14  3 32 10.0000000  0 14G 6R23G20G29R13R15G 5G12R14G31G 2R24
                                R17G25
  23976266.438   125996118.445    23976276.391    98178826.6174   23976276.941  
                
  22120486.172   118329691.150                                                  
  22120484.336  
  22765959.734   119635927.937    22765966.285    93222829.8404                 
                
  21632018.312   113677026.321    21632025.199    88579530.7944   21632025.246  
                
  22967428.523   122644771.719                    95390394.711    22967431.938  
  22967426.281  
  20425461.320   109147466.145                    84892470.910    20425465.398  
  20425461.562  
  24154772.391   126934178.911    24154779.676    98909786.3254   24154779.887  
                
  20599107.305   108249044.058    20599113.699    84349938.3754   20599113.777  
                
  19381176.789   103312575.835                    80354221.827    19381180.859  
  19381176.559  
  23609485.984   124068681.040    23609492.402    96676915.2474   23609492.562  
                
  21978236.000   115496404.913    21978240.676    89997220.1394                 
                
  19520963.625   104387370.406                    81190179.507    19520967.789  
  19520962.836  
  20200204.109   108095366.688                    84074170.174    20200207.789  
  20200202.352  
  20094921.031   105599519.049    20094930.348    82285381.9754   20094930.641  
                
 21  8 14  3 32 20.0000000  0 14G 6R23G20G29R13R15G 5G12R14G31G 2R24
                                R17G25
  23982686.422   126029855.650    23982696.410    98205115.3274   23982696.965  
                
  22127271.797   118365989.731                                                  
  22127269.953  
  22762293.625   119616662.459    22762300.223    93207817.8034                 
                
  21628319.836   113657590.700    21628326.727    88564386.1584   21628326.773  
                
  22975480.414   122687768.349                    95423836.522    22975483.832  
  22975478.203  
  20420452.273   109120699.259                    84871652.232    20420456.355  
  20420452.500  
  24148447.719   126900942.577    24148455.031    98883887.8974   24148455.227  
                
  20602057.211   108264545.884    20602063.598    84362017.7124   20602063.680  
                
  19383926.844   103327235.135                    80365623.495    19383930.938  
  19383926.613  
  23605649.297   124048519.069    23605655.711    96661204.6264   23605655.875  
                
  21981923.945   115515785.222    21981928.602    90012321.6724                 
                
  19523857.406   104402844.749                    81202215.105    19523861.574  
  19523856.617  
  20196150.492   108073674.973                    84057298.843    20196154.180  
  20196148.727  
  20093846.219   105593870.817    20093855.539    82280980.7484   20093855.828  
                
 21  8 14  3 32 30.0000000  0 14G 6R23G20G29R13R15G 5G12R14G31G 2R24
                                R17G25
  23989110.312   126063613.253    23989120.332    98231419.9494   23989120.883  
                
  22134059.758   118402300.800                                                  
  22134057.918  
  22758636.164   119597442.407    22758642.797    93192841.1394                 
                
  21624626.844   113638183.888    21624633.727    88549263.9684   21624633.773  
                
  22983536.844   122730787.619                    95457295.950    22983539.984  
  22983534.398  
  20415454.352   109093991.897                    84850879.823    20415458.434  
  20415454.570  
  24142124.859   126867715.581    24142132.117    98857996.7124   24142132.312  
                
  20605016.156   108280095.259    20605022.531    84374134.1044   20605022.625  
                
  19386691.969   103341974.790                    80377087.662    19386696.082  
  19386691.746  
  23601822.609   124028409.711    23601829.039    96645535.0054   23601829.219  
                
  21985619.359   115535204.742    21985623.988    90027453.7624                 
                
  19526761.211   104418372.708                    81214292.406    19526765.383  
  19526760.422  
  20192107.078   108052037.813                    84040469.937    20192110.766  
  20192105.332  
  20092781.375   105588275.063    20092790.699    82276620.4174   20092790.992  
                
 21  8 14  3 32 40.0000000  0 14G 6R23G20G29R13R15G 5G12R14G31G 2R24
                                R17G25
  23995538.125   126097391.445    23995548.141    98257740.6084   23995548.715  
                
  22140850.070   118438624.476                                                  
  22140848.266  
  22754987.398   119578268.048    22754994.043    93177900.0694                 
                
  21620939.383   113618806.150    21620946.230    88534164.4274   21620946.309  
                
  22991597.367   122773829.698                    95490773.106    22991600.395  
  22991594.820  
  20410467.672   109067344.556                    84830154.106    20410471.754  
  20410467.930  
  24135803.883   126834498.378    24135811.094    98832113.1744   24135811.281  
                
  20607984.211   108295692.448    20607990.578    84386287.7504   20607990.668  
                
  19389472.227   103356795.108                    80388614.574    19389476.344  
  19389472.020  
  23598006.000   124008353.309    23598012.422    96629906.6264   23598012.609  
                
  21989322.242   115554663.527    21989326.844    90042616.4474                 
                
  19529675.102   104433954.516                    81226411.582    19529679.266  
  19529674.320  
  20188073.883   108030455.351                    84023683.575    20188077.594  
  20188072.152  
  20091726.602   105582732.130    20091735.930    82272301.2454   20091736.215  
                
 21  8 14  3 32 50.0000000  0 14G 6R23G20G29R13R15G 5G12R14G31G 2R24
                                R17G25
  24001969.742   126131189.678    24001979.727    98284076.8934   24001980.305  
                
  22147642.672   118474960.152                                                  
  22147640.895  
  22751347.258   119559139.053    22751353.910    93162994.3534                 
                
  21617257.352   113599456.998    21617264.152    88519087.1644   21617264.242  
                
  22999661.688   122816894.195                    95524267.687    22999665.070  
  22999659.469  
  20405492.133   109040756.790                    84809474.737    20405496.234  
  20405492.395  
  24129484.781   126801290.639    24129491.902    98806236.9964   24129492.070  
                
  20610961.281   108311337.025    20610967.652    84398478.3284   20610967.734  
                
  19392267.516   103371695.518                    80400203.764    19392271.648  
  19392267.305  
  23594199.398   123988349.435    23594205.801    96614319.1854   23594205.996  
                
  21993032.516   115574161.107    21993037.094    90057809.3644                 
                
  19532598.938   104449589.575                    81238572.179    19532603.109  
  19532598.160  
  20184050.812   108008927.090                    84006939.382    20184054.523  
  20184049.086  
  20090681.789   105577241.613    20090691.113    82268022.9094   20090691.410  
                
 21  8 14  3 33  0.0000000  0 14G 6R23G20G29R13R15G 5G12R14G31G 2R24
                                R17G25
  24008405.227   126165008.252    24008415.203    98310429.0154   24008415.773  
                
  22154437.555   118511308.245                                                  
  22154435.805  
  22747715.828   119540055.855    22747722.516    93148124.3384                 
                
  21613580.836   113580136.808    21613587.605    88504032.4704   21613587.703  
                
  23007730.508   122859981.686                    95557780.128    23007734.008  
  23007728.594  
  20400527.859   109014229.203                    84788842.158    20400531.953  
  20400528.121  
  24123167.500   126768092.930    24123174.617    98780368.6594   24123174.773  
                
  20613947.430   108327029.301    20613953.809    84410706.0664   20613953.883  
                
  19395077.906   103386676.435                    80411855.596    19395082.066  
  19395077.703  
  23590402.852   123968398.518    23590409.277    96598773.0294   23590409.473  
                
  21996750.227   115593697.823    21996754.781    90073032.7744                 
                
  19535532.781   104465278.137                    81250774.394    19535536.961  
  19535531.992  
  20180037.977   107987453.565                    83990237.754    20180041.695  
  20180036.250  
  20089647.031   105571803.902    20089656.352    82263785.7324   20089656.656  
                
 21  8 14  3 33 10.0000000  0 14G 6R23G20G29R13R15G 5G12R14G31G 2R24
                                R17G25
  24014844.508   126198846.762    24014854.473    98336796.6794   24014855.059  
                
  22161234.695   118547668.273                                                  
  22161232.941  
  22744093.094   119521018.264    22744099.824    93133289.8514                 
                
  21609909.789   113560845.307    21609916.555    88489000.1354   21609916.656  
                
  23015803.305   122903091.619                    95591310.035    23015807.945  
  23015801.141  
  20395574.812   108987761.615                    84768256.264    20395578.922  
  20395575.086  
  24116851.992   126734904.888    24116859.164    98754507.8584   24116859.316  
                
  20616942.594   108342768.941    20616948.969    84422970.7154   20616949.035  
                
  19397903.328   103401737.489                    80423569.734    19397907.496  
  19397903.129  
  23586616.352   123948500.388    23586622.797    96583268.0004   23586623.004  
                
  22000475.328   115613273.350    22000479.859    90088286.4274                 
                
  19538476.586   104481019.907                    81263017.985    19538480.777  
  19538475.812  
  20176035.312   107966034.504                    83973578.476    20176039.051  
  20176033.578  
  20088622.289   105566418.802    20088631.598    82259589.5434   20088631.910  
                
 21  8 14  3 33 20.0000000  0 14G 6R23G20G29R13R15G 5G12R14G31G 2R24
                                R17G25
  24021287.625   126232705.476    24021297.617    98363180.0774   24021298.211  
                
  22168034.133   118584040.510                                                  
  22168032.320  
  22740479.141   119502026.776    22740485.883    93118491.2804                 
                
  21606244.266   113541582.807    21606251.051    88473990.4004   21606251.137  
                
  23023880.484   122946223.920                    95624857.338    23023885.027  
  23023878.238  
  20390633.070   108961354.433                    84747717.351    20390637.215  
  20390633.336  
  24110538.516   126701726.950    24110545.613    98728654.9094   24110545.758  
                
  20619946.828   108358556.232    20619953.191    84435272.4924   20619953.258  
                
  19400743.859   103416879.085                    80435346.530    19400748.043  
  19400743.676  
  23582839.984   123928655.436    23582846.410    96567804.3994   23582846.629  
                
  22004207.859   115632887.900    22004212.375    90103570.4884                 
                
  19541430.391   104496815.147                    81275303.173    19541434.578  
  19541429.637  
  20172042.898   107944670.239                    83956961.831    20172046.641  
  20172041.156  
  20087607.617   105561086.646    20087616.906    82255434.6104   20087617.242  
                
 21  8 14  3 33 30.0000000  0 14G 6R23G20G29R13R15G 5G12R14G31G 2R24
                                R17G25
  24027734.469   126266583.746    24027744.500    98389578.7104   24027745.094  
                
  22174835.711   118620424.326                                                  
  22174833.863  
  22736873.867   119483080.954    22736880.637    93103728.3094                 
                
  21602584.156   113522348.819    21602590.965    88459002.8784   21602591.035  
                
  23031961.891   122989378.021                    95658421.611    23031966.422  
  23031959.602  
  20385702.578   108935007.382                    84727225.198    20385706.746  
  20385702.836  
  24104226.867   126668558.764    24104233.902    98702809.5624   24104234.039  
                
  20622960.039   108374390.704    20622966.379    84447611.0364   20622966.453  
                
  19403599.383   103432100.592                    80447185.469    19403603.562  
  19403599.203  
  23579073.656   123908863.271    23579080.070    96552381.9164   23579080.301  
                
  22007947.688   115652540.834    22007952.191    90118884.4514                 
                
  19544394.023   104512663.002                    81287629.280    19544398.211  
  19544393.277  
  20168060.625   107923360.322                    83940387.448    20168064.355  
  20168058.891  
  20086602.922   105555806.962    20086612.191    82251320.5674   20086612.551  
                
 21  8 14  3 33 40.0000000  0 14G 6R23G20G29R13R15G 5G12R14G31G 2R24
                                R17G25
  24034185.094   126300481.870    24034195.188    98415992.8114   24034195.758  
                
  22181639.523   118656820.061                                                  
  22181637.652  
  22733277.359   119464181.207    22733284.148    93089001.2394                 
                
  21598929.539   113503143.656    21598936.355    88444037.8154   21598936.418  
                
  23040047.594   123032554.198                    95692003.063    23040051.883  
  23040045.285  
  20380783.430   108908720.940                    84706780.186    20380787.602  
  20380783.680  
  24097917.219   126635401.002    24097924.191    98676972.3444   24097924.352  
                
  20625982.297   108390272.753    20625988.602    84459986.6534   20625988.699  
                
  19406469.938   103447402.232                    80459086.732    19406474.121  
  19406469.754  
  23575317.445   123889124.205    23575323.844    96537000.8244   23575324.070  
                
  22011694.875   115672232.403    22011699.367    90134228.5324                 
                
  19547367.602   104528564.047                    81299996.759    19547371.789  
  19547366.855  
  20164088.578   107902105.081                    83923855.597    20164092.312  
  20164086.852  
  20085608.305   105550580.161    20085617.555    82247247.7304   20085617.930  
                
 21  8 14  3 33 50.0000000  0 14G 6R23G20G29R13R15G 5G12R14G31G 2R24
                                R17G25
  24040639.484   126334399.827    24040649.598    98442422.3634   24040650.160  
                
  22188445.547   118693227.568                                                  
  22188443.684  
  22729689.656   119445327.727    22729696.453    93074310.2224                 
                
  21595280.422   113483967.413    21595287.207    88429095.2894   21595287.281  
                
  23048137.414   123075752.613                    95725601.822    23048141.422  
  23048135.082  
  20375875.648   108882495.215                    84686382.402    20375879.844  
  20375875.883  
  24091609.500   126602253.749    24091616.484    98651143.3204   24091616.660  
                
  20629013.625   108406202.394    20629019.887    84472399.3604   20629020.012  
                
  19409355.562   103462784.162                    80471050.455    19409359.742  
  19409355.375  
  23571571.359   123869438.389    23571577.746    96521661.2214   23571577.969  
                
  22015449.422   115691962.610    22015453.891    90149602.7154                 
                
  19550351.102   104544518.113                    81312405.478    19550355.293  
  19550350.352  
  20160126.766   107880904.635                    83907366.361    20160130.516  
  20160125.055  
  20084623.773   105545406.377    20084633.012    82243216.2054   20084633.402  
                
 21  8 14  3 34  0.0000000  0 14G 6R23G20G29R13R15G 5G12R14G31G 2R24
                                R17G25
  24047097.586   126368337.357    24047107.691    98468867.1784   24047108.258  
                
  22195253.711   118729646.666                                                  
  22195251.855  
  22726110.742   119426520.436    22726117.551    93059655.1854                 
                
  21591636.797   113464820.055    21591643.523    88414175.2714   21591643.625  
                
  23056231.250   123118972.753                    95759217.469    23056235.145  
  23056228.977  
  20370979.234   108856330.324                    84666031.927    20370983.457  
  20370979.461  
  24085303.789   126569117.012    24085310.820    98625322.4904   24085311.000  
                
  20632053.977   108422179.515    20632060.199    84484849.0594   20632060.348  
                
  19412256.203   103478246.219                    80483076.500    19412260.387  
  19412256.012  
  23567835.406   123849805.847    23567841.805    96506363.1504   23567842.031  
                
  22019211.281   115711731.277    22019215.730    90165006.8594                 
                
  19553344.469   104560524.985                    81324855.260    19553348.672  
  19553343.703  
  20156175.164   107859758.783                    83890919.591    20156178.926  
  20156173.461  
  20083649.289   105540285.470    20083658.523    82239225.8854   20083658.926  
                
 21  8 14  3 34 10.0000000  0 14G 6R23G20G29R13R15G 5G12R14G31G 2R24
                                R17G25
  24053559.461   126402294.538    24053569.547    98495327.3214   24053570.094  
                
  22202064.070   118766077.405                                                  
  22202062.164  
  22722540.648   119407759.568    22722547.445    93045036.3394                 
                
  21587998.711   113445701.792    21588005.383    88399277.9174   21588005.508  
                
  23064328.992   123162214.840                    95792850.201    23064332.918  
  23064326.879  
  20366094.258   108830226.512                    84645728.966    20366098.496  
  20366094.469  
  24079000.055   126535990.962    24079007.230    98599509.9884   24079007.375  
                
  20635103.383   108438204.230    20635109.578    84497335.8424   20635109.754  
                
  19415171.883   103493788.439                    80495164.889    19415176.055  
  19415171.688  
  23564109.648   123830226.828    23564116.043    96491106.7634   23564116.273  
                
  22022980.492   115731538.589    22022984.934    90180441.1304                 
                
  19556347.727   104576584.773                    81337346.198    19556351.941  
  19556346.945  
  20152233.805   107838667.808                    83874515.496    20152237.574  
  20152232.117  
  20082684.922   105535217.674    20082694.156    82235276.9444   20082694.566  
                
 21  8 14  3 34 20.0000000  0 14G 6R23G20G29R13R15G 5G12R14G31G 2R24
                                R17G25
  24060024.977   126436270.940    24060035.070    98521802.4374   24060035.594  
                
  22208876.508   118802519.352                                                  
  22208874.629  
  22718979.359   119389044.937    22718986.133    93030453.5194                 
                
  21584366.086   113426612.245    21584372.746    88384402.9454   21584372.871  
                
  23072430.742   123205478.614                    95826499.784    23072434.859  
  23072428.773  
  20361220.664   108804183.495                    84625473.295    20361224.918  
  20361220.867  
  24072698.344   126502875.426    24072705.609    98573705.6844   24072705.734  
                
  20638161.773   108454276.137    20638167.945    84509859.3984   20638168.129  
                
  19418102.531   103509410.469                    80507315.346    19418106.699  
  19418102.328  
  23560394.016   123810701.037    23560400.449    96475891.8714   23560400.676  
                
  22026756.977   115751384.108    22026761.422    90195905.1614                 
                
  19559360.773   104592696.900                    81349877.851    19559364.992  
  19559359.973  
  20148302.609   107817631.229                    83858153.726    20148306.391  
  20148300.930  
  20081730.602   105530202.697    20081739.836    82231369.1654   20081740.242  
                
 21  8 14  3 34 30.0000000  0 14G 6R23G20G29R13R15G 5G12R14G31G 2R24
                                R17G25
  24066494.188   126470266.738    24066504.336    98548292.6584   24066504.820  
                
  22215691.078   118838972.661                                                  
  22215689.250  
  22715426.930   119370376.849    22715433.680    93015906.9484                 
                
  21580738.992   113407551.690    21580745.688    88369550.5614   21580745.781  
                
  23080536.695   123248763.908                    95860166.098    23080540.766  
  23080534.738  
  20356358.547   108778201.786                    84605265.292    20356362.801  
  20356358.750  
  24066398.719   126469770.715    24066406.012    98547909.8224   24066406.160  
                
  20641229.195   108470395.486    20641235.352    84522419.9264   20641235.547  
                
  19421048.211   103525112.573                    80519528.079    19421052.367  
  19421047.992  
  23556688.586   123791228.804    23556695.047    96460718.6934   23556695.258  
                
  22030540.750   115771267.958    22030545.211    90211399.0684                 
                
  19562383.633   104608861.487                    81362450.304    19562387.859  
  19562382.816  
  20144381.672   107796649.518                    83841834.610    20144385.453  
  20144379.980  
  20080786.391   105525240.796    20080795.629    82227502.7474   20080796.043  
                
 21  8 14  3 34 40.0000000  0 14G 6R23G20G29R13R15G 5G12R14G31G 2R24
                                R17G25
  24072967.188   126504282.635    24072977.410    98574798.5204   24072977.840  
                
  22222507.914   118875438.105                                                  
  22222506.109  
  22711883.508   119351756.147    22711890.211    93001397.3164                 
                
  21577117.539   113388520.834    21577124.297    88354721.3284   21577124.352  
                
  23088646.898   123292071.385                    95893849.674    23088650.875  
  23088644.887  
  20351508.055   108752282.258                    84585105.659    20351512.285  
  20351508.270  
  24060101.281   126436677.834    24060108.605    98522123.1734   24060108.812  
                
  20644305.797   108486563.080    20644311.945    84535018.0404   20644312.141  
                
  19424009.031   103540895.387                    80531803.605    19424013.195  
  19424008.793  
  23552993.477   123771810.923    23552999.941    96445587.8774   23553000.156  
                
  22034331.961   115791190.892    22034336.441    90226923.4304                 
                
  19565416.477   104625079.430                    81375064.250    19565420.703  
  19565415.641  
  20140471.133   107775723.476                    83825558.795    20140474.922  
  20140469.445  
  20079852.438   105520332.847    20079861.676    82223678.3684   20079862.082  
                
 21  8 14  3 34 50.0000000  0 14G 6R23G20G29R13R15G 5G12R14G31G 2R24
                                R17G25
  24079443.578   126538316.472    24079453.883    98601318.3654   24079454.270  
                
  22229326.586   118911913.348                                                  
  22229324.809  
  22708348.742   119333180.878    22708355.410    92986923.0884                 
                
  21573501.312   113369517.498    21573508.145    88339913.5414   21573508.164  
                
  23096760.992   123335398.913                    95927548.846    23096764.785  
  23096758.824  
  20346668.875   108726423.063                    84564992.950    20346673.098  
  20346669.094  
  24053805.664   126403594.802    24053813.062    98496344.1804   24053813.312  
                
  20647391.164   108502776.755    20647397.316    84547652.0684   20647397.504  
                
  19426984.625   103556757.001                    80544140.405    19426988.785  
  19426984.383  
  23549308.336   123752445.396    23549314.793    96430497.8534   23549315.004  
                
  22038130.195   115811150.689    22038134.691    90242476.5104                 
                
  19568458.859   104641348.424                    81387717.902    19568463.090  
  19568458.027  
  20136570.594   107754850.872                    83809324.548    20136574.383  
  20136568.918  
  20078928.367   105515476.800    20078937.605    82219894.4264   20078938.008  
                
 21  8 14  3 35  0.0000000  0 14G 6R23G20G29R13R15G 5G12R14G31G 2R24
                                R17G25
  24085923.680   126572369.745    24085934.059    98627853.3474   24085934.406  
                
  22236147.398   118948400.040                                                  
  22236145.613  
  22704822.953   119314652.750    22704829.578    92972485.5834                 
                
  21569890.695   113350543.555    21569897.566    88325128.6574   21569897.559  
                
  23104878.914   123378747.950                    95961264.755    23104882.738  
  23104876.746  
  20341841.281   108700625.859                    84544928.459    20341845.504  
  20341841.492  
  24047512.297   126370523.389    24047519.758    98470574.2564   24047520.012  
                
  20650485.617   108519038.171    20650491.770    84560323.2974   20650491.945  
                
  19429975.258   103572698.749                    80556539.538    19429979.402  
  19429975.004  
  23545633.492   123733134.019    23545639.938    96415450.0244   23545640.141  
                
  22041935.727   115831148.852    22041940.234    90258059.4934                 
                
  19571511.102   104657670.080                    81400412.520    19571515.332  
  19571510.266  
  20132680.359   107734033.454                    83793133.228    20132684.137  
  20132678.684  
  20078014.477   105510674.287    20078023.711    82216152.2064   20078024.117  
                
 21  8 14  3 35 10.0000000  0 14G 6R23G20G29R13R15G 5G12R14G31G 2R24
                                R17G25
  24092407.445   126606442.208    24092417.836    98654403.3014   24092418.164  
                
  22242970.320   118984898.029                                                  
  22242968.527  
  22701306.117   119296171.671    22701312.734    92958084.7494                 
                
  21566285.648   113331598.918    21566292.492    88310366.6044   21566292.496  
                
  23113000.758   123422118.558                    95994997.403    23113004.668  
  23112998.699  
  20337025.281   108674890.565                    84524912.112    20337029.484  
  20337025.520  
  24041221.227   126337463.520    24041228.668    98444813.3124   24041228.891  
                
  20653589.133   108535347.181    20653595.297    84573031.6084   20653595.461  
                
  19432980.914   103588720.552                    80569000.938    19432985.055  
  19432980.656  
  23541968.953   123713876.707    23541975.410    96400444.3094   23541975.609  
                
  22045748.539   115851185.276    22045753.055    90273672.2874                 
                
  19574573.156   104674044.227                    81413147.963    19574577.398  
  19574572.324  
  20128800.438   107713271.130                    83776984.738    20128804.199  
  20128798.758  
  20077110.773   105505925.246    20077119.996    82212451.6504   20077120.410  
                
 21  8 14  3 35 20.0000000  0 14G 6R23G20G29R13R15G 5G12R14G31G 2R24
                                R17G25
  24098894.750   126640533.183    24098905.109    98680967.6974   24098905.414  
                
  22249795.195   119021406.451                                                  
  22249793.414  
  22697798.141   119277737.211    22697804.809    92943720.2294                 
                
  21562686.055   113312682.896    21562692.844    88295626.8454   21562692.887  
                
  23121126.562   123465509.580                    96028745.947    23121130.402  
  23121124.508  
  20332220.781   108649216.802                    84504943.622    20332224.977  
  20332221.051  
  24034932.305   126304414.736    24034939.648    98419060.9924   24034939.840  
                
  20656701.570   108551703.164    20656707.746    84585776.5254   20656707.895  
                
  19436001.461   103604821.783                    80581524.108    19436005.594  
  19436001.195  
  23538314.555   123694672.821    23538321.016    96385480.2484   23538321.219  
                
  22049568.477   115871259.188    22049573.004    90289314.2894                 
                
  19577644.836   104690469.882                    81425923.463    19577649.062  
  19577644.012  
  20124930.672   107692563.227                    83760878.599    20124934.434  
  20124928.984  
  20076217.117   105501229.103    20076226.320    82208792.3084   20076226.750  
                
 21  8 14  3 35 30.0000000  0 14G 6R23G20G29R13R15G 5G12R14G31G 2R24
                                R17G25
  24105385.664   126674643.129    24105396.023    98707546.8604   24105396.277  
                
  22256622.133   119057925.817                                                  
  22256620.375  
  22694299.164   119259350.014    22694305.895    92929392.5524                 
                
  21559092.016   113293796.075    21559098.750    88280909.8334   21559098.816  
                
  23129256.328   123508921.825                    96062511.004    23129260.090  
  23129254.273  
  20327427.945   108623605.284                    84485023.556    20327432.129  
  20327428.211  
  24028645.570   126271377.705    24028652.875    98393317.8424   24028653.066  
                
  20659823.070   108568106.684    20659829.258    84598558.4814   20659829.398  
                
  19439037.000   103621002.893                    80594109.407    19439041.141  
  19439036.723  
  23534670.453   123675522.994    23534676.922    96370558.2894   23534677.141  
                
  22053395.648   115891371.059    22053400.180    90304985.8764                 
                
  19580726.258   104706947.600                    81438739.481    19580730.480  
  19580725.445  
  20121071.195   107671910.364                    83744815.273    20121074.961  
  20121069.488  
  20075333.648   105496586.430    20075342.828    82205174.6384   20075343.285  
                
 21  8 14  3 35 40.0000000  0 14G 6R23G20G29R13R15G 5G12R14G31G 2R24
                                R17G25
  24111880.164   126708771.807    24111890.535    98734140.6114   24111890.773  
                
  22263451.039   119094455.813                                                  
  22263449.289  
  22690809.180   119241010.028    22690815.922    92915101.6444                 
                
  21555503.508   113274938.311    21555510.230    88266215.4614   21555510.309  
                
  23137389.984   123552354.772                    96096292.141    23137393.676  
  23137387.887  
  20322646.734   108598055.936                    84465151.846    20322650.898  
  20322647.000  
  24022361.031   126238352.374    24022368.352    98367583.8274   24022368.520  
                
  20662953.586   108584557.609    20662959.785    84611377.3714   20662959.918  
                
  19442087.500   103637263.755                    80606756.738    19442091.652  
  19442087.219  
  23531036.641   123656427.206    23531043.109    96355678.4474   23531043.340  
                
  22057230.031   115911520.820    22057234.562    90320686.9794                 
                
  19583817.391   104723477.242                    81451595.859    19583821.605  
  19583816.578  
  20117221.969   107651312.368                    83728794.607    20117225.723  
  20117220.242  
  20074460.352   105491997.173    20074469.508    82201598.5904   20074469.988  
                
 21  8 14  3 35 50.0000000  0 14G 6R23G20G29R13R15G 5G12R14G31G 2R24
                                R17G25
  24118378.164   126742918.857    24118388.535    98760748.6994   24118388.762  
                
  22270281.859   119130996.158                                                  
  22270280.121  
  22687328.141   119222717.028    22687334.871    92900847.3504                 
                
  21551920.445   113256109.239    21551927.207    88251543.4574   21551927.270  
                
  23145527.289   123595807.986                    96130089.067    23145531.082  
  23145525.281  
  20317877.148   108572568.733                    84445328.468    20317881.293  
  20317877.418  
  24016078.641   126205338.516    24016086.016    98341858.7354   24016086.160  
                
  20666093.055   108601055.635    20666099.270    84624232.9694   20666099.391  
                
  19445152.898   103653604.001                    80619465.821    19445157.074  
  19445152.621  
  23527413.070   123637385.235    23527419.535    96340840.5564   23527419.777  
                
  22061071.539   115931707.989    22061076.066    90336417.2354                 
                
  19586918.180   104740058.549                    81464492.427    19586922.398  
  19586917.379  
  20113382.953   107630769.032                    83712816.454    20113386.691  
  20113381.227  
  20073597.156   105487461.044    20073606.289    82198063.9374   20073606.789  
                
 21  8 14  3 36  0.0000000  0 14G 6R23G20G29R13R15G 5G12R14G31G 2R24
                                R17G25
  24124879.703   126777084.547    24124890.066    98787371.3054   24124890.285  
                
  22277114.664   119167547.118                                                  
  22277112.945  
  22683856.117   119204471.451    22683862.770    92886630.0234                 
                
  21548342.914   113237309.255    21548349.723    88236894.1324   21548349.766  
                
  23153668.484   123639282.097                    96163902.241    23153672.363  
  23153666.586  
  20313119.266   108547144.059                    84425553.711    20313123.383  
  20313119.551  
  24009798.633   126172336.786    24009806.023    98316143.1034   24009806.125  
                
  20669241.570   108617601.187    20669247.801    84637125.5994   20669247.922  
                
  19448233.273   103670024.110                    80632237.004    19448237.465  
  19448233.016  
  23523799.836   123618397.548    23523806.305    96326044.9484   23523806.531  
                
  22064920.203   115951932.857    22064924.734    90352176.8664                 
                
  19590028.609   104756691.457                    81477429.132    19590032.828  
  19590027.820  
  20109554.227   107610280.753                    83696881.115    20109557.961  
  20109552.508  
  20072744.141   105482978.476    20072753.270    82194571.0284   20072753.781  
                
 21  8 14  3 36 10.0000000  0 14G 6R23G20G29R13R15G 5G12R14G31G 2R24
                                R17G25
  24131384.727   126811268.621    24131395.078    98814008.2294   24131395.301  
                
  22283949.422   119204108.431                                                  
  22283947.695  
  22680393.125   119186273.240    22680399.715    92872449.6024                 
                
  21544770.922   113218538.268    21544777.762    88222267.3954   21544777.809  
                
  23161813.648   123682776.408                    96197731.114    23161817.453  
  23161811.691  
  20308373.062   108521781.760                    84405827.477    20308377.156  
  20308373.340  
  24003520.969   126139347.171    24003528.352    98290436.9134   24003528.430  
                
  20672399.094   108634194.030    20672405.344    84650055.0784   20672405.461  
                
  19451328.547   103686523.606                    80645069.940    19451332.738  
  19451328.316  
  23520196.898   123599463.994    23520203.375    96311291.5294   23520203.609  
                
  22068776.008   115972195.152    22068780.551    90367965.6614                 
                
  19593148.688   104773375.836                    81490405.865    19593152.914  
  19593147.914  
  20105735.750   107589847.284                    83680988.429    20105739.480  
  20105734.012  
  20071901.312   105478549.323    20071910.445    82191119.7354   20071910.957  
                
 21  8 14  3 36 20.0000000  0 14G 6R23G20G29R13R15G 5G12R14G31G 2R24
                                R17G25
  24137893.227   126845470.973    24137903.598    98840659.3864   24137903.816  
                
  22290786.094   119240680.025                                                  
  22290784.379  
  22676939.148   119168122.427    22676945.664    92858306.1064                 
                
  21541204.422   113199796.164    21541211.277    88207663.1604   21541211.320  
                
  23169962.453   123726290.867                    96231575.681    23169966.285  
  23169960.523  
  20303638.594   108496482.179                    84386150.015    20303642.676  
  20303638.879  
  23997245.531   126106369.610    23997252.980    98264740.1354   23997253.059  
                
  20675565.578   108650834.009    20675571.848    84663021.2894   20675571.973  
                
  19454438.742   103703102.652                    80657964.742    19454442.938  
  19454438.535  
  23516604.266   123580584.635    23516610.789    96296580.3554   23516611.008  
                
  22072638.914   115992494.818    22072643.465    90383783.5774                 
                
  19596278.391   104790111.728                    81503422.668    19596282.617  
  19596277.637  
  20101927.547   107569468.800                    83665138.486    20101931.254  
  20101925.824  
  20071068.641   105474173.613    20071077.773    82187710.0884   20071078.281  
                
 21  8 14  3 36 30.0000000  0 14G 6R23G20G29R13R15G 5G12R14G31G 2R24
