     2.11           OBSERVATION DATA    M (MIXED)           RINEX VERSION / TYPE
EFT-CORS.RU                             20210817 145133 UTC PGM / RUN BY / DATE 
MDNG                                                        MARKER NAME         
                                                            MARKER NUMBER       
MDNG                EFT-CORS.RU                             OBSERVER / AGENCY   
0                   TRIMBLE BD970       2.0                 REC # / TYPE / VERS 
0                   UNKNOWN EXT NONE                        ANT # / TYPE        
  3463911.2830  3030468.2400  4402179.3760                  APPROX POSITION XYZ 
        0.0000        0.0000        0.0000                  ANTENNA: DELTA H/E/N
     1     1                                                WAVELENGTH FACT L1/2
     6    C1    L1    P2    L2    C2    P1                  # / TYPES OF OBSERV 
    10.000                                                  INTERVAL            
  2021     8    15     4    30    0.0000000     GPS         TIME OF FIRST OBS   
  2021     8    15     5    30    0.0000000     GPS         TIME OF LAST OBS    
     0                                                      RCV CLOCK OFFS APPL 
                                                            END OF HEADER       
 21  8 15  4 30  0.0000000  0 16G12G26R 2R 9G18R18G29G20R19R16G 5G25
                                R17R15G 2G31
  22274847.297   117055106.159    22274854.770    91211795.8354   22274854.953  
                
  24464527.453   128561963.626    24464537.801   100178191.4544   24464537.699  
                
  23020116.555   122839769.402                    95542028.822    23020121.469  
  23020114.520  
  22193308.320   118511043.961                    92175240.908    22193311.766  
  22193307.504  
  22948070.648   120592923.220    22948078.371    93968545.9514   22948078.266  
                
  19464313.242   103901817.622                    80812517.330    19464316.820  
  19464311.809  
  20648691.664   108509601.710    20648698.309    84552967.3564   20648698.555  
                
  22117270.469   116227044.586    22117277.605    90566555.1374                 
                
  21550176.055   115278943.064                    89661385.014    21550180.012  
  21550174.035  
  19671967.609   105084117.043                    81732078.905    19671969.707  
  19671967.305  
  22120190.938   116242404.747    22120198.789    90578523.1484   22120198.801  
                
  20429149.984   107355902.847    20429159.895    83653988.9504   20429160.438  
                
  21047489.984   112629369.823                    87600603.395    21047493.945  
  21047488.207  
  21369361.461   114191368.891                    88815497.842    21369366.898  
  21369361.598  
  23735482.242   124730791.480    23735487.363    97192837.4514                 
                
  22956236.375   120635830.829    22956242.996    94001960.6594   22956243.480  
                
 21  8 15  4 30 10.0000000  0 16G12G26R 2R 9G18R18G29G20R19R16G 5G25
                                R17R15G 2G31
  22280758.500   117086169.696    22280766.020    91236001.1744   22280766.188  
                
  24458036.102   128527851.354    24458046.484   100151610.4614   24458046.367  
                
  23015432.570   122814774.835                    95522588.645    23015437.504  
  23015430.508  
  22186737.836   118475958.025                    92147951.875    22186741.266  
  22186737.004  
  22941850.523   120560236.331    22941858.285    93943075.6464   22941858.191  
                
  19464475.766   103902685.177                    80813192.099    19464479.355  
  19464474.316  
  20647147.453   108501486.874    20647154.121    84546644.1014   20647154.352  
                
  22117678.672   116229189.699    22117685.801    90568226.6544                 
                
  21545261.492   115252653.651                    89640937.691    21545265.461  
  21545259.469  
  19672078.219   105084707.862                    81732538.421    19672080.301  
  19672077.914  
  22116094.859   116220879.751    22116102.707    90561750.4374   22116102.707  
                
  20432075.234   107371275.117    20432085.176    83665967.3344   20432085.703  
                
  21052837.555   112657985.670                    87622860.155    21052841.488  
  21052835.766  
  21376716.938   114230674.098                    88846068.547    21376722.340  
  21376717.090  
  23740944.422   124759495.347    23740949.539    97215204.1084                 
                
  22956701.859   120638276.929    22956708.469    94003866.6914   22956708.934  
                
 21  8 15  4 30 20.0000000  0 16G12G26R 2R 9G18R18G29G20R19R16G 5G25
                                R17R15G 2G31
  22286676.062   117117266.622    22286683.602    91260232.5184   22286683.785  
                
  24451547.281   128493752.415    24451557.633   100125039.8674   24451557.539  
                
  23010759.086   122789836.244                    95503191.980    23010763.996  
  23010757.016  
  22180176.273   118440919.732                    92120699.873    22180179.672  
  22180175.461  
  22935635.430   120527575.832    22935643.234    93917625.9194   22935643.156  
                
  19464647.477   103903601.734                    80813904.976    19464651.062  
  19464646.020  
  20645609.375   108493404.191    20645616.062    84540345.8964   20645616.285  
                
  22118099.086   116231398.953    22118106.180    90569948.1434                 
                
  21540353.844   115226401.115                    89620519.067    21540357.852  
  21540351.828  
  19672205.734   105085388.957                    81733068.159    19672207.789  
  19672205.430  
  22112008.828   116199407.475    22112016.668    90545018.7984   22112016.652  
                
  20435011.141   107386703.337    20435021.105    83677989.3154   20435021.621  
                
  21058188.547   112686619.846                    87645131.175    21058192.469  
  21058186.754  
  21384080.508   114270022.816                    88876673.081    21384085.945  
  21384080.695  
  23746408.867   124788211.110    23746413.996    97237580.0164                 
                
  22957179.305   120640785.883    22957185.863    94005821.7144   22957186.312  
                
 21  8 15  4 30 30.0000000  0 16G12G26R 2R 9G18R18G29G20R19R16G 5G25
                                R17R15G 2G31
  22292599.945   117148396.789    22292607.523    91284489.7764   22292607.691  
                
  24445061.000   128459666.870    24445071.285   100098479.6944   24445071.227  
                
  23006096.156   122764954.147                    95483839.284    23006101.078  
  23006094.109  
  22173623.656   118405929.166                    92093484.985    22173627.066  
  22173622.863  
  22929425.414   120494941.795    22929433.211    93892196.7874   22929433.121  
                
  19464828.391   103904567.451                    80814656.083    19464831.973  
  19464826.949  
  20644077.406   108485353.631    20644084.117    84534072.7294   20644084.336  
                
  22118531.688   116233672.249    22118538.773    90571719.5474                 
                
  21535453.094   115200185.398                    89600129.041    21535457.074  
  21535451.066  
  19672350.133   105086160.276                    81733668.056    19672352.191  
  19672349.820  
  22107932.836   116177987.975    22107940.664    90528328.2924   22107940.668  
                
  20437957.688   107402187.525    20437967.676    83690054.9074   20437968.176  
                
  21063542.922   112715272.214                    87667416.335    21063546.875  
  21063541.117  
  21391452.141   114309414.768                    88907311.239    21391457.625  
  21391452.344  
  23751875.555   124816938.663    23751880.684    97259965.0994                 
                
  22957668.719   120643357.711    22957675.195    94007825.7384   22957675.680  
                
 21  8 15  4 30 40.0000000  0 16G12G26R 2R 9G18R18G29G20R19R16G 5G25
                                R17R15G 2G31
  22298530.133   117179560.153    22298537.770    91308772.9114   22298537.902  
                
  24438577.289   128425594.775    24438587.469   100071930.0104   24438587.457  
                
  23001443.719   122740127.857                    95464529.949    23001448.578  
  23001441.688  
  22167080.000   118370986.416                    92066307.317    22167083.406  
  22167079.219  
  22923220.398   120462334.198    22923228.211    93866788.2664   22923228.105  
                
  19465018.430   103905581.912                    80815445.111    19465021.996  
  19465016.996  
  20642551.523   108477335.066    20642558.250    84527824.4934   20642558.473  
                
  22118976.477   116236009.625    22118983.559    90573540.8764                 
                
  21530559.281   115174006.649                    89579767.796    21530563.250  
  21530557.242  
  19672511.391   105087021.724                    81734338.065    19672513.461  
  19672511.090  
  22103866.891   116156621.358    22103874.691    90511678.9834   22103874.699  
                
  20440914.867   107417727.551    20440924.883    83702164.0094   20440925.363  
                
  21068900.680   112743942.638                    87689715.537    21068904.637  
  21068898.883  
  21398831.883   114348849.820                    88937982.924    21398837.371  
  21398832.078  
  23757344.477   124845677.920    23757349.605    97282359.3224                 
                
  22958170.086   120645992.363    22958176.465    94009878.6964   22958176.992  
                
 21  8 15  4 30 50.0000000  0 16G12G26R 2R 9G18R18G29G20R19R16G 5G25
                                R17R15G 2G31
  22304466.648   117210756.654    22304474.328    91333081.8534   22304474.453  
                
  24432096.133   128391536.025    24432106.238   100045390.6924   24432106.230  
                
  22996801.930   122715358.195                    95445264.676    22996806.707  
  22996799.910  
  22160545.312   118336091.501                    92039166.855    22160548.676  
  22160544.512  
  22917020.359   120429752.943    22917028.219    93841400.2854   22917028.105  
                
  19465217.602   103906645.126                    80816272.045    19465221.188  
  19465216.180  
  20641031.711   108469348.382    20641038.457    84521601.0984   20641038.672  
                
  22119433.422   116238410.882    22119440.504    90575411.9864                 
                
  21525672.305   115147864.469                    89559434.987    21525676.262  
  21525670.258  
  19672689.547   105087973.366                    81735078.226    19672691.629  
  19672689.242  
  22099811.008   116135307.569    22099818.762    90495070.8444   22099818.789  
                
  20443882.641   107433323.275    20443892.680    83714316.5174   20443893.137  
                
  21074261.750   112772630.778                    87712028.532    21074265.719  
  21074259.953  
  21406219.656   114388327.577                    88968687.833    21406225.102  
  21406219.840  
  23762815.594   124874428.659    23762820.742    97304762.4844                 
                
  22958683.367   120648689.627    22958689.707    94011980.4584   22958690.238  
                
 21  8 15  4 31  0.0000000  0 16G12G26R 2R 9G18R18G29G20R19R16G 5G25
                                R17R15G 2G31
  22310409.414   117241986.033    22310417.129    91357416.4194   22310417.254  
                
  24425617.562   128357490.855    24425627.652   100018862.0164   24425627.641  
                
  22992170.648   122690644.663                    95426043.075    22992175.367  
  22992168.629  
  22154019.648   118301244.725                    92012063.802    22154022.988  
  22154018.828  
  22910825.359   120397198.236    22910833.262    93816032.9874   22910833.172  
                
  19465425.930   103907757.134                    80817136.942    19465429.527  
  19465424.508  
  20639518.008   108461393.762    20639524.770    84515402.6924   20639524.980  
                
  22119902.555   116240876.157    22119909.605    90577332.9824                 
                
  21520792.188   115121759.046                    89539130.782    21520796.172  
  21520790.121  
  19672884.602   105089015.271                    81735888.579    19672886.676  
  19672884.320  
  22095765.219   116114046.816    22095772.891    90478504.0164   22095772.941  
                
  20446861.039   107448974.766    20446871.105    83726512.4714   20446871.547  
                
  21079626.180   112801336.848                    87734355.463    21079630.148  
  21079624.367  
  21413615.438   114427848.167                    88999426.058    21413620.883  
  21413615.637  
  23768288.914   124903190.992    23768294.082    97327174.6934                 
                
  22959208.586   120651449.595    22959214.930    94014131.0744   22959215.410  
                
 21  8 15  4 31 10.0000000  0 16G12G26R 2R 9G18R18G29G20R19R16G 5G25
                                R17R15G 2G31
  22316358.430   117273248.248    22316366.184    91381776.5744   22316366.297  
                
  24419141.562   128323459.247    24419151.648    99992343.8584   24419151.629  
                
  22987550.000   122665987.932                    95406865.640    22987554.656  
  22987547.992  
  22147503.000   118266446.130                    91984998.253    22147506.332  
  22147502.188  
  22904635.383   120364670.031    22904643.324    93790686.3374   22904643.270  
                
  19465643.359   103908917.783                    80818039.658    19465646.953  
  19465641.941  
  20638010.383   108453471.164    20638017.164    84509229.2334   20638017.359  
                
  22120383.844   116243405.354    22120390.871    90579303.7714                 
                
  21515918.953   115095690.508                    89518855.264    21515922.941  
  21515916.855  
  19673096.508   105090147.214                    81736768.988    19673098.570  
  19673096.223  
  22091729.484   116092838.957    22091737.133    90461978.4274   22091737.207  
                
  20449850.016   107464681.924    20449860.117    83738751.8024   20449860.543  
                
  21084993.891   112830060.663                    87756696.209    21084997.895  
  21084992.059  
  21421019.180   114467411.325                    89030197.382    21421024.598  
  21421019.387  
  23773764.383   124931964.753    23773769.551    97349595.8024                 
                
  22959745.711   120654272.218    22959752.086    94016330.5114   22959752.496  
                
 21  8 15  4 31 20.0000000  0 16G12G26R 2R 9G18R18G29G20R19R16G 5G25
                                R17R15G 2G31
  22322313.750   117304543.548    22322321.539    91406162.5084   22322321.645  
                
  24412668.180   128289441.526    24412678.305    99965836.5534   24412678.281  
                
  22982939.992   122641388.083                    95387732.448    22982944.633  
  22982938.004  
  22140995.430   118231696.031                    91957970.401    22140998.742  
  22140994.633  
  22898450.531   120332168.656    22898458.484    93765360.6004   22898458.445  
                
  19465869.922   103910127.191                    80818980.306    19465873.500  
  19465868.508  
  20636508.906   108445580.804    20636515.707    84503080.8984   20636515.879  
                
  22120877.336   116245998.672    22120884.383    90581324.5594                 
                
  21511052.641   115069658.956                    89498608.491    21511056.645  
  21511050.547  
  19673325.352   105091369.587                    81737719.716    19673327.391  
  19673325.074  
  22087703.914   116071684.491    22087711.598    90445494.4404   22087711.656  
                
  20452849.633   107480444.969    20452859.770    83751034.6854   20452860.184  
                
  21090364.945   112858802.392                    87779050.871    21090368.969  
  21090363.098  
  21428430.875   114507017.064                    89061001.813    21428436.270  
  21428431.078  
  23779242.070   124960750.107    23779247.227    97372025.9274                 
                
  22960294.812   120657157.715    22960301.191    94018578.9404   22960301.559  
                
 21  8 15  4 31 30.0000000  0 16G12G26R 2R 9G18R18G29G20R19R16G 5G25
                                R17R15G 2G31
  22328275.297   117335871.565    22328283.086    91430573.9414   22328283.191  
                
  24406197.422   128255437.490    24406207.625    99939339.9194   24406207.602  
                
  22978340.711   122616845.389                    95368643.723    22978345.316  
  22978338.723  
  22134496.961   118196994.466                    91930980.304    22134500.254  
  22134496.160  
  22892270.766   120299693.884    22892278.648    93740055.5804   22892278.648  
                
  19466105.578   103911385.082                    80819958.666    19466109.145  
  19466104.168  
  20635013.508   108437722.417    20635020.316    84496957.4734   20635020.492  
                
  22121383.000   116248655.918    22121390.082    90583395.1304                 
                
  21506193.188   115043664.280                    89478390.395    21506197.234  
  21506191.113  
  19673571.055   105092682.019                    81738740.492    19673573.090  
  19673570.801  
  22083688.469   116050583.193    22083696.184    90429051.8864   22083696.223  
                
  20455859.820   107496263.571    20455869.977    83763360.8584   20455870.371  
                
  21095739.281   112887561.522                    87801419.071    21095743.305  
  21095737.387  
  21435850.508   114546665.041                    89091839.115    21435855.848  
  21435850.695  
  23784721.898   124989546.678    23784727.027    97394464.8024                 
                
  22960855.812   120660105.762    22960862.188    94020876.1004   22960862.547  
                
 21  8 15  4 31 40.0000000  0 16G12G26R 2R 9G18R18G29G20R19R16G 5G25
                                R17R15G 2G31
  22334243.070   117367232.340    22334250.828    91455010.8904   22334250.957  
                
  24399729.234   128221447.200    24399739.598    99912854.0454   24399739.547  
                
  22973752.086   122592359.602                    95349599.249    22973756.668  
  22973750.113  
  22128007.539   118162341.410                    91904027.951    22128010.828  
  22128006.766  
  22886096.070   120267245.783    22886103.902    93714771.3444   22886103.934  
                
  19466350.281   103912691.353                    80820974.646    19466353.832  
  19466348.871  
  20633524.180   108429895.968    20633531.000    84490858.9344   20633531.168  
                
  22121900.805   116251377.024    22121907.910    90585515.4724                 
                
  21501340.570   115017706.200                    89458200.788    21501344.664  
  21501338.535  
  19673833.648   105094084.759                    81739831.500    19673835.676  
  19673833.406  
  22079683.148   116029535.139    22079690.859    90412650.8044   22079690.895  
                
  20458880.570   107512137.725    20458890.734    83775730.3174   20458891.121  
                
  21101116.875   112916338.182                    87823800.895    21101120.906  
  21101114.922  
  21443278.000   114586355.107                    89122709.183    21443283.301  
  21443278.191  
  23790203.852   125018354.431    23790209.012    97416912.3934                 
                
  22961428.695   120663116.290    22961435.086    94023221.9584   22961435.438  
                
 21  8 15  4 31 50.0000000  0 16G12G26R 2R 9G18R18G29G20R19R16G 5G25
                                R17R15G 2G31
  22340217.094   117398625.957    22340224.836    91479473.4394   22340224.969  
                
  24393263.758   128187471.050    24393274.250    99886379.1134   24393274.145  
                
  22969174.156   122567931.077                    95330599.289    22969178.781  
  22969172.215  
  22121527.320   118127737.396                    91877113.717    22121530.559  
  22121526.551  
  22879926.508   120234824.644    22879934.348    93689508.1324   22879934.363  
                
  19466604.117   103914046.307                    80822028.494    19466607.664  
  19466602.711  
  20632040.992   108422101.743    20632047.816    84484785.5124   20632047.988  
                
  22122430.828   116254162.270    22122437.953    90587685.7994                 
                
  21496494.906   114991785.253                    89438040.052    21496499.012  
  21496492.863  
  19674113.180   105095577.925                    81740992.838    19674115.207  
  19674112.926  
  22075688.047   116008540.713    22075695.746    90396291.5124   22075695.789  
                
  20461911.945   107528067.646    20461922.113    83788143.2314   20461922.488  
                
  21106497.789   112945132.542                    87846196.495    21106501.816  
  21106495.770  
  21450713.406   114626087.479                    89153612.130    21450718.703  
  21450713.570  
  23795687.969   125047173.564    23795693.207    97439368.8464                 
                
  22962013.523   120666189.553    22962019.938    94025616.6964   22962020.270  
                
 21  8 15  4 32  0.0000000  0 16G12G26R 2R 9G18R18G29G20R19R16G 5G25
                                R17R15G 2G31
  22346197.312   117430052.141    22346205.066    91503961.3534   22346205.191  
                
  24386800.930   128153508.853    24386811.527    99859915.0734   24386811.379  
                
  22964606.969   122543559.778                    95311643.862    22964611.629  
  22964604.980  
  22115056.266   118093182.371                    91850237.605    22115059.496  
  22115055.527  
  22873762.078   120202430.329    22873769.902    93664265.8044   22873769.895  
                
  19466867.000   103915449.574                    80823119.914    19466870.570  
  19466865.586  
  20630563.914   108414339.620    20630570.738    84478737.1014   20630570.906  
                
  22122973.008   116257011.449    22122980.129    90589905.9254                 
                
  21491656.141   114965901.308                    89417908.090    21491660.242  
  21491654.113  
  19674409.555   105097161.101                    81742224.194    19674411.609  
  19674409.301  
  22071703.109   115987599.777    22071710.812    90379973.9014   22071710.867  
                
  20464953.883   107544053.075    20464964.047    83800599.3964   20464964.418  
                
  21111881.922   112973944.208                    87868605.560    21111885.965  
  21111879.891  
  21458156.609   114665861.658                    89184547.575    21458161.898  
  21458156.754  
  23801174.211   125076003.826    23801179.520    97461833.9704                 
                
  22962610.250   120669325.341    22962616.699    94028060.1644   22962616.996  
                
 21  8 15  4 32 10.0000000  0 16G12G26R 2R 9G18R18G29G20R19R16G 5G25
                                R17R15G 2G31
  22352183.750   117461511.043    22352191.531    91528474.7594   22352191.652  
                
  24380340.820   128119560.937    24380351.508    99833462.1914   24380351.355  
                
  22960050.586   122519246.079                    95292733.200    22960055.258  
  22960048.551  
  22108594.422   118058676.551                    91823399.749    22108597.641  
  22108593.699  
  22867602.805   120170063.126    22867610.590    93639044.6084   22867610.582  
                
  19467139.008   103916901.557                    80824249.235    19467142.586  
  19467137.582  
  20629092.977   108406609.791    20629099.805    84472713.8554   20629099.969  
                
  22123527.398   116259924.813    22123534.492    90592176.0794                 
                
  21486824.312   114940054.414                    89397804.955    21486828.453  
  21486822.305  
  19674722.898   105098834.867                    81743525.986    19674724.961  
  19674722.641  
  22067728.406   115966712.599    22067736.125    90363698.1834   22067736.168  
                
  20468006.414   107560094.207    20468016.562    83813098.9824   20468016.930  
                
  21117269.352   113002773.509                    87891028.348    21117273.402  
  21117267.309  
  21465607.617   114705677.727                    89215515.614    21465612.957  
  21465607.781  
  23806662.602   125104845.448    23806667.973    97484307.9444                 
                
  22963218.906   120672523.826    22963225.395    94030552.4714   22963225.668  
                
 21  8 15  4 32 20.0000000  0 16G12G26R 2R 9G18R18G29G20R19R16G 5G25
                                R17R15G 2G31
  22358176.352   117493002.298    22358184.148    91553013.3894   22358184.266  
                
  24373883.398   128085626.981    24373894.121    99807020.1504   24373893.938  
                
  22955504.930   122494989.846                    95273867.259    22955509.652  
  22955502.910  
  22102141.758   118024219.744                    91796600.016    22102144.996  
  22102141.047  
  22861448.625   120137722.669    22861456.352    93613844.2514   22861456.367  
                
  19467419.984   103918401.431                    80825415.802    19467423.562  
  19467418.551  
  20627628.086   108398911.716    20627634.914    84466715.3514   20627635.082  
                
  22124093.914   116262901.865    22124100.977    90594495.8744                 
                
  21481999.336   114914244.196                    89377730.367    21482003.539  
  21481997.328  
  19675053.078   105100598.565                    81744897.753    19675055.129  
  19675052.828  
  22063763.898   115945878.991    22063771.641    90347464.2204   22063771.684  
                
  20471069.477   107576190.644    20471079.605    83825641.6464   20471079.977  
                
  21122659.961   113031619.777                    87913464.315    21122664.020  
  21122657.934  
  21473066.430   114745535.278                    89246515.913    21473071.781  
  21473066.543  
  23812153.055   125133697.888    23812158.480    97506790.3434                 
                
  22963839.422   120675784.598    22963845.941    94033093.3154   22963846.188  
                
 21  8 15  4 32 30.0000000  0 16G12G26R 2R 9G18R18G29G20R19R16G 5G25
                                R17R15G 2G31
  22364175.266   117524526.734    22364183.047    91577577.8784   22364183.164  
                
  24367428.867   128051708.074    24367439.594    99780589.8244   24367439.395  
                
  22950970.273   122470792.263                    95255046.942    22950975.020  
  22950968.273  
  22095698.500   117989813.161                    91769839.362    22095701.750  
  22095697.770  
  22855299.734   120105410.023    22855307.410    93588665.5604   22855307.441  
                
  19467710.180   103919950.468                    80826620.607    19467713.762  
  19467708.730  
  20626169.445   108391246.512    20626176.285    84460742.4534   20626176.441  
                
  22124672.742   116265943.646    22124679.770    90596866.0894                 
                
  21477181.477   114888471.764                    89357685.116    21477185.703  
  21477179.457  
  19675400.320   105102453.398                    81746340.391    19675402.359  
  19675400.094  
  22059809.797   115925100.025    22059817.531    90331272.8224   22059817.582  
                
  20474143.227   107592343.298    20474153.344    83838228.1154   20474153.723  
                
  21128053.938   113060484.045                    87935914.283    21128057.996  
  21128051.914  
  21480533.117   114785435.088                    89277549.067    21480538.520  
  21480533.219  
  23817645.742   125162562.076    23817651.230    97529281.8994                 
                
  22964471.961   120679108.603    22964478.504    94035683.4384   22964478.750  
                
 21  8 15  4 32 40.0000000  0 16G12G26R 2R 9G18R18G29G20R19R16G 5G25
                                R17R15G 2G31
  22370180.062   117556082.117    22370187.852    91602166.4714   22370187.965  
                
  24360976.766   128017802.008    24360987.477    99754169.5264   24360987.262  
                
  22946446.227   122446651.106                    95236270.495    22946450.934  
  22946444.188  
  22089264.227   117955454.582                    91743116.024    22089267.480  
  22089263.520  
  22849155.711   120073122.989    22849163.406    93563506.8294   22849163.422  
                
  19468009.109   103921546.185                    80827861.722    19468012.703  
  19468007.668  
  20624716.633   108383611.976    20624723.488    84454793.4634   20624723.633  
                
  22125263.469   116269047.917    22125270.461    90599285.0064                 
                
  21472370.227   114862734.731                    89337667.418    21472374.465  
  21472368.266  
  19675764.141   105104396.831                    81747851.958    19675766.168  
  19675763.938  
  22055865.680   115904373.556    22055873.426    90315122.3284   22055873.465  
                
  20477227.250   107608549.910    20477237.352    83850856.6354   20477237.730  
                
  21133450.812   113089363.823                    87958376.310    21133454.875  
  21133448.773  
  21488007.242   114825374.614                    89308613.137    21488012.672  
  21488007.332  
  23823140.211   125191435.649    23823145.766    97551780.7704                 
                
  22965116.109   120682493.586    22965122.660    94038321.0764   22965122.914  
                
 21  8 15  4 32 50.0000000  0 16G12G26R 2R 9G18R18G29G20R19R16G 5G25
                                R17R15G 2G31
  22376191.125   117587670.415    22376198.910    91626780.6904   22376199.008  
                
  24354527.555   127983910.984    24354538.191    99727760.9384   24354537.961  
                
  22941933.133   122422568.504                    95217539.623    22941937.852  
  22941931.066  
  22082839.398   117921146.367                    91716431.867    22082842.648  
  22082838.680  
  22843016.969   120040863.709    22843024.699    93538369.7234   22843024.691  
                
  19468317.188   103923190.743                    80829140.816    19468320.785  
  19468315.746  
  20623270.070   108376010.221    20623276.938    84448870.0094   20623277.070  
                
  22125866.477   116272216.758    22125873.449    90601754.2384                 
                
  21467566.039   114837035.462                    89317679.104    21467570.285  
  21467564.133  
  19676145.039   105106431.433                    81749434.424    19676147.047  
  19676144.836  
  22051931.969   115883701.780    22051939.750    90299014.4544   22051939.789  
                
  20480321.930   107624812.521    20480332.012    83863528.7874   20480332.395  
                
  21138851.016   113118261.350                    87980852.148    21138855.062  
  21138849.000  
  21495489.211   114865355.939                    89339709.718    21495494.668  
  21495489.289  
  23828636.828   125220320.543    23828642.441    97574288.4644                 
                
  22965772.242   120685941.547    22965778.781    94041007.7914   22965779.031  
                
 21  8 15  4 33  0.0000000  0 16G12G26R 2R 9G18R18G29G20R19R16G 5G25
                                R17R15G 2G31
  22382208.328   117619290.948    22382216.051    91651420.0594   22382216.180  
                
  24348081.109   127950034.459    24348091.613    99701363.6414   24348091.395  
                
  22937430.969   122398544.201                    95198854.069    22937435.711  
  22937428.938  
  22076423.891   117886887.955                    91689786.461    22076427.141  
  22076423.137  
  22836883.406   120008631.633    22836891.168    93513253.8254   22836891.137  
                
  19468634.250   103924883.227                    80830457.189    19468637.852  
  19468632.805  
  20621829.617   108368440.601    20621836.488    84442971.6024   20621836.605  
                
  22126481.672   116275449.572    22126488.629    90604273.3144                 
                
  21462768.812   114811373.324                    89297719.656    21462773.035  
  21462766.926  
  19676542.805   105108556.262                    81751087.057    19676544.789  
  19676542.590  
  22048008.547   115863084.078    22048016.383    90282948.7294   22048016.398  
                
  20483427.141   107641130.510    20483437.195    83876244.0914   20483437.594  
                
  21144254.398   113147175.902                    88003341.244    21144258.406  
  21144252.375  
  21502978.875   114905378.474                    89370838.342    21502984.387  
  21502978.949  
  23834135.484   125249216.206    23834141.148    97596804.5434                 
                
  22966440.242   120689451.876    22966446.762    94043743.0984   22966447.023  
                
 21  8 15  4 33 10.0000000  0 16G12G26R 2R 9G18R18G29G20R19R16G 5G25
                                R17R15G 2G31
  22388231.703   117650943.840    22388239.336    91676084.6504   22388239.531  
                
  24341637.438   127916172.669    24341647.895    99674977.8414   24341647.676  
                
  22932939.766   122374578.356                    95180214.005    22932944.535  
  22932937.719  
  22070017.789   117852679.757                    91663180.092    22070021.043  
  22070017.035  
  22830755.023   119976426.985    22830762.832    93488159.2924   22830762.812  
                
  19468960.375   103926624.073                    80831811.179    19468963.973  
  19468958.926  
  20620395.320   108360903.304    20620402.195    84437098.3824   20620402.309  
                
  22127109.055   116278746.447    22127116.008    90606842.3164                 
                
  21457978.477   114785748.331                    89277789.108    21457982.703  
  21457976.633  
  19676957.500   105110771.447                    81752809.969    19676959.473  
  19676957.277  
  22044095.469   115842520.748    22044103.344    90266925.3564   22044103.348  
                
  20486542.914   107657503.975    20486552.941    83889002.6274   20486553.352  
                
  21149660.953   113176107.448                    88025843.564    21149664.969  
  21149658.961  
  21510476.203   114945441.979                    89401998.803    21510481.746  
  21510476.273  
  23839636.234   125278122.746    23839641.930    97619329.1094                 
                
  22967120.133   120693024.704    22967126.648    94046527.1074   22967126.938  
                
 21  8 15  4 33 20.0000000  0 16G12G26R 2R 9G18R18G29G20R19R16G 5G25
                                R17R15G 2G31
  22394261.188   117682628.898    22394268.789    91700774.2864   22394269.020  
                
  24335196.547   127882325.510    24335206.953    99648603.4354   24335206.723  
                
  22928459.523   122350671.045                    95161619.441    22928464.270  
  22928457.414  
  22063621.062   117818521.720                    91636612.734    22063624.320  
  22063620.344  
  22824631.844   119944249.622    22824639.711    93463086.0394   22824639.703  
                
  19469295.469   103928412.818                    80833202.417    19469299.062  
  19469294.023  
  20618967.133   108353398.120    20618974.012    84431250.1924   20618974.109  
                
  22127748.594   116282107.233    22127755.559    90609461.1054                 
                
  21453195.016   114760159.997                    89257887.080    21453199.238  
  21453193.184  
  19677389.086   105113076.846                    81754603.046    19677391.047  
  19677388.863  
  22040192.703   115822011.635    22040200.582    90250944.2344   22040200.574  
                
  20489669.203   107673932.719    20489679.195    83901804.2334   20489679.629  
                
  21155070.641   113205055.778                    88048358.912    21155074.660  
  21155068.672  
  21517981.172   114985546.212                    89433190.973    21517986.742  
  21517981.258  
  23845138.992   125307039.919    23845144.680    97641861.9714                 
                
  22967811.867   120696659.763    22967818.418    94049359.6104   22967818.680  
                
 21  8 15  4 33 30.0000000  0 16G12G26R 2R 9G18R18G29G20R19R16G 5G25
                                R17R15G 2G31
  22400296.789   117714346.066    22400304.398    91725488.9474   22400304.637  
                
  24328758.461   127848493.155    24328768.848    99622240.5474   24328768.605  
                
  22923990.281   122326822.376                    95143070.457    22923995.000  
  22923988.090  
  22057233.742   117784413.893                    91610084.435    22057236.992  
  22057233.047  
  22818513.891   119912099.701    22818521.828    93438034.1654   22818521.824  
                
  19469639.523   103930249.387                    80834630.866    19469643.113  
  19469638.074  
  20617545.094   108345925.232    20617551.969    84425427.1564   20617552.066  
                
  22128400.312   116285532.032    22128407.270    90612129.7854                 
                
  21448418.547   114734609.020                    89238014.094    21448422.730  
  21448416.711  
  19677837.578   105115472.598                    81756466.390    19677839.543  
  19677837.367  
  22036300.320   115801557.061    22036308.215    90235005.6104   22036308.199  
                
  20492806.023   107690416.790    20492815.980    83914648.9584   20492816.445  
                
  21160483.508   113234021.048                    88070887.441    21160487.512  
  21160481.582  
  21525493.766   115025691.112                    89464414.755    21525499.355  
  21525493.863  
  23850643.797   125335967.768    23850649.480    97664403.1414                 
                
  22968515.461   120700357.148    22968522.078    94052240.6794   22968522.301  
                
 21  8 15  4 33 40.0000000  0 16G12G26R 2R 9G18R18G29G20R19R16G 5G25
                                R17R15G 2G31
  22406338.477   117746095.217    22406346.078    91750228.5274   22406346.309  
                
  24322323.180   127814675.612    24322333.578    99595889.2084   24322333.340  
                
  22919532.008   122303032.432                    95124567.164    22919536.723  
  22919529.816  
  22050855.883   117750356.587                    91583595.421    22050859.141  
  22050855.191  
  22812401.164   119879977.204    22812409.168    93413003.6604   22812409.176  
                
  19469992.570   103932133.983                    80836096.657    19469996.160  
  19469991.113  
  20616129.172   108338484.516    20616136.047    84419629.1904   20616136.145  
                
  22129064.211   116289020.777    22129071.156    90614848.2834                 
                
  21443649.016   114709095.232                    89218170.017    21443653.141  
  21443647.164  
  19678302.984   105117958.601                    81758399.937    19678304.945  
  19678302.793  
  22032418.297   115781156.950    22032426.230    90219109.4244   22032426.195  
                
  20495953.352   107706956.079    20495963.270    83927536.7104   20495963.766  
                
  21165899.477   113263002.946                    88093428.907    21165903.488  
  21165897.578  
  21533013.977   115065876.571                    89495670.085    21533019.562  
  21533014.086  
  23856150.602   125364906.212    23856156.289    97686952.5484                 
                
  22969230.891   120704116.747    22969237.582    94055170.2224   22969237.766  
                
 21  8 15  4 33 50.0000000  0 16G12G26R 2R 9G18R18G29G20R19R16G 5G25
                                R17R15G 2G31
  22412386.273   117777876.449    22412393.852    91774993.1104   22412394.094  
                
  24315890.750   127780873.067    24315901.137    99569549.5604   24315900.926  
                
  22915084.867   122279301.895                    95106110.087    22915089.617  
  22915082.719  
  22044487.523   117716350.004                    91557145.878    22044490.801  
  22044486.809  
  22806293.672   119847882.285    22806301.738    93387994.6614   22806301.766  
                
  19470354.602   103934066.525                    80837599.739    19470358.195  
  19470353.137  
  20614719.406   108331076.112    20614726.289    84413856.4034   20614726.383  
                
  22129740.289   116292573.539    22129747.195    90617616.6664                 
                
  21438886.406   114683618.493                    89198354.791    21438890.516  
  21438884.535  
  19678785.312   105120535.060                    81760403.856    19678787.273  
  19678785.133  
  22028546.688   115760811.578    22028554.637    90203255.9034   22028554.586  
                
  20499111.211   107723550.672    20499121.090    83940467.5544   20499121.621  
                
  21171318.570   113292001.525                    88115983.348    21171322.582  
  21171316.703  
  21540541.742   115106102.471                    89526956.881    21540547.320  
  21540541.867  
  23861659.422   125393855.160    23861665.105    97709510.1584                 
                
  22969958.172   120707938.636    22969964.918    94058148.3104   22969965.074  
                
 21  8 15  4 34  0.0000000  0 16G12G26R 2R 9G18R18G29G20R19R16G 5G25
                                R17R15G 2G31
  22418440.125   117809689.561    22418447.672    91799782.5334   22418447.922  
                
  24309461.109   127747085.489    24309471.566    99543221.6004   24309471.395  
                
  22910648.805   122255630.262                    95087698.830    22910653.539  
  22910646.672  
  22038128.672   117682394.167                    91530735.784    22038131.949  
  22038127.957  
  22800191.453   119815814.941    22800199.527    93363007.1234   22800199.562  
                
  19470725.570   103936046.774                    80839139.926    19470729.180  
  19470724.102  
  20613315.758   108323699.900    20613322.637    84408108.6994   20613322.742  
                
  22130428.516   116296190.176    22130435.359    90620434.8314                 
                
  21434130.711   114658178.812                    89178568.385    21434134.770  
  21434128.852  
  19679284.523   105123201.737                    81762477.930    19679286.488  
  19679284.355  
  22024685.500   115740520.955    22024693.434    90187445.0304   22024693.398  
                
  20502279.555   107740200.435    20502289.410    83953441.3894   20502289.961  
                
  21176740.734   113321016.576                    88138550.604    21176744.766  
  21176738.926  
  21548077.055   115146368.558                    89558274.954    21548082.582  
  21548077.152  
  23867170.219   125422814.509    23867175.887    97732075.8804                 
                
  22970697.297   120711822.739    22970704.062    94061174.8794   22970704.207  
                
 21  8 15  4 34 10.0000000  0 16G12G26R 2R 9G18R18G29G20R19R16G 5G25
                                R17R15G 2G31
  22424500.031   117841534.438    22424507.566    91824596.7164   22424507.816  
                
  24303034.367   127713312.979    24303044.906    99516905.3694   24303044.707  
                
  22906223.797   122232017.631                    95069333.500    22906228.539  
  22906221.613  
  22031779.352   117648489.168                    91504365.225    22031782.617  
  22031778.637  
  22794094.531   119783775.195    22794102.555    93338041.0874   22794102.605  
                
  19471105.484   103938074.761                    80840717.242    19471109.098  
  19471104.020  
  20611918.227   108316355.820    20611925.105    84402386.0414   20611925.211  
                
  22131128.898   116299870.643    22131135.680    90623302.7364                 
                
  21429381.977   114632776.222                    89158810.796    21429385.996  
  21429380.098  
  19679800.648   105125958.766                    81764622.299    19679802.613  
  19679800.461  
  22020834.734   115720285.077    22020842.645    90171676.8154   22020842.641  
                
  20505458.398   107756905.311    20505468.246    83966458.1724   20505468.812  
                
  21182165.992   113350048.133                    88161130.689    21182170.031  
  21182164.211  
  21555619.875   115186674.727                    89589624.212    21555625.332  
  21555619.973  
  23872682.969   125451784.133    23872688.621    97754649.5964                 
                
  22971448.242   120715768.976    22971455.000    94064249.8664   22971455.148  
                
 21  8 15  4 34 20.0000000  0 16G12G26R 2R 9G18R18G29G20R19R16G 5G25
                                R17R15G 2G31
  22430565.961   117873411.005    22430573.500    91849435.5854   22430573.746  
                
  24296610.477   127679555.525    24296621.082    99490600.8924   24296620.883  
                
  22901809.891   122208464.292                    95051014.243    22901814.617  
  22901807.727  
  22025439.562   117614635.118                    91478034.308    22025442.844  
  22025438.867  
  22788002.883   119751763.062    22788010.809    93313096.5634   22788010.879  
                
  19471494.305   103940150.323                    80842331.573    19471497.918  
  19471492.836  
  20610526.820   108309043.947    20610533.695    84396688.4764   20610533.805  
                
  22131841.422   116303614.943    22131848.156    90626220.3704                 
                
  21424640.195   114607410.822                    89139082.140    21424644.164  
  21424638.320  
  19680333.664   105128806.040                    81766836.828    19680335.609  
  19680333.449  
  22016994.391   115700103.984    22017002.305    90155951.2984   22017002.309  
                
  20508647.711   107773665.233    20508657.555    83979517.8434   20508658.145  
                
  21187594.320   113379096.085                    88183723.530    21187598.359  
  21187592.551  
  21563170.094   115227020.787                    89621004.473    21563175.500  
  21563170.180  
  23878197.656   125480763.994    23878203.273    97777231.2974                 
                
  22972210.992   120719777.277    22972217.719    94067373.2054   22972217.898  
                
 21  8 15  4 34 30.0000000  0 16G12G26R 2R 9G18R18G29G20R19R16G 5G25
                                R17R15G 2G31
  22436637.984   117905319.547    22436645.531    91874299.3524   22436645.781  
                
  24290189.555   127645813.544    24290200.184    99464308.4544   24290199.980  
                
  22897407.203   122184970.794                    95032741.514    22897411.926  
  22897405.023  
  22019109.406   117580832.448                    91451743.346    22019112.695  
  22019108.719  
  22781916.539   119719778.893    22781924.344    93288173.8194   22781924.441  
                
  19471892.078   103942273.638                    80843983.034    19471895.672  
  19471890.621  
  20609141.594   108301764.517    20609148.461    84391016.1874   20609148.578  
                
  22132566.141   116307423.324    22132572.840    90629187.9424                 
                
  21419905.367   114582082.668                    89119382.459    21419909.293  
  21419903.531  
  19680883.609   105131743.706                    81769121.678    19680885.539  
  19680883.398  
  22013164.562   115679978.123    22013172.480    90140268.8174   22013172.469  
                
  20511847.547   107790480.433    20511857.414    83992620.5904   20511858.000  
                
  21193025.727   113408160.574                    88206329.241    21193029.762  
  21193023.973  
  21570727.742   115267406.774                    89652415.774    21570733.152  
  21570727.840  
  23883714.352   125509754.355    23883719.914    97799821.1824                 
                
  22972985.602   120723847.875    22972992.293    94070545.0934   22972992.496  
                
 21  8 15  4 34 40.0000000  0 16G12G26R 2R 9G18R18G29G20R19R16G 5G25
                                R17R15G 2G31
  22442715.992   117937259.590    22442723.559    91899187.6784   22442723.805  
                
  24283771.578   127612086.786    24283782.180    99438027.8644   24283781.988  
                
  22893015.672   122161536.908                    95014515.158    22893020.395  
  22893013.504  
  22012788.828   117547080.954                    91425492.193    22012792.102  
  22012788.133  
  22775835.438   119687822.395    22775843.145    93263272.6374   22775843.266  
                
  19472298.773   103944444.552                    80845671.508    19472302.363  
  19472297.320  
  20607762.477   108294517.218    20607769.336    84385368.9384   20607769.465  
                
  22133303.000   116311295.526    22133309.676    90632205.2324                 
                
  21415177.477   114556791.640                    89099711.669    21415181.418  
  21415175.656  
  19681450.453   105134771.648                    81771476.734    19681452.336  
  19681450.270  
  22009345.203   115659907.289    22009353.113    90124629.2114   22009353.109  
                
  20515057.828   107807350.573    20515067.742    84005766.1484   20515068.293  
                
  21198460.141   113437241.225                    88228947.508    21198464.172  
  21198458.387  
  21578292.789   115307832.362                    89683857.880    21578298.234  
  21578292.926  
  23889232.945   125538754.805    23889238.473    97822418.9134                 
                
  22973772.000   120727980.434    22973778.676    94073765.2604   22973778.906  
                
 21  8 15  4 34 50.0000000  0 16G12G26R 2R 9G18R18G29G20R19R16G 5G25
                                R17R15G 2G31
  22448800.031   117969231.300    22448807.617    91924100.6864   22448807.855  
                
  24277356.539   127578375.507    24277367.109    99411759.3484   24277366.934  
                
  22888635.312   122138162.454                    94996335.040    22888639.984  
  22888633.164  
  22006477.898   117513380.966                    91399281.110    22006481.172  
  22006477.160  
  22769759.648   119655893.793    22769767.258    93238393.2094   22769767.395  
                
  19472714.375   103946663.080                    80847397.040    19472717.965  
  19472712.938  
  20606389.508   108287302.210    20606396.367    84379746.8464   20606396.500  
                
  22134052.031   116315231.698    22134058.695    90635272.3954                 
                
  21410456.555   114531537.805                    89080069.798    21410460.508  
  21410454.730  
  19682034.242   105137890.006                    81773902.117    19682036.105  
  19682034.070  
  22005536.344   115639891.672    22005544.227    90109032.6374   22005544.234  
                
  20518278.594   107824275.766    20518288.551    84018954.6114   20518289.078  
                
  21203897.625   113466338.227                    88251578.504    21203901.613  
  21203895.883  
  21585865.266   115348297.515                    89715330.752    21585870.727  
  21585865.410  
  23894753.484   125567765.391    23894759.000    97845024.5454                 
                
  22974570.219   120732175.087    22974576.918    94077033.8174   22974577.137  
                
 21  8 15  4 35  0.0000000  0 16G12G26R 2R 9G18R18G29G20R19R16G 5G25
                                R17R15G 2G31
  22454890.055   118001234.481    22454897.648    91949038.2144   22454897.879  
                
  24270944.391   127544679.577    24270954.988    99385502.7904   24270954.832  
                
  22884266.258   122114848.341                    94978201.840    22884270.883  
  22884264.117  
  22000176.609   117479732.515                    91373110.099    22000179.875  
  22000175.855  
  22763689.164   119623993.010    22763696.668    93213535.4474   22763696.820  
                
  19473138.844   103948928.878                    80849159.318    19473142.418  
  19473137.402  
  20605022.648   108280119.327    20605029.504    84374149.7884   20605029.641  
                
  22134813.203   116319231.649    22134819.855    90638389.2284                 
                
  21405742.547   114506320.999                    89060456.728    21405746.512  
  21405740.695  
  19682634.891   105141098.565                    81776397.660    19682636.746  
  19682634.727  
  22001737.984   115619931.208    22001745.836    90093479.0304   22001745.863  
                
  20521509.797   107841255.829    20521519.793    84032185.8214   20521520.305  
                
  21209338.102   113495451.349                    88274222.046    21209342.094  
  21209336.355  
  21593445.117   115388801.984                    89746834.206    21593450.582  
  21593445.250  
  23900275.914   125596785.931    23900281.434    97867637.9434                 
                
  22975380.219   120736431.682    22975386.949    94080350.6364   22975387.152  
                
 21  8 15  4 35 10.0000000  0 16G12G26R 2R 9G18R18G29G20R19R16G 5G25
                                R17R15G 2G31
  22460986.086   118033269.191    22460993.695    91974000.3074   22460993.910  
                
  24264535.266   127510999.293    24264545.871    99359258.4074   24264545.711  
                
  22879908.438   122091594.149                    94960115.261    22879913.023  
  22879906.297  
  21993885.023   117446135.843                    91346979.346    21993888.273  
  21993884.262  
  22757624.016   119592120.236    22757631.449    93188699.5074   22757631.598  
                
  19473572.203   103951242.145                    80850958.531    19473575.770  
  19473570.742  
  20603661.953   108272968.754    20603668.812    84368577.9124   20603668.949  
                
  22135586.531   116323295.442    22135593.203    90641555.8204                 
                
  21401035.492   114481141.488                    89040872.657    21401039.488  
  21401033.625  
  19683252.430   105144397.277                    81778963.289    19683254.320  
  19683252.246  
  21997950.188   115600026.167    21997958.035    90077968.6194   21997958.066  
                
  20524751.477   107858290.898    20524761.504    84045459.8944   20524762.008  
                
  21214781.570   113524580.390                    88296877.959    21214785.574  
  21214779.840  
  21601032.391   115429345.778                    89778368.248    21601037.824  
  21601032.504  
  23905800.266   125625816.537    23905805.785    97890259.1774                 
                
  22976202.023   120740750.273    22976208.773    94083715.7534   22976208.988  
                
 21  8 15  4 35 20.0000000  0 16G12G26R 2R 9G18R18G29G20R19R16G 5G25
                                R17R15G 2G31
  22467088.078   118065335.269    22467095.703    91998986.8364   22467095.891  
                
  24258129.070   127477334.508    24258139.715    99333026.1074   24258139.516  
                
  22875561.812   122068399.896                    94942075.285    22875566.352  
  22875559.676  
  21987603.148   117412591.050                    91320888.957    21987606.387  
  21987602.383  
  22751564.148   119560275.326    22751571.543    93163885.2884   22751571.672  
                
  19474014.406   103953602.662                    80852794.497    19474017.957  
  19474012.945  
  20602307.359   108265850.348    20602314.219    84363031.0994   20602314.355  
                
  22136371.953   116327422.891    22136378.656    90644772.0274                 
                
  21396335.359   114455999.047                    89021317.445    21396339.402  
  21396333.469  
  19683886.852   105147786.245                    81781599.158    19683888.742  
  19683886.637  
  21994172.898   115580176.450    21994180.750    90062501.3084   21994180.789  
                
  20528003.562   107875380.686    20528013.613    84058776.6044   20528014.109  
                
  21220228.008   113553725.350                    88319546.231    21220231.992  
  21220226.277  
  21608626.945   115469928.410                    89809932.519    21608632.332  
  21608627.023  
  23911326.461   125654856.861    23911331.953    97912887.9864                 
                
  22977035.547   120745130.482    22977042.309    94087128.8954   22977042.547  
                
 21  8 15  4 35 30.0000000  0 16G12G26R 2R 9G18R18G29G20R19R16G 5G25
                                R17R15G 2G31
  22473196.031   118097432.669    22473203.645    92023997.7834   22473203.840  
                
  24251725.875   127443685.514    24251736.523    99306806.1264   24251736.320  
                
  22871226.531   122045266.167                    94924082.383    22871231.059  
  22871224.410  
  21981331.070   117379098.419                    91294839.125    21981334.277  
  21981330.301  
  22745509.609   119528458.538    22745517.008    93139092.9914   22745517.102  
                
  19474465.508   103956010.614                    80854667.343    19474469.059  
  19474464.055  
  20600958.930   108258764.293    20600965.793    84357509.4994   20600965.945  
                
  22137169.547   116331614.231    22137176.258    90648038.0064                 
                
  21391642.266   114430894.075                    89001791.359    21391646.309  
  21391640.301  
  19684538.188   105151265.552                    81784305.288    19684540.074  
  19684537.957  
  21990406.211   115560382.392    21990414.035    90047077.3664   21990414.078  
                
  20531266.102   107892525.396    20531276.176    84072136.1104   20531276.672  
                
  21225677.430   113582886.259                    88342226.939    21225681.395  
  21225675.730  
  21616228.805   115510550.100                    89841527.155    21616234.164  
  21616228.852  
  23916854.547   125683907.099    23916860.012    97935524.5254                 
                
  22977880.875   120749572.688    22977887.645    94090590.3494   22977887.895  
                
 21  8 15  4 35 40.0000000  0 16G12G26R 2R 9G18R18G29G20R19R16G 5G25
                                R17R15G 2G31
  22479309.938   118129561.368    22479317.527    92049033.1164   22479317.727  
                
  24245325.688   127410052.351    24245336.305    99280598.4704   24245336.137  
                
  22866902.625   122022193.080                    94906136.655    22866907.168  
  22866900.508  
  21975068.758   117345657.970                    91268829.895    21975071.922  
  21975067.969  
  22739460.406   119496669.934    22739467.828    93114322.6414   22739467.918  
                
  19474925.430   103958465.710                    80856576.854    19474928.988  
  19474923.992  
  20599616.656   108251710.624    20599623.527    84352013.1274   20599623.680  
                
  22137979.297   116335869.484    22137986.023    90651353.7904                 
                
  21386956.148   114405826.417                    88982294.280    21386960.180  
  21386954.152  
  19685206.453   105154835.305                    81787081.756    19685208.305  
  19685206.219  
  21986650.109   115540643.984    21986657.910    90031696.8074   21986657.973  
                
  20534539.078   107909724.975    20534549.188    84085538.3704   20534549.668  
                
  21231129.828   113612063.163                    88364920.084    21231133.777  
  21231128.121  
  21623837.914   115551210.672                    89873152.011    21623843.301  
  21623837.934  
