     2.11           OBSERVATION DATA    M (MIXED)           RINEX VERSION / TYPE
EFT-CORS.RU                             20210813 095608 UTC PGM / RUN BY / DATE 
ANGR                                                        MARKER NAME         
                                                            MARKER NUMBER       
ANGR                EFT-CORS.RU                             OBSERVER / AGENCY   
0                   TRIMBLE BD970       2.0                 REC # / TYPE / VERS 
0                   UNKNOWN EXT NONE                        ANT # / TYPE        
  -931437.4817  3778495.1924  5036899.3175                  APPROX POSITION XYZ 
        0.0000        0.0000        0.0000                  ANTENNA: DELTA H/E/N
     1     1                                                WAVELENGTH FACT L1/2
     6    C1    L1    P2    L2    C2    P1                  # / TYPES OF OBSERV 
    10.000                                                  INTERVAL            
  2021     8     9     0    30    0.0000000     GPS         TIME OF FIRST OBS   
  2021     8     9     4    30    0.0000000     GPS         TIME OF LAST OBS    
     0                                                      RCV CLOCK OFFS APPL 
                                                            END OF HEADER       
 21  8  9  0 30  0.0000000  0 17G17G22R15R16R 8G14G 1G24R24G 3G19R17
                                G 6R18R14G21R 1
  20438060.508   107402755.750    20438065.441    83690473.9104   20438065.730  
                
  22774904.008   119682961.163    22774906.906    93259474.3374                 
                
  19527943.945   104351407.566    19527948.855    81162201.068    19527948.375  
  19527943.477  
  22051160.391   117793360.592    22051164.949    91617040.557    22051163.352  
  22051159.562  
  22763377.406   121896851.139    22763381.312    94808661.625    22763381.352  
  22763376.793  
  20747950.438   109031225.274    20747956.008    84959417.1134   20747956.203  
                
  21576832.227   113387021.721    21576840.566    88353559.2154   21576840.535  
                
  23280493.836   122339826.065    23280502.039    95329766.5684   23280502.457  
                
  20329353.211   108710199.723    20329357.586    84552374.954    20329357.473  
  20329352.367  
  22544391.656   118471611.842    22544398.969    92315593.4564   22544399.742  
                
  20923038.352   109951323.383    20923041.652    85676371.4484                 
                
  19347089.828   103530191.515    19347094.168    80523487.716    19347093.887  
  19347088.926  
  23534563.602   123674983.021    23534572.594    96370151.6784   23534573.078  
                
  22609420.445   120690631.153    22609426.191    93870488.941    22609425.621  
  22609419.348  
  21638085.555   115343151.958    21638091.109    89711322.448    21638091.793  
  21638084.664  
  24334454.820   127878419.803    24334459.242    99645536.0874                 
                
  23067176.602   123307288.583    23067183.594    95905701.960    23067182.590  
  23067175.160  
 21  8  9  0 30 10.0000000  0 17G17G22R15R16R 8G14G 1G24R24G 3G19R17
                                G 6R18R14G21R 1
  20437633.156   107400510.005    20437638.086    83688723.9704   20437638.383  
                
  22775142.891   119684216.502    22775145.781    93260452.5334                 
                
  19528946.930   104356767.210    19528951.828    81166369.674    19528951.355  
  19528946.453  
  22044628.844   117758470.309    22044633.379    91589903.673    22044631.797  
  22044628.031  
  22762789.148   121893701.096    22762793.082    94806211.582    22762793.113  
  22762788.543  
  20751339.195   109049033.271    20751344.750    84973293.4654   20751344.957  
                
  21582142.805   113414928.919    21582151.160    88375305.0764   21582151.117  
                
  23279230.805   122333188.802    23279239.035    95324594.6774   23279239.418  
                
  20334235.672   108736308.368    20334240.027    84572681.677    20334239.934  
  20334234.859  
  22541133.438   118454489.864    22541140.738    92302251.6674   22541141.520  
                
  20919061.688   109930425.913    20919064.965    85660087.7074                 
                
  19344983.438   103518919.876    19344987.785    80514720.891    19344987.496  
  19344982.527  
  23527684.828   123638834.921    23527693.859    96341984.3484   23527694.336  
                
  22602651.594   120654498.729    22602657.324    93842385.967    22602656.793  
  22602650.512  
  21645694.047   115383709.458    21645699.590    89742867.146    21645700.297  
  21645693.113  
  24340487.359   127910120.985    24340491.789    99670238.2894                 
                
  23061584.250   123277394.350    23061591.227    95882450.887    23061590.258  
  23061582.785  
 21  8  9  0 30 20.0000000  0 17G17G22R15R16R 8G14G 1G24R24G 3G19R17
                                G 6R18R14G21R 1
  20437212.805   107398301.075    20437217.734    83687002.7284   20437218.035  
                
  22775394.102   119685536.653    22775396.996    93261481.2314                 
                
  19529966.812   104362217.173    19529971.695    81170608.531    19529971.227  
  19529966.344  
  22038106.570   117723629.491    22038111.059    91562805.265    22038109.504  
  22038105.785  
  22762217.227   121890638.499    22762221.164    94803829.565    22762221.195  
  22762216.613  
  20754738.148   109066894.881    20754743.688    84987211.6004   20754743.902  
                
  21587461.742   113442880.081    21587470.102    88397085.1964   21587470.078  
                
  23277980.375   122326617.782    23277988.633    95319474.4014   23277988.992  
                
  20339125.492   108762456.390    20339129.852    84593019.018    20339129.758  
  20339124.699  
  22537886.734   118437428.381    22537894.031    92288957.0094   22537894.797  
                
  20915092.219   109909566.250    20915095.477    85643833.4364                 
                
  19342888.266   103507708.205    19342892.625    80506000.701    19342892.332  
  19342887.332  
  23520810.156   123602708.297    23520819.211    96313833.7434   23520819.676  
                
  22595887.672   120618392.417    22595893.387    93814303.302    22595892.836  
  22595886.602  
  21653310.031   115424307.030    21653315.574    89774442.983    21653316.301  
  21653309.047  
  24346521.844   127941832.352    24346526.301    99694948.4404                 
                
  23056002.047   123247554.371    23056009.012    95859242.034    23056008.070  
  23056000.547  
 21  8  9  0 30 30.0000000  0 17G17G22R15R16R 8G14G 1G24R24G 3G19R17
                                G 6R18R14G21R 1
  20436799.422   107396128.746    20436804.348    83685310.0064   20436804.648  
                
  22775657.617   119686921.445    22775660.504    93262560.2864                 
                
  19531003.555   104367757.154    19531008.422    81174917.395    19531007.961  
  19531003.102  
  22031593.508   117688837.842    22031597.957    91535745.105    22031596.414  
  22031592.703  
  22761661.609   121887663.213    22761665.559    94801515.453    22761665.641  
  22761660.949  
  20758147.258   109084809.828    20758152.797    85001171.2914   20758153.008  
                
  21592788.977   113470874.840    21592797.340    88418899.2934   21592797.324  
                
  23276742.516   122320112.829    23276750.793    95314405.6024   23276751.129  
                
  20344022.688   108788643.848    20344027.078    84613387.043    20344026.969  
  20344021.953  
  22534651.531   118420427.265    22534658.801    92275709.3764   22534659.582  
                
  20911129.914   109888744.207    20911133.152    85627608.4624                 
                
  19340804.266   103496556.312    19340808.633    80497327.008    19340808.332  
  19340803.309  
  23513939.531   123566602.902    23513948.586    96285699.6824   23513949.066  
                
  22589128.547   120582311.944    22589134.273    93786240.742    22589133.727  
  22589127.473  
  21660933.492   115464944.269    21660938.996    89806049.717    21660939.746  
  21660932.520  
  24352558.203   127973553.612    24352562.660    99719666.2834                 
                
  23050429.992   123217768.642    23050436.934    95836075.358    23050435.980  
  23050428.469  
 21  8  9  0 30 40.0000000  0 17G17G22R15R16R 8G14G 1G24R24G 3G19R17
                                G 6R18R14G21R 1
  20436392.969   107393992.829    20436397.887    83683645.6584   20436398.199  
                
  22775933.375   119688370.624    22775936.273    93263689.5344                 
                
  19532057.125   104373387.102    19532061.984    81179296.238    19532061.520  
  19532056.676  
  22025089.680   117654095.560    22025094.082    91508723.338    22025092.590  
  22025088.875  
  22761122.219   121884774.880    22761126.238    94799268.964    22761126.305  
  22761121.527  
  20761566.477   109102777.921    20761572.008    85015172.3844   20761572.223  
                
  21598124.461   113498912.954    21598132.840    88440747.1684   21598132.816  
                
  23275517.203   122313673.759    23275525.512    95309388.1504   23275525.824  
                
  20348927.141   108814870.151    20348931.562    84633785.264    20348931.441  
  20348926.410  
  22531427.766   118403486.363    22531435.023    92262508.6724   22531435.824  
                
  20907174.750   109867959.698    20907177.984    85611412.7444                 
                
  19338731.383   103485463.999    19338735.758    80488699.655    19338735.453  
  19338730.410  
  23507072.883   123530518.683    23507082.020    96257582.1404   23507082.488  
                
  22582374.227   120546257.174    22582379.965    93758198.165    22582379.430  
  22582373.176  
  21668564.383   115505620.982    21668569.820    89837687.171    21668570.586  
  21668563.430  
  24358596.391   128005284.460    24358600.867    99744391.6144                 
                
  23044868.047   123188036.948    23044874.980    95812950.723    23044874.051  
  23044866.504  
 21  8  9  0 30 50.0000000  0 17G17G22R15R16R 8G14G 1G24R24G 3G19R17
                                G 6R18R14G21R 1
  20435993.617   107391894.190    20435998.531    83682010.3604   20435998.844  
                
  22776221.555   119689885.004    22776224.473    93264869.5704                 
                
  19533127.688   104379107.820    19533132.539    81183745.682    19533132.066  
  19533127.254  
  22018595.211   117619403.286    22018599.582    91481740.460    22018598.113  
  22018594.418  
  22760599.227   121881974.298    22760603.324    94797090.742    22760603.379  
  22760598.488  
  20764995.961   109120799.936    20765001.480    85029215.5084   20765001.707  
                
  21603468.336   113526995.148    21603476.742    88462629.3874   21603476.715  
                
  23274304.602   122307301.445    23274312.918    95304422.7124   23274313.223  
                
  20353839.031   108841136.141    20353843.477    84654214.365    20353843.348  
  20353838.336  
  22528215.625   118386606.600    22528222.867    92249355.6284   22528223.676  
                
  20903226.875   109847213.523    20903230.102    85595246.9034                 
                
  19336669.820   103474432.162    19336674.211    80480119.328    19336673.910  
  19336668.832  
  23500210.477   123494456.542    23500219.652    96229481.7884   23500220.109  
                
  22575624.930   120510229.221    22575630.652    93730176.438    22575630.152  
  22575623.914  
  21676202.805   115546337.900    21676208.195    89869355.864    21676209.000  
  21676201.840  
  24364636.562   128037025.752    24364641.070    99769125.0574                 
                
  23039316.422   123158360.384    23039323.352    95789868.961    23039322.438  
  23039314.895  
 21  8  9  0 31  0.0000000  0 17G17G22R15R16R 8G14G 1G24R24G 3G19R17
                                G 6R18R14G21R 1
  20435601.258   107389832.357    20435606.164    83680403.7394   20435606.480  
                
  22776522.055   119691464.141    22776524.969    93266100.0584                 
                
  19534215.133   104384918.775    19534219.980    81188265.317    19534219.520  
  19534214.723  
  22012110.086   117584760.956    22012114.426    91454796.415    22012112.992  
  22012109.324  
  22760092.578   121879261.239    22760096.723    94794980.593    22760096.770  
  22760091.828  
  20768435.609   109138875.383    20768441.121    85043300.2594   20768441.359  
                
  21608820.484   113555120.839    21608828.930    88484545.4974   21608828.887  
                
  23273104.617   122300995.446    23273112.910    95299508.9414   23273113.230  
                
  20358758.203   108867441.120    20358762.676    84674673.774    20358762.531  
  20358757.508  
  22525015.070   118369787.629    22525022.293    92236249.9414   22525023.117  
                
  20899286.234   109826505.305    20899289.449    85579110.6314                 
                
  19334619.438   103463460.150    19334623.832    80471585.544    19334623.531  
  19334618.461  
  23493352.203   123458416.076    23493361.406    96201398.3404   23493361.828  
                
  22568880.562   120474227.408    22568886.289    93702175.068    22568885.797  
  22568879.570  
  21683848.578   115587094.214    21683854.012    89901055.174    21683854.816  
  21683847.598  
  24370678.609   128068776.974    24370683.145    99793866.2544                 
                
  23033775.031   123128738.598    23033781.984    95766829.812    23033781.027  
  23033773.543  
 21  8  9  0 31 10.0000000  0 17G17G22R15R16R 8G14G 1G24R24G 3G19R17
                                G 6R18R14G21R 1
  20435215.898   107387807.268    20435220.793    83678825.7464   20435221.109  
                
  22776834.844   119693107.860    22776837.734    93267380.8894                 
                
  19535319.438   104390819.814    19535324.281    81192855.004    19535323.816  
  19535319.035  
  22005634.336   117550168.763    22005638.676    91427891.369    22005637.250  
  22005633.594  
  22759602.242   121876635.435    22759606.395    94792938.289    22759606.461  
  22759601.500  
  20771885.406   109157004.128    20771890.906    85057426.5444   20771891.152  
                
  21614180.867   113583289.856    21614189.340    88506495.3664   21614189.289  
                
  23271917.227   122294755.677    23271925.512    95294646.7764   23271925.828  
                
  20363684.672   108893785.126    20363689.176    84695163.554    20363689.020  
  20363684.016  
  22521826.078   118353029.403    22521833.289    92223191.5864   22521834.125  
                
  20895352.805   109805835.025    20895356.008    85563003.9244                 
                
  19332580.250   103452548.033    19332584.656    80463098.341    19332584.359  
  19332579.285  
  23486498.055   123422397.291    23486507.125    96173331.7424   23486507.605  
                
  22562141.125   120438251.843    22562146.793    93674194.083    22562146.328  
  22562140.156  
  21691501.688   115627889.802    21691507.156    89932785.038    21691507.992  
  21691500.707  
  24376722.508   128100537.908    24376727.043    99818615.0354                 
                
  23028243.914   123099171.714    23028250.855    95743833.341    23028249.879  
  23028242.461  
 21  8  9  0 31 20.0000000  0 17G17G22R15R16R 8G14G 1G24R24G 3G19R17
                                G 6R18R14G21R 1
  20434837.562   107385819.112    20434842.449    83677276.5304   20434842.770  
                
  22777159.969   119694816.424    22777162.832    93268712.2394                 
                
  19536440.648   104396811.158    19536445.492    81197514.933    19536445.020  
  19536440.266  
  21999167.992   117515626.796    21999172.355    91401025.406    21999170.926  
  21999167.258  
  22759128.250   121874097.217    22759132.449    94790964.128    22759132.527  
  22759127.512  
  20775345.375   109175186.330    20775350.871    85071594.4804   20775351.113  
                
  21619549.508   113611502.226    21619557.977    88528479.0254   21619557.934  
                
  23270742.477   122288582.295    23270750.777    95289836.3524   23270751.078  
                
  20368618.422   108920168.079    20368622.922    84715683.619    20368622.773  
  20368617.754  
  22518648.695   118336332.183    22518655.898    92210180.7754   22518656.738  
                
  20891426.633   109785202.903    20891429.820    85546926.9454                 
                
  19330552.273   103441695.971    19330556.695    80454657.857    19330556.383  
  19330551.309  
  23479648.023   123386400.382    23479657.062    96145282.2274   23479657.574  
                
  22555406.609   120402302.641    22555412.250    93646233.598    22555411.820  
  22555405.648  
  21699162.227   115668724.841    21699167.715    89964545.608    21699168.551  
  21699161.316  
  24382768.281   128132308.633    24382772.828    99843371.4284                 
                
  23022723.141   123069659.985    23022730.059    95720879.792    23022729.094  
  23022721.730  
 21  8  9  0 31 30.0000000  0 17G17G22R15R16R 8G14G 1G24R24G 3G19R17
                                G 6R18R14G21R 1
  20434466.234   107383867.769    20434471.117    83675756.0034   20434471.441  
                
  22777497.422   119696589.746    22777500.238    93270094.0434                 
                
  19537578.758   104402892.818    19537583.602    81202245.111    19537583.129  
  19537578.387  
  21992711.078   117481135.081    21992715.461    91374198.520    21992713.996  
  21992710.328  
  22758670.586   121871646.439    22758674.836    94789057.960    22758674.902  
  22758669.895  
  20778815.484   109193421.834    20778820.977    85085803.9524   20778821.223  
                
  21624926.375   113639757.802    21624934.828    88550496.3514   21624934.805  
                
  23269580.352   122282475.275    23269588.621    95285077.6274   23269588.941  
                
  20373559.406   108946589.736    20373563.926    84736233.778    20373563.766  
  20373558.727  
  22515482.922   118319695.960    22515490.105    92197217.4964   22515490.934  
                
  20887507.703   109764608.781    20887510.875    85530879.5874                 
                
  19328535.516   103430903.890    19328539.953    80446264.013    19328539.633  
  19328534.555  
  23472802.164   123350425.327    23472811.215    96117249.7464   23472811.715  
                
  22548677.031   120366379.807    22548682.746    93618293.649    22548682.250  
  22548676.043  
  21706830.133   115709598.871    21706835.574    89996336.540    21706836.402  
  21706829.277  
  24388815.891   128164089.041    24388820.414    99868135.3524                 
                
  23017212.703   123040203.556    23017219.578    95697969.247    23017218.688  
  23017211.332  
 21  8  9  0 31 40.0000000  0 17G17G22R15R16R 8G14G 1G24R24G 3G19R17
                                G 6R18R14G21R 1
  20434101.922   107381953.275    20434106.801    83674264.1924   20434107.121  
                
  22777847.211   119698427.904    22777849.973    93271526.3744                 
                
  19538733.750   104409064.723    19538738.594    81207045.484    19538738.125  
  19538733.371  
  21986263.641   117446693.975    21986268.027    91347411.000    21986266.551  
  21986262.871  
  22758229.312   121869283.425    22758233.574    94787220.038    22758233.648  
  22758228.664  
  20782295.750   109211710.720    20782301.242    85100055.0294   20782301.488  
                
  21630311.453   113668056.566    21630319.902    88572547.3264   21630319.887  
                
  23268430.867   122276434.672    23268439.105    95280370.6854   23268439.465  
                
  20378507.656   108973050.206    20378512.184    84756814.137    20378512.020  
  20378506.980  
  22512328.812   118303120.944    22512335.965    92184301.9064   22512336.789  
                
  20883596.000   109744052.669    20883599.164    85514861.8374                 
                
  19326529.969   103420171.752    19326534.422    80437916.798    19326534.094  
  19326529.012  
  23465960.547   123314472.363    23465969.605    96089234.4594   23465970.074  
                
  22541952.422   120330483.514    22541958.156    93590374.331    22541957.641  
  22541951.395  
  21714505.375   115750512.004    21714510.734    90028157.860    21714511.574  
  21714504.516  
  24394865.367   128195879.187    24394869.875    99892906.8804                 
                
  23011712.617   123010802.585    23011719.508    95675101.849    23011718.621  
  23011711.234  
 21  8  9  0 31 50.0000000  0 17G17G22R15R16R 8G14G 1G24R24G 3G19R17
                                G 6R18R14G21R 1
  20433744.555   107380075.326    20433749.430    83672800.8534   20433749.750  
                
  22778209.281   119700330.556    22778212.012    93273008.9674                 
                
  19539905.586   104415326.669    19539910.449    81211915.879    19539909.977  
  19539905.203  
  21979825.617   117412303.183    21979829.980    91320662.617    21979828.523  
  21979824.840  
  22757804.305   121867007.473    22757808.582    94785449.848    22757808.648  
  22757803.695  
  20785786.109   109230052.597    20785791.602    85114347.3964   20785791.848  
                
  21635704.656   113696398.062    21635713.102    88594631.6044   21635713.078  
                
  23267293.953   122270460.240    23267302.156    95275715.2854   23267302.547  
                
  20383463.117   108999549.249    20383467.637    84777424.493    20383467.461  
  20383462.453  
  22509186.273   118286606.838    22509193.406    92171433.7684   22509194.242  
                
  20879691.523   109723534.522    20879694.684    85498873.6704                 
                
  19324535.570   103409499.368    19324540.023    80429616.058    19324539.695  
  19324534.629  
  23459123.055   123278541.190    23459132.148    96061236.1444   23459132.586  
                
  22535232.727   120294613.372    22535238.492    93562475.365    22535237.980  
  22535231.688  
  21722187.812   115791463.763    21722193.152    90060009.198    21722194.020  
  21722186.891  
  24400916.617   128227678.587    24400921.145    99917685.6244                 
                
  23006222.906   122981457.046    23006229.801    95652277.524    23006228.844  
  23006221.516  
 21  8  9  0 32  0.0000000  0 17G17G22R15R16R 8G14G 1G24R24G 3G19R17
                                G 6R18R14G21R 1
  20433394.211   107378234.214    20433399.082    83671366.2194   20433399.398  
                
  22778583.672   119702297.973    22778586.383    93274542.0284                 
                
  19541094.312   104421678.829    19541099.172    81216856.445    19541098.711  
  19541093.922  
  21973397.125   117377963.352    21973401.457    91293953.867    21973400.031  
  21973396.324  
  22757395.656   121864819.149    22757399.973    94783747.826    22757400.000  
  22757395.055  
  20789286.586   109248447.728    20789292.086    85128681.2534   20789292.336  
                
  21641106.047   113724782.511    21641114.480    88616749.3434   21641114.453  
                
  23266169.711   122264552.252    23266177.863    95271111.6554   23266178.293  
                
  20388425.781   109026086.755    20388430.297    84798064.777    20388430.113  
  20388425.129  
  22506055.406   118270154.012    22506062.508    92158613.3964   22506063.379  
                
  20875794.320   109703054.615    20875797.480    85482915.3094                 
                
  19322552.391   103398886.939    19322556.828    80421361.947    19322556.496  
  19322551.469  
  23452289.742   123242632.113    23452298.848    96033255.0764   23452299.293  
                
  22528518.047   120258769.935    22528523.832    93534597.145    22528523.297  
  22528517.012  
  21729877.516   115832454.287    21729882.906    90091890.671    21729883.777  
  21729876.531  
  24406969.664   128259487.457    24406974.195    99942471.7604                 
                
  23000743.586   122952167.143    23000750.441    95629496.479    23000749.535  
  23000742.234  
 21  8  9  0 32 10.0000000  0 17G17G22R15R16R 8G14G 1G24R24G 3G19R17
                                G 6R18R14G21R 1
  20433050.836   107376429.766    20433055.699    83669960.1524   20433056.016  
                
  22778970.359   119704330.004    22778973.098    93276125.4404                 
                
  19542299.883   104428121.008    19542304.746    81221867.032    19542304.289  
  19542299.492  
  21966978.102   117343674.106    21966982.418    91267284.467    21966981.031  
  21966977.262  
  22757003.352   121862718.358    22757007.676    94782113.872    22757007.672  
  22757002.707  
  20792797.172   109266895.900    20792802.680    85143056.4414   20792802.926  
                
  21646515.547   113753209.589    21646523.957    88638900.3154   21646523.934  
                
  23265058.078   122258710.532    23265066.203    95266559.6624   23265066.660  
                
  20393395.594   109052662.535    20393400.066    84818734.822    20393399.891  
  20393394.965  
  22502936.180   118253762.371    22502943.250    92145840.6954   22502944.160  
                
  20871904.375   109682612.815    20871907.531    85466986.6394                 
                
  19320580.383   103388334.321    19320584.809    80413154.360    19320584.484  
  19320579.484  
  23445460.656   123206745.081    23445469.730    96005291.1824   23445470.188  
                
  22521808.305   120222952.947    22521814.094    93506739.497    22521813.523  
  22521807.277  
  21737574.453   115873483.173    21737579.883    90123802.013    21737580.746  
  21737573.480  
  24413024.469   128291305.628    24413029.039    99967265.1164                 
                
  22995274.727   122922933.096    22995281.574    95606758.876    22995280.707  
  22995273.379  
 21  8  9  0 32 20.0000000  0 17G17G22R15R16R 8G14G 1G24R24G 3G19R17
                                G 6R18R14G21R 1
  20432714.469   107374662.112    20432719.328    83668582.7594   20432719.641  
                
  22779369.367   119706426.741    22779372.141    93277759.2594                 
                
  19543522.320   104434653.367    19543527.207    81226947.754    19543526.730  
  19543521.906  
  21960568.664   117309436.084    21960572.953    91240654.900    21960571.570  
  21960567.789  
  22756627.344   121860704.917    22756631.641    94780547.861    22756631.645  
  22756626.660  
  20796317.852   109285397.161    20796323.367    85157472.9984   20796323.605  
                
  21651933.156   113781679.320    21651941.527    88661084.5234   21651941.520  
                
  23263959.062   122252935.208    23263967.195    95262059.4024   23263967.648  
                
  20398372.578   109079276.609    20398377.004    84839434.648    20398376.855  
  20398371.949  
  22499828.633   118237432.109    22499835.695    92133115.8104   22499836.617  
                
  20868021.695   109662209.219    20868024.848    85451087.7414                 
                
  19318619.594   103377841.693    19318624.027    80404993.432    19318623.676  
  19318618.715  
  23438635.836   123170880.298    23438644.875    95977344.6084   23438645.348  
                
  22515103.562   120187162.586    22515109.359    93478902.579    22515108.789  
  22515102.539  
  21745278.633   115914550.501    21745284.027    90155743.274    21745284.906  
  21745277.672  
  24419081.039   128323133.119    24419085.637    99992065.7364                 
                
  22989816.328   122893754.967    22989823.180    95584064.779    22989822.328  
  22989814.984  
 21  8  9  0 32 30.0000000  0 17G17G22R15R16R 8G14G 1G24R24G 3G19R17
                                G 6R18R14G21R 1
  20432385.133   107372931.449    20432389.977    83667234.1924   20432390.289  
                
  22779780.734   119708588.489    22779783.539    93279443.7414                 
                
  19544761.680   104441276.154    19544766.574    81232098.798    19544766.098  
  19544761.262  
  21954168.852   117275249.547    21954173.129    91214065.367    21954171.773  
  21954167.980  
  22756267.750   121858779.366    22756272.023    94779050.206    22756272.043  
  22756267.031  
  20799848.664   109303951.747    20799854.188    85171931.1024   20799854.422  
                
  21657358.914   113810191.877    21657367.246    88683302.0874   21657367.254  
                
  23262872.742   122247226.539    23262880.910    95257611.1024   23262881.324  
                
  20403356.766   109105929.236    20403361.168    84860164.471    20403361.031  
  20403356.176  
  22496732.820   118221163.535    22496739.891    92120439.0124   22496740.812  
                
  20864146.336   109641844.118    20864149.496    85435218.8304                 
                
  19316670.039   103367409.233    19316674.461    80396879.300    19316674.098  
  19316669.176  
  23431815.266   123135038.040    23431824.355    95949415.5974   23431824.797  
                
  22508403.852   120151399.113    22508409.688    93451086.559    22508409.090  
  22508402.820  
  21752990.016   115955656.346    21752995.352    90187714.485    21752996.246  
  21752989.059  
  24425139.414   128354970.127    24425144.000   100016873.7894                 
                
  22984368.469   122864633.133    22984375.352    95561414.460    22984374.512  
  22984367.082  
 21  8  9  0 32 40.0000000  0 17G17G22R15R16R 8G14G 1G24R24G 3G19R17
                                G 6R18R14G21R 1
  20432062.797   107371237.565    20432067.633    83665914.2854   20432067.945  
                
  22780204.430   119710814.959    22780207.234    93281178.6544                 
                
  19546017.906   104447989.037    19546022.801    81237319.928    19546022.332  
  19546017.484  
  21947778.648   117241114.300    21947782.930    91187515.732    21947781.605  
  21947777.793  
  22755924.531   121856941.517    22755928.793    94777620.778    22755928.805  
  22755923.801  
  20803389.594   109322559.386    20803395.133    85186430.5584   20803395.359  
                
  21662792.766   113838746.904    21662801.070    88705552.7594   21662801.082  
                
  23261799.078   122241584.362    23261807.270    95253214.5974   23261807.660  
                
  20408348.086   109132619.965    20408352.488    84880923.929    20408352.359  
  20408347.520  
  22493648.727   118204956.521    22493655.816    92107810.1714   22493656.746  
                
  20860278.289   109621517.395    20860281.457    85419379.8264                 
                
  19314731.672   103357036.584    19314736.062    80388811.685    19314735.707  
  19314730.848  
  23424998.914   123099218.126    23425008.062    95921504.0134   23425008.488  
                
  22501709.156   120115662.286    22501715.047    93423291.272    22501714.398  
  22501708.137  
  21760708.547   115996800.551    21760713.832    90219715.525    21760714.797  
  21760707.559  
  24431199.570   128386816.367    24431204.160   100041689.0234                 
                
  22978931.188   122835567.761    22978938.098    95538808.074    22978937.266  
  22978929.773  
 21  8  9  0 32 50.0000000  0 17G17G22R15R16R 8G14G 1G24R24G 3G19R17
                                G 6R18R14G21R 1
  20431747.422   107369580.268    20431752.242    83664622.8814   20431752.559  
                
  22780640.398   119713105.972    22780643.184    93282963.8694                 
                
  19547290.938   104454791.763    19547295.832    81242610.930    19547295.355  
  19547290.516  
  21941398.039   117207030.261    21941402.336    91161005.935    21941401.035  
  21941397.191  
  22755597.633   121855191.043    22755601.844    94776259.299    22755601.875  
  22755596.863  
  20806940.555   109341219.832    20806946.105    85200971.1624   20806946.320  
                
  21668234.641   113867344.144    21668242.926    88727836.3164   21668242.945  
                
  23260738.016   122236008.447    23260746.219    95248869.7244   23260746.609  
                
  20413346.461   109159348.511    20413350.879    84901712.789    20413350.738  
  20413345.922  
  22490576.328   118188810.959    22490583.449    92095229.2274   22490584.355  
                
  20856417.492   109601228.848    20856420.688    85403570.5874                 
                
  19312804.461   103346723.700    19312808.809    80380790.557    19312808.480  
  19312803.645  
  23418186.820   123063420.483    23418195.977    95893609.7664   23418196.383  
                
  22495019.477   120079952.285    22495025.379    93395516.830    22495024.715  
  22495018.461  
  21768434.148   116037982.576    21768439.438    90251745.963    21768440.414  
  21768433.117  
  24437261.438   128418671.629    24437266.031   100066511.2894                 
                
  22973504.422   122806558.717    22973511.289    95516245.459    22973510.484  
  22973502.980  
 21  8  9  0 33  0.0000000  0 17G17G22R15R16R 8G14G 1G24R24G 3G19R17
                                G 6R18R14G21R 1
  20431439.055   107367959.761    20431443.867    83663360.1414   20431444.188  
                
  22781088.680   119715461.637    22781091.438    93284799.4554                 
                
  19548580.852   104461684.632    19548585.750    81247972.050    19548585.277  
  19548580.426  
  21935027.125   117172997.975    21935031.453    91134536.391    21935030.148  
  21935026.266  
  22755287.102   121853528.111    22755291.246    94774965.898    22755291.285  
  22755286.312  
  20810501.602   109359933.243    20810507.160    85215553.0304   20810507.371  
                
  21673684.555   113895983.624    21673692.828    88750152.7874   21673692.852  
                
  23259689.609   122230498.997    23259697.801    95244576.6444   23259698.215  
                
  20418351.930   109186114.938    20418356.375    84922531.119    20418356.219  
  20418351.383  
  22487515.664   118172727.061    22487522.848    92082696.3324   22487523.715  
                
  20852564.023   109580978.703    20852567.246    85387791.2524                 
                
  19310888.453   103336470.732    19310892.793    80372816.037    19310892.477  
  19310887.656  
  23411379.016   123027645.364    23411388.164    95865733.0314   23411388.566  
                
  22488334.773   120044268.904    22488340.754    93367763.116    22488340.027  
  22488333.785  
  21776166.914   116079202.290    21776172.234    90283805.734    21776173.160  
  21776165.895  
  24443325.047   128450535.934    24443329.633   100091340.5994                 
                
  22968088.281   122777606.377    22968095.152    95493726.975    22968094.324  
  22968086.816  
 21  8  9  0 33 10.0000000  0 17G17G22R15R16R 8G14G 1G24R24G 3G19R17
                                G 6R18R14G21R 1
  20431137.734   107366376.284    20431142.539    83662126.2604   20431142.867  
                
  22781549.320   119717882.284    22781552.043    93286685.6834                 
                
  19549887.648   104468667.800    19549892.543    81253403.391    19549892.078  
  19549887.215  
  21928665.898   117139017.489    21928670.223    91108107.132    21928668.930  
  21928665.031  
  22754993.023   121851953.289    22754997.102    94773741.021    22754997.160  
  22754992.266  
  20814072.773   109378699.826    20814078.328    85230176.3204   20814078.555  
                
  21679142.539   113924665.488    21679150.793    88772502.2924   21679150.801  
                
  23258653.891   122225056.281    23258662.078    95240335.5704   23258662.500  
                
  20423364.562   109212919.683    20423369.035    84943379.239    20423368.848  
  20423364.016  
  22484466.797   118156705.208    22484474.039    92070211.7834   22484474.867  
                
  20848717.891   109560767.161    20848721.145    85372042.0104                 
                
  19308983.695   103326277.997    19308988.008    80364888.342    19308987.699  
  19308982.895  
  23404575.500   122991893.020    23404584.688    95837874.0974   23404585.105  
                
  22481655.195   120008612.864    22481661.215    93340030.652    22481660.449  
  22481654.227  
  21783906.844   116120459.976    21783912.168    90315895.037    21783913.062  
  21783905.855  
  24449390.375   128482409.437    24449394.988   100116177.0724                 
                
  22962682.789   122748710.975    22962689.688    95471252.756    22962688.832  
  22962681.309  
 21  8  9  0 33 20.0000000  0 17G17G22R15R16R 8G14G 1G24R24G 3G19R17
                                G 6R18R14G21R 1
  20430843.359   107364829.352    20430848.164    83660920.8644   20430848.492  
                
  22782022.211   119720367.381    22782024.891    93288622.1314                 
                
  19551211.273   104475740.858    19551216.180    81258904.653    19551215.707  
  19551210.824  
  21922314.391   117105088.884    21922318.711    91081718.229    21922317.426  
  21922313.508  
  22754715.258   121850465.832    22754719.270    94772584.097    22754719.332  
  22754714.492  
  20817653.953   109397519.049    20817659.492    85244840.6484   20817659.738  
                
  21684608.477   113953389.192    21684616.691    88794884.3984   21684616.707  
                
  23257630.789   122219679.824    23257638.961    95236146.1174   23257639.391  
                
  20428384.180   109239761.815    20428388.660    84964256.453    20428388.469  
  20428383.641  
  22481429.656   118140744.954    22481436.961    92057775.2324   22481437.738  
                
  20844879.023   109540593.810    20844882.285    85356322.5144                 
                
  19307090.078   103316144.856    19307094.363    80357007.019    19307094.066  
  19307089.289  
  23397776.289   122956163.077    23397785.480    95810032.6164   23397785.902  
                
  22474980.586   119972983.413    22474986.668    93312318.901    22474985.871  
  22474979.594  
  21791653.758   116161755.161    21791659.086    90348013.491    21791659.961  
  21791652.785  
  24455457.367   128514291.627    24455461.996   100141020.3194                 
                
  22957287.914   122719872.266    22957294.793    95448822.631    22957293.934  
  22957286.461  
 21  8  9  0 33 30.0000000  0 17G17G22R15R16R 8G14G 1G24R24G 3G19R17
                                G 6R18R14G21R 1
  20430556.000   107363319.268    20430560.805    83659744.1784   20430561.141  
                
  22782507.438   119722917.236    22782510.082    93290609.0354                 
                
  19552551.766   104482904.011    19552556.676    81264475.990    19552556.211  
  19552551.309  
  21915972.625   117071212.314    21915976.938    91055369.790    21915975.652  
  21915971.746  
  22754453.891   121849066.208    22754457.836    94771495.489    22754457.922  
  22754453.105  
  20821245.211   109416391.231    20821250.742    85259546.2344   20821251.008  
                
  21690082.422   113982154.951    21690090.598    88817299.2804   21690090.621  
                
  23256620.367   122214370.000    23256628.535    95232008.5914   23256628.949  
                
  20433410.859   109266641.739    20433415.359    84985163.051    20433415.180  
  20433410.309  
  22478404.328   118124846.744    22478411.680    92045387.0274   22478412.438  
                
  20841047.500   109520459.018    20841050.766    85340633.0744                 
                
  19305207.680   103306071.778    19305211.945    80349172.402    19305211.648  
  19305206.895  
  23390981.445   122920456.011    23390990.629    95782208.9184   23390991.039  
                
  22468311.078   119937380.984    22468317.137    93284628.138    22468316.328  
  22468310.074  
  21799407.711   116203088.093    21799413.043    90380161.313    21799413.926  
  21799406.746  
  24461526.062   128546182.831    24461530.699   100165870.5654                 
                
  22951903.773   122691090.950    22951910.652    95426437.157    22951909.793  
  22951902.312  
 21  8  9  0 33 40.0000000  0 17G17G22R15R16R 8G14G 1G24R24G 3G19R17
                                G 6R18R14G21R 1
  20430275.648   107361845.979    20430280.457    83658596.1544   20430280.785  
                
  22783004.984   119725531.812    22783007.621    93292646.3754                 
                
  19553909.117   104490157.278    19553914.023    81270117.408    19553913.566  
  19553908.656  
  21909640.633   117037387.993    21909644.953    91029062.008    21909643.641  
  21909639.738  
  22754208.891   121847754.199    22754212.809    94770475.006    22754212.891  
  22754208.125  
  20824846.523   109435316.253    20824852.051    85274292.9884   20824852.324  
                
  21695564.328   114010962.582    21695572.469    88839746.7854   21695572.516  
                
  23255622.602   122209126.707    23255630.785    95227922.9124   23255631.188  
                
  20438444.570   109293559.290    20438449.105    85006098.909    20438448.926  
  20438444.031  
  22475390.797   118109010.558    22475398.188    92033047.1454   22475398.914  
                
  20837223.320   109500362.795    20837226.594    85324973.6854                 
                
  19303336.453   103296058.460    19303340.711    80341384.274    19303340.414  
  19303335.660  
  23384190.938   122884771.707    23384200.094    95754402.9984   23384200.520  
                
  22461646.641   119901805.760    22461652.723    93256958.543    22461651.867  
  22461645.613  
  21807168.594   116244458.141    21807173.926    90412338.000    21807174.832  
  21807167.645  
  24467596.453   128578082.825    24467601.086   100190727.6964                 
                
  22946530.305   122662366.752    22946537.219    95404096.121    22946536.348  
  22946528.848  
 21  8  9  0 33 50.0000000  0 17G17G22R15R16R 8G14G 1G24R24G 3G19R17
                                G 6R18R14G21R 1
  20430002.266   107360409.332    20430007.082    83657476.6854   20430007.410  
                
  22783514.812   119728210.932    22783517.445    93294734.0084                 
                
  19555283.281   104497500.386    19555288.207    81275828.714    19555287.738  
  19555282.824  
  21903318.414   117003615.885    21903322.730    91002794.820    21903321.418  
  21903317.500  
  22753980.297   121846530.023    22753984.230    94769522.874    22753984.289  
  22753979.539  
  20828457.867   109454293.937    20828463.395    85289080.7894   20828463.676  
                
  21701054.172   114039811.866    21701062.309    88862226.7414   21701062.355  
                
  23254637.484   122203949.849    23254645.668    95223888.9924   23254646.059  
                
  20443485.289   109320514.241    20443489.867    85027063.866    20443489.688  
  20443484.742  
  22472389.062   118093236.334    22472396.480    92020755.5604   22472397.180  
                
  20833406.461   109480305.059    20833409.758    85309344.2884                 
                
  19301476.414   103286105.005    19301480.660    80333642.695    19301480.363  
  19301475.598  
  23377404.758   122849110.173    23377413.887    95726614.8104   23377414.312  
                
  22454987.242   119866257.436    22454993.289    93229309.850    22454992.422  
  22454986.195  
  21814936.547   116285865.413    21814941.762    90444543.682    21814942.699  
  21814935.629  
  24473668.492   128609991.488    24473673.098   100215591.5834                 
                
  22941167.578   122633699.920    22941174.512    95381799.694    22941173.637  
  22941166.145  
 21  8  9  0 34  0.0000000  0 17G17G22R15R16R 8G14G 1G24R24G 3G19R17
                                G 6R18R14G21R 1
  20429735.898   107359009.571    20429740.727    83656385.9594   20429741.051  
                
  22784036.969   119730954.828    22784039.613    93296872.1094                 
                
  19556674.312   104504933.633    19556679.258    81281610.122    19556678.773  
  19556673.852  
  21897006.062   116969896.453    21897010.332    90976568.608    21897009.062  
  21897005.152  
  22753768.109   121845393.721    22753772.023    94768639.073    22753772.059  
  22753767.352  
  20832079.258   109473324.456    20832084.777    85303909.7574   20832085.070  
                
  21706551.961   114068702.886    21706560.141    88884739.2174   21706560.172  
                
  23253665.047   122198839.660    23253673.223    95219907.0254   23253673.625  
                
  20448533.023   109347506.776    20448537.629    85048058.044    20448537.445  
  20448532.453  
  22469399.172   118077524.396    22469406.629    92008512.4984   22469407.297  
                
  20829596.969   109460286.034    20829600.281    85293745.0504                 
                
  19299627.586   103276211.568    19299631.824    80325947.799    19299631.531  
  19299626.762  
  23370622.977   122813471.687    23370632.066    95698844.5514   23370632.492  
                
  22448332.969   119830736.501    22448338.977    93201682.483    22448338.137  
  22448331.898  
  21822711.539   116327309.868    21822716.617    90476778.265    21822717.578  
  21822710.625  
  24479742.203   128641909.016    24479746.727   100240462.3714                 
                
  22935815.617   122605090.598    22935822.594    95359547.997    22935821.691  
  22935814.195  
 21  8  9  0 34 10.0000000  0 17G17G22R15R16R 8G14G 1G24R24G 3G19R17
                                G 6R18R14G21R 1
  20429476.516   107357646.511    20429481.359    83655323.8344   20429481.668  
                
  22784571.406   119733763.321    22784574.082    93299060.5574                 
                
  19558082.164   104512456.764    19558087.105    81287461.438    19558086.625  
  19558081.699  
  21890703.539   116936229.513    21890707.762    90950383.220    21890706.516  
  21890702.645  
  22753572.281   121844345.102    22753576.176    94767823.466    22753576.230  
  22753571.527  
  20835710.656   109492407.561    20835716.172    85318779.6984   20835716.469  
                
  21712057.625   114097635.373    21712065.867    88907284.0044   21712065.867  
                
  23252705.250   122193795.943    23252713.422    95215976.8554   23252713.828  
                
  20453587.695   109374536.402    20453592.336    85069081.081    20453592.156  
  20453587.090  
  22466421.109   118061874.587    22466428.605    91996317.8454   22466429.242  
                
  20825794.797   109440305.553    20825798.121    85278175.8504                 
                
  19297789.906   103266377.839    19297794.145    80318299.342    19297793.848  
  19297789.062  
  23363845.523   122777856.078    23363854.621    95671092.1494   23363855.051  
                
  22441683.758   119795242.595    22441689.785    93174076.128    22441688.930  
  22441682.676  
  21830493.375   116368791.167    21830498.438    90509041.470    21830499.402  
  21830492.461  
  24485817.531   128673835.100    24485821.988   100265339.8374                 
                
  22930474.453   122576539.059    22930481.477    95337341.239    22930480.555  
  22930473.055  
 21  8  9  0 34 20.0000000  0 17G17G22R15R16R 8G14G 1G24R24G 3G19R17
                                G 6R18R14G21R 1
  20429224.188   107356320.513    20429229.051    83654290.5974   20429229.344  
                
  22785118.211   119736636.758    22785120.914    93301299.5914                 
                
  19559506.922   104520070.227    19559511.859    81293383.015    19559511.383  
  19559506.457  
  21884410.953   116902615.684    21884415.133    90924239.134    21884413.906  
  21884410.078  
  22753392.891   121843384.481    22753396.793    94767076.317    22753396.836  
  22753392.176  
  20839352.125   109511543.590    20839357.645    85333690.8824   20839357.945  
                
  21717571.250   114126609.597    21717579.547    88929861.3154   21717579.527  
                
  23251758.188   122188819.070    23251766.352    95212098.7804   23251766.773  
                
  20458649.414   109401603.700    20458654.082    85090133.411    20458653.891  
  20458648.797  
  22463454.953   118046287.364    22463462.480    91984171.9754   22463463.086  
                
  20822000.062   109420364.048    20822003.371    85262637.0154                 
                
  19295963.508   103256604.411    19295967.734    80310697.792    19295967.457  
  19295962.656  
  23357072.531   122742263.803    23357081.648    95643357.9354   23357082.074  
                
  22435039.703   119759776.291    22435045.797    93146491.252    22435044.910  
  22435038.648  
  21838282.117   116410309.547    21838287.219    90541333.499    21838288.199  
  21838281.148  
  24491894.547   128705769.986    24491898.914   100290224.1584                 
                
  22925144.164   122548045.640    22925151.234    95315179.694    22925150.309  
  22925142.754  
 21  8  9  0 34 30.0000000  0 17G17G22R15R16R 8G14G 1G24R24G 3G19R17
                                G 6R18R14G21R 1
  20428978.789   107355030.931    20428983.652    83653285.7194   20428983.941  
                
  22785677.250   119739574.556    22785679.969    93303588.7814                 
                
  19560948.430   104527773.217    19560953.379    81299374.223    19560952.898  
  19560947.977  
  21878128.195   116869054.400    21878132.344    90898135.916    21878131.125  
  21878127.348  
  22753229.828   121842511.299    22753233.723    94766397.160    22753233.773  
  22753229.117  
  20843003.555   109530731.941    20843009.090    85348642.8324   20843009.379  
                
  21723092.672   114155624.867    21723101.004    88952470.5984   21723100.977  
                
  23250823.719   122183908.473    23250831.879    95208272.3414   23250832.328  
                
  20463718.023   109428707.862    20463722.699    85111214.421    20463722.492  
  20463717.406  
  22460500.609   118030762.214    22460508.129    91972074.4714   22460508.734  
                
  20818212.617   109400460.925    20818215.918    85247128.0994                 
                
  19294148.203   103246890.392    19294152.434    80303142.447    19294152.160  
  19294147.344  
  23350303.898   122706694.389    23350313.031    95615641.5254   23350313.449  
                
  22428400.711   119724336.943    22428406.812    93118927.337    22428405.945  
  22428399.656  
  21846077.688   116451864.408    21846082.844    90573653.895    21846083.809  
  21846076.680  
  24497973.125   128737713.089    24497977.434   100315114.8634                 
                
  22919824.641   122519609.769    22919831.766    95293062.890    22919830.777  
  22919823.242  
 21  8  9  0 34 40.0000000  0 17G17G22R15R16R 8G14G 1G24R24G 3G19R17
                                G 6R18R14G21R 1
  20428740.430   107353778.299    20428745.293    83652309.6454   20428745.590  
                
  22786248.633   119742577.182    22786251.367    93305928.4984                 
                
  19562406.805   104535566.309    19562411.766    81305435.515    19562411.277  
  19562406.363  
  21871855.461   116835546.533    21871859.598    90872074.261    21871858.375  
  21871854.609  
  22753083.188   121841726.066    22753087.109    94765786.404    22753087.145  
  22753082.492  
  20846665.016   109549973.004    20846670.562    85363635.8584   20846670.844  
                
  21728621.969   114184681.514    21728630.336    88975112.1364   21728630.301  
                
  23249901.969   122179064.647    23249910.148    95204497.9454   23249910.602  
                
  20468793.578   109455849.086    20468798.238    85132324.262    20468798.047  
  20468792.980  
  22457558.195   118015299.705    22457565.703    91960025.7694   22457566.312  
                
  20814432.586   109380596.704    20814435.895    85231649.4934                 
                
  19292344.141   103237236.529    19292348.375    80295633.887    19292348.098  
  19292343.246  
  23343539.695   122671148.324    23343548.789    95587943.2974   23343549.242  
                
  22421766.867   119688925.131    22421772.980    93091384.855    22421772.102  
  22421765.832  
  21853880.188   116493455.842    21853885.289    90606002.796    21853886.266  
  21853879.180  
  24504053.359   128769664.753    24504057.676   100340012.2634                 
                
  22914516.031   122491232.313    22914523.230    95270991.543    22914522.207  
  22914514.660  
 21  8  9  0 34 50.0000000  0 17G17G22R15R16R 8G14G 1G24R24G 3G19R17
                                G 6R18R14G21R 1
  20428509.023   107352562.260    20428513.891    83651362.0794   20428514.195  
                
  22786832.289   119745644.343    22786835.043    93308318.4964                 
                
  19563881.984   104543449.163    19563886.941    81311566.617    19563886.449  
  19563881.539  
  21865592.602   116802091.459    21865596.719    90846053.653    21865595.500  
  21865591.742  
  22752952.938   121841028.559    22752956.910    94765243.891    22752956.930  
  22752952.250  
  20850336.445   109569266.438    20850341.996    85378669.6864   20850342.277  
                
  21734159.062   114213779.135    21734167.453    88997785.6084   21734167.410  
                
  23248992.867   122174287.252    23249001.047    95200775.2874   23249001.492  
                
  20473876.016   109483027.088    20473880.664    85153462.710    20473880.484  
  20473875.430  
  22454627.633   117999899.528    22454635.125    91948025.6374   22454635.746  
                
  20810659.906   109360771.129    20810663.223    85216200.9974                 
                
  19290551.211   103227642.228    19290555.469    80288171.654    19290555.195  
  19290550.301  
  23336779.891   122635625.375    23336788.945    95560263.0894   23336789.426  
                
  22415138.141   119653540.579    22415144.207    93063863.545    22415143.328  
  22415137.129  
  21861689.539   116535083.590    21861694.488    90638379.983    21861695.520  
  21861688.594  
  24510135.156   128801624.635    24510139.469   100364916.0784                 
                
  22909218.305   122462912.997    22909225.551    95248965.406    22909224.566  
  22909216.980  
 21  8  9  0 35  0.0000000  0 17G17G22R15R16R 8G14G 1G24R24G 3G19R17
                                G 6R18R14G21R 1
  20428284.617   107351383.001    20428289.484    83650443.1774   20428289.785  
                
  22787428.250   119748776.157    22787431.000    93310758.8744                 
                
  19565373.969   104551421.891    19565378.926    81317767.620    19565378.430  
  19565373.531  
  21859339.734   116768689.797    21859343.824    90820074.594    21859342.633  
  21859338.879  
  22752839.078   121840418.813    22752843.086    94764769.637    22752843.109  
  22752838.410  
  20854017.859   109588612.377    20854023.410    85393744.4354   20854023.699  
                
  21739703.969   114242917.802    21739712.367    89020491.0644   21739712.332  
                
  23248096.469   122169576.653    23248104.633    95197104.6844   23248105.094  
                
  20478965.312   109510241.894    20478969.949    85174629.785    20478969.777  
  20478964.730  
  22451709.000   117984561.987    22451716.480    91936074.3204   22451717.102  
                
  20806894.562   109340984.130    20806897.898    85200782.5584                 
                
  19288769.484   103218107.856    19288773.754    80280756.030    19288773.477  
  19288768.562  
  23330024.531   122600125.802    23330033.590    95532601.0794   23330034.066  
                
  22408514.547   119618183.426    22408520.547    93036363.554    22408519.715  
  22408513.527  
  21869505.680   116576747.712    21869510.531    90670785.409    21869511.574  
  21869504.754  
  24516218.547   128833592.953    24516222.812   100389826.4444                 
                
  22903931.531   122434652.256    22903938.812    95226984.840    22903937.879  
  22903930.254  
 21  8  9  0 35 10.0000000  0 17G17G22R15R16R 8G14G 1G24R24G 3G19R17
                                G 6R18R14G21R 1
  20428067.188   107350240.402    20428072.051    83649552.8404   20428072.359  
                
  22788036.484   119751972.481    22788039.234    93313249.5174                 
                
  19566882.758   104559484.406    19566887.703    81324038.460    19566887.215  
  19566882.332  
  21853096.891   116735341.590    21853100.961    90794137.115    21853099.773  
  21853096.020  
  22752741.602   121839896.815    22752745.648    94764363.629    22752745.672  
  22752740.938  
  20857709.250   109608010.679    20857714.820    85408859.9794   20857715.094  
                
  21745256.656   114272097.351    21745265.078    89043228.3644   21745265.039  
                
  23247212.711   122164932.441    23247220.871    95193485.8354   23247221.355  
                
  20484061.516   109537493.627    20484066.160    85195825.571    20484066.000  
  20484060.902  
  22448802.281   117969287.044    22448809.758    91924171.7834   22448810.363  
                
  20803136.617   109321236.010    20803139.965    85185394.4164                 
                
  19286998.914   103208633.203    19287003.191    80273386.855    19287002.918  
  19286997.996  
  23323273.578   122564649.553    23323282.703    95504957.2774   23323283.168  
                
  22401896.102   119582853.840    22401902.148    93008885.011    22401901.305  
  22401895.094  
  21877328.500   116618447.819    21877333.422    90703218.786    21877334.418  
  21877327.578  
  24522303.500   128865569.466    24522307.742   100414743.1964                 
                
  22898655.703   122406449.979    22898662.992    95205049.746    22898662.082  
  22898654.461  
 21  8  9  0 35 20.0000000  0 17G17G22R15R16R 8G14G 1G24R24G 3G19R17
                                G 6R18R14G21R 1
  20427856.766   107349134.650    20427861.629    83648691.2124   20427861.938  
                
  22788657.023   119755233.447    22788659.789    93315790.5304                 
                
  19568408.391   104567636.895    19568413.316    81330379.285    19568412.840  
  19568407.980  
  21846864.086   116702047.075    21846868.148    90768241.389    21846866.965  
  21846863.215  
  22752660.586   121839462.913    22752664.688    94764026.161    22752664.680  
  22752659.863  
  20861410.625   109627461.500    20861416.223    85424016.4484   20861416.480  
                
  21750817.133   114301317.839    21750825.590    89065997.5624   21750825.531  
                
  23246341.641   122160354.989    23246349.793    95189918.9954   23246350.297  
                
  20489164.578   109564782.031    20489169.234    85217049.876    20489169.086  
  20489163.953  
  22445907.508   117954074.978    22445914.977    91912318.2414   22445915.590  
                
  20799386.125   109301527.035    20799389.477    85170036.7764                 
                
  19285239.562   103199218.548    19285243.852    80266064.341    19285243.570  
  19285238.637  
  23316527.133   122529196.870    23316536.246    95477331.8304   23316536.727  
                
  22395282.859   119547551.988    22395288.883    92981428.035    22395288.062  
  22395281.883  
  21885158.062   116660184.131    21885163.148    90735680.309    21885164.105  
  21885157.141  
