     2.11           OBSERVATION DATA    M (MIXED)           RINEX VERSION / TYPE
EFT-CORS.RU                             20210813 095556 UTC PGM / RUN BY / DATE 
IRKT                                                        MARKER NAME         
                                                            MARKER NUMBER       
IRKT                EFT-CORS.RU                             OBSERVER / AGENCY   
0                   TRIMBLE BD970       2.0                 REC # / TYPE / VERS 
0                   UNKNOWN EXT NONE                        ANT # / TYPE        
  -967349.5145  3789899.4449  5021728.6725                  APPROX POSITION XYZ 
        0.0000        0.0000        0.0000                  ANTENNA: DELTA H/E/N
     1     1                                                WAVELENGTH FACT L1/2
     6    C1    L1    P2    L2    C2    P1                  # / TYPES OF OBSERV 
    10.000                                                  INTERVAL            
  2021     8     9     0    30    0.0000000     GPS         TIME OF FIRST OBS   
  2021     8     9     3    30    0.0000000     GPS         TIME OF LAST OBS    
     0                                                      RCV CLOCK OFFS APPL 
                                                            END OF HEADER       
 21  8  9  0 30  0.0000000  0 17R18G 6R 1R 8G21G22G19G14G 1R17R16G24
                                R15R24R14G17G 3
  22626181.352   120780101.897    22626188.781    93940731.064    22626188.250  
  22626179.414  
  23532205.141   123662574.806    23532215.723    96360496.1904   23532215.801  
                
  23040095.391   123162509.508    23040102.488    95793110.056    23040101.715  
  23040093.590  
  22765009.352   121905564.974    22765014.188    94815485.501    22765014.234  
  22765008.805  
  24324670.641   127826994.815    24324677.098    99605474.9454                 
                
  22755080.406   119578783.452    22755085.148    93178305.1634                 
                
  20941754.391   110049671.953    20941759.270    85753010.9444                 
                
  20731927.773   108947031.012    20731934.727    84893819.1884   20731934.488  
                
  21567226.141   113336539.813    21567235.621    88314314.4444   21567235.527  
                
  19358204.281   103589682.478    19358208.738    80569798.513    19358208.516  
  19358202.961  
  22085920.578   117979031.250    22085924.363    91761487.794    22085923.141  
  22085919.555  
  23318055.047   122537200.689    23318065.031    95483579.0794   23318064.914  
                
  19537020.297   104399893.432    19537025.168    81199977.892    19537024.945  
  19537018.809  
  20325059.492   108687219.824    20325063.945    84535033.836    20325063.859  
  20325058.027  
  21616092.461   115225866.061    21616098.793    89620184.704    21616098.562  
  21616090.664  
  20442989.219   107428642.112    20442995.547    83710705.4524   20442995.457  
                
  22514335.578   118313635.795    22514344.984    92192522.6964   22514345.043  
                
 21  8  9  0 30 10.0000000  0 17R18G 6R 1R 8G21G22G19G14G 1R17R16G24
                                R15R24R14G17G 3
  22619439.719   120744114.808    22619447.199    93912741.133    22619446.660  
  22619437.809  
  23525343.164   123626515.041    23525353.668    96332397.7024   23525353.793  
                
  23034542.828   123132828.138    23034549.945    95770024.580    23034549.129  
  23034541.004  
  22764477.906   121902719.219    22764482.770    94813272.144    22764482.793  
  22764477.336  
  24330697.531   127858666.267    24330703.953    99630153.9824                 
                
  22755360.805   119580256.984    22755365.547    93179453.3674                 
                
  20937757.961   110028670.570    20937762.887    85736646.2274                 
                
  20735270.453   108964596.854    20735277.410    84907506.8454   20735277.180  
                
  21572540.430   113364466.576    21572549.922    88336075.5584   21572549.832  
                
  19356096.180   103578401.660    19356100.676    80561024.548    19356100.449  
  19356094.887  
  22079373.125   117944055.936    22079376.902    91734284.769    22079375.695  
  22079372.113  
  23316787.328   122530538.815    23316797.359    95478388.0054   23316797.223  
                
  19537979.750   104405020.437    19537984.609    81203965.558    19537984.383  
  19537978.301  
  20329914.820   108713183.458    20329919.273    84555227.764    20329919.176  
  20329913.383  
  21623682.555   115266325.377    21623688.871    89651653.024    21623688.645  
  21623680.691  
  20442524.312   107426199.050    20442530.617    83708801.7654   20442530.531  
                
  22511113.438   118296703.385    22511122.836    92179328.6124   22511122.906  
                
 21  8  9  0 30 20.0000000  0 17R18G 6R 1R 8G21G22G19G14G 1R17R16G24
                                R15R24R14G17G 3
  22612703.008   120708153.787    22612710.508    93884771.450    22612709.988  
  22612701.133  
  23518485.352   123590476.993    23518495.828    96304316.1184   23518495.973  
                
  23029000.562   123103201.668    23029007.664    95746981.793    23029006.855  
  23028998.727  
  22763962.867   121899961.089    22763967.750    94811126.930    22763967.758  
  22763962.254  
  24336726.352   127890347.871    24336732.762    99654840.9364                 
                
  22755653.586   119581795.494    22755658.328    93180652.2084                 
                
  20933768.664   110007706.691    20933773.633    85720310.7424                 
                
  20738623.430   108982216.779    20738630.383    84921236.6464   20738630.156  
                
  21577863.070   113392437.144    21577872.574    88357870.7974   21577872.477  
                
  19353999.242   103567180.437    19354003.762    80552296.927    19354003.547  
  19353997.961  
  22072834.938   117909130.065    22072838.738    91707120.209    22072837.500  
  22072833.926  
  23315532.250   122523943.228    23315542.332    95473248.5804   23315542.156  
                
  19538956.172   104410238.090    19538961.012    81208023.729    19538960.781  
  19538954.762  
  20334777.492   108739186.289    20334781.957    84575452.186    20334781.848  
  20334776.086  
  21631280.258   115306825.287    21631286.582    89683152.937    21631286.363  
  21631278.363  
  20442066.398   107423792.640    20442072.672    83706926.6434   20442072.602  
                
  22507902.906   118279831.870    22507912.285    92166181.9854   22507912.367  
                
 21  8  9  0 30 30.0000000  0 17R18G 6R 1R 8G21G22G19G14G 1R17R16G24
                                R15R24R14G17G 3
  22605971.109   120672218.600    22605978.648    93856821.888    22605978.141  
  22605969.270  
  23511631.633   123554460.462    23511642.035    96276251.2854   23511642.207  
                
  23023468.539   123073630.046    23023475.629    95723981.674    23023474.816  
  23023466.703  
  22763464.141   121897290.473    22763469.086    94809049.787    22763469.121  
  22763463.531  
  24342757.039   127922039.314    24342763.438    99679535.5584                 
                
  22755958.688   119583398.849    22755963.426    93181901.5784                 
                
  20929786.461   109986780.137    20929791.465    85704004.3464                 
                
  20741986.633   108999890.545    20741993.594    84935008.4044   20741993.371  
                
  21583193.969   113420451.196    21583203.492    88379699.9094   21583203.391  
                
  19351913.383   103556018.621    19351917.945    80543615.522    19351917.723  
  19351912.117  
  22066305.930   117874253.401    22066309.750    91679993.927    22066308.496  
  22066304.930  
  23314289.727   122517413.762    23314299.852    95468160.6794   23314299.629  
                
  19539949.500   104415546.124    19539954.312    81212152.190    19539954.086  
  19539948.125  
  20339647.508   108765228.449    20339651.977    84595707.193    20339651.855  
  20339646.105  
  21638885.484   115347365.432    21638891.816    89714684.149    21638891.598  
  21638883.543  
  20441615.406   107421422.713    20441621.656    83705079.9464   20441621.590  
                
  22504703.914   118263021.139    22504713.273    92153082.7224   22504713.367  
                
 21  8  9  0 30 40.0000000  0 17R18G 6R 1R 8G21G22G19G14G 1R17R16G24
                                R15R24R14G17G 3
  22599244.016   120636309.109    22599251.582    93828892.304    22599251.070  
  22599242.219  
  23504781.969   123518465.335    23504792.281    96248203.1564   23504792.500  
                
  23017946.773   123044113.150    23017953.832    95701024.096    23017953.016  
  23017944.898  
  22762981.703   121894706.994    22762986.695    94807040.400    22762986.738  
  22762981.109  
  24348789.555   127953740.326    24348795.934    99704237.6214                 
                
  22756276.086   119585066.795    22756280.809    93183201.2774                 
                
  20925811.367   109965890.871    20925816.398    85687726.9984                 
                
  20745360.055   109017617.962    20745367.008    84948821.9624   20745366.785  
                
  21588533.094   113448508.469    21588542.648    88401562.7194   21588542.543  
                
  19349838.594   103544916.029    19349843.195    80534980.169    19349842.980  
  19349837.352  
  22059786.172   117839426.134    22059790.023    91652906.066    22059788.742  
  22059785.188  
  23313059.750   122510950.232    23313069.918    95463124.1704   23313069.680  
                
  19540959.734   104420944.477    19540964.539    81216350.907    19540964.301  
  19540958.406  
  20344524.758   108791309.302    20344529.238    84615992.295    20344529.125  
  20344523.383  
  21646498.250   115387945.653    21646504.559    89746246.515    21646504.352  
  21646496.262  
  20441171.336   107419089.090    20441177.551    83703261.5304   20441177.488  
                
  22501516.484   118246271.094    22501525.812    92140030.7444   22501525.930  
                
 21  8  9  0 30 50.0000000  0 17R18G 6R 1R 8G21G22G19G14G 1R17R16G24
                                R15R24R14G17G 3
  22592521.797   120600425.579    22592529.375    93800982.902    22592528.852  
  22592520.059  
  23497936.406   123482491.731    23497946.645    96220171.7794   23497946.906  
                
  23012435.266   123014651.226    23012442.320    95678109.291    23012441.500  
  23012433.406  
  22762515.492   121892210.602    22762520.566    94805098.777    22762520.621  
  22762514.945  
  24354823.883   127985450.924    24354830.254    99728947.1684                 
                
  22756605.758   119586799.301    22756610.473    93184551.2884                 
                
  20921843.336   109945038.830    20921848.410    85671478.6624                 
                
  20748743.664   109035398.983    20748750.621    84962677.2944   20748750.398  
                
  21593880.422   113476608.866    21593890.016    88423459.1194   21593889.898  
                
  19347774.875   103533872.705    19347779.523    80526390.920    19347779.316  
  19347773.645  
  22053275.641   117804648.048    22053279.492    91625856.451    22053278.227  
  22053274.641  
  23311842.328   122504552.690    23311852.527    95458139.0774   23311852.285  
                
  19541986.852   104426433.129    19541991.652    81220619.854    19541991.406  
  19541985.570  
  20349409.242   108817428.871    20349413.746    84636307.516    20349413.633  
  20349407.902  
  21654118.484   115428565.776    21654124.801    89777839.931    21654124.598  
  21654116.488  
  20440734.164   107416791.776    20440740.359    83701471.4174   20440740.297  
                
  22498340.602   118229581.811    22498349.895    92127026.1134   22498350.059  
                
 21  8  9  0 31  0.0000000  0 17R18G 6R 1R 8G21G22G19G14G 1R17R16G24
                                R15R24R14G17G 3
  22585804.477   120564568.112    22585812.055    93773093.787    22585811.543  
  22585802.773  
  23491095.008   123446539.980    23491105.172    96192157.4614   23491105.484  
                
  23006934.141   122985244.627    23006941.180    95655237.515    23006940.363  
  23006932.277  
  22762065.688   121889801.880    22762070.809    94803225.336    22762070.871  
  22762065.172  
  24360860.094   128017171.366    24360866.449    99753664.3904                 
                
  22756947.789   119588596.676    22756952.516    93185951.8574                 
                
  20917882.492   109924224.426    20917887.582    85655259.6524                 
                
  20752137.547   109053233.873    20752144.496    84976574.6074   20752144.281  
                
  21599236.000   113504752.567    21599245.641    88445389.2694   21599245.508  
                
  19345722.281   103522888.807    19345726.973    80517847.891    19345726.758  
  19345721.059  
  22046774.461   117769919.871    22046778.301    91598845.650    22046777.043  
  22046773.477  
  23310637.555   122498221.462    23310647.758    95453205.6404   23310647.492  
                
  19543030.938   104432012.325    19543035.719    81224959.229    19543035.465  
  19543029.703  
  20354301.000   108843587.230    20354305.527    84656652.909    20354305.414  
  20354299.672  
  21661746.203   115469225.777    21661752.543    89809464.375    21661752.336  
  21661744.215  
  20440303.984   107414531.102    20440310.156    83699709.8524   20440310.098  
                
  22495176.391   118212953.688    22495185.660    92114069.1414   22495185.852  
                
 21  8  9  0 31 10.0000000  0 17R18G 6R 1R 8G21G22G19G14G 1R17R16G24
                                R15R24R14G17G 3
  22579092.062   120528736.885    22579099.609    93745225.067    22579099.117  
  22579090.391  
  23484257.789   123410610.161    23484267.836    96164160.1954   23484268.227  
                
  23001443.383   122955893.540    23001450.418    95632408.913    23001449.586  
  23001441.539  
  22761632.203   121887480.569    22761637.363    94801419.877    22761637.445  
  22761631.715  
  24366898.141   128048901.477    24366904.445    99778389.1484                 
                
  22757302.148   119590458.843    22757306.867    93187402.8944                 
                
  20913928.797   109903447.660    20913933.891    85639069.9744                 
                
  20755541.664   109071122.548    20755548.594    84990513.8144   20755548.395  
                
  21604599.789   113532939.440    21604609.477    88467353.0644   21604609.324  
                
  19343680.797   103511964.420    19343685.523    80509351.146    19343685.309  
  19343679.570  
  22040282.656   117735241.843    22040286.465    91571873.852    22040285.219  
  22040281.699  
  23309445.367   122491956.476    23309455.582    95448323.8344   23309455.328  
                
  19544091.930   104437681.934    19544096.691    81229368.923    19544096.445  
  19544090.734  
  20359200.023   108869784.490    20359204.555    84677028.540    20359204.434  
  20359198.691  
  21669381.406   115509925.603    21669387.738    89841119.777    21669387.512  
  21669379.398  
  20439880.758   107412307.014    20439886.906    83697976.7944   20439886.855  
                
  22492023.805   118196386.728    22492033.066    92101159.8224   22492033.262  
                
 21  8  9  0 31 20.0000000  0 17R18G 6R 1R 8G21G22G19G14G 1R17R16G24
                                R15R24R14G17G 3
  22572384.438   120492931.341    22572391.953    93717376.334    22572391.469  
  22572382.809  
  23477424.641   123374701.830    23477434.664    96136179.7054   23477435.082  
                
  22995962.930   122926597.628    22995969.973    95609623.229    22995969.102  
  22995961.105  
  22761214.977   121885246.404    22761220.164    94799682.196    22761220.250  
  22761214.520  
  24372937.914   128080640.733    24372944.188    99803121.0264                 
                
  22757668.758   119592385.435    22757673.473    93188904.1324                 
                
  20909982.188   109882708.151    20909987.270    85622909.3204                 
                
  20758955.914   109089064.539    20758962.832    85004494.5744   20758962.637  
                
  21609971.680   113561168.924    21609981.410    88489350.0614   21609981.227  
                
  19341650.344   103501099.095    19341655.113    80500900.338    19341654.902  
  19341649.109  
  22033800.148   117700613.441    22033803.914    91544940.639    22033802.641  
  22033799.223  
  23308265.711   122485757.332    23308275.898    95443493.3234   23308275.664  
                
  19545169.758   104443441.579    19545174.492    81233848.646    19545174.254  
  19545168.609  
  20364106.180   108896019.894    20364110.703    84697433.851    20364110.590  
  20364104.859  
  21677024.000   115550664.859    21677030.309    89872805.832    21677030.098  
  21677021.977  
  20439464.406   107410119.118    20439470.551    83696271.9464   20439470.504  
                
  22488882.781   118179880.592    22488892.066    92088297.8984   22488892.258  
                
 21  8  9  0 31 30.0000000  0 17R18G 6R 1R 8G21G22G19G14G 1R17R16G24
                                R15R24R14G17G 3
  22565681.773   120457152.123    22565689.238    93689548.063    22565688.762  
  22565680.160  
  23470595.703   123338815.600    23470605.664    96108216.4264   23470606.117  
                
  22990492.953   122897357.620    22990499.992    95586881.022    22990499.133  
  22990491.145  
  22760814.117   121883099.819    22760819.328    94798012.627    22760819.414  
  22760813.680  
  24378979.531   128112389.595    24378985.777    99827860.3904                 
                
  22758047.719   119594376.913    22758052.441    93190455.9454                 
                
  20906042.758   109862006.342    20906047.824    85606778.0504                 
                
  20762380.406   109107060.306    20762387.312    85018517.2304   20762387.121  
                
  21615351.758   113589441.446    21615361.543    88511380.5944   21615361.320  
                
  19339631.031   103490293.346    19339635.852    80492495.875    19339635.633  
  19339629.789  
  22027327.047   117666035.260    22027330.805    91518046.501    22027329.520  
  22027326.160  
  23307098.664   122479624.534    23307108.855    95438714.5364   23307108.656  
                
  19546264.570   104449291.880    19546269.281    81238398.877    19546269.043  
  19546263.465  
  20369019.539   108922293.837    20369024.055    84717869.138    20369023.953  
  20369018.207  
  21684673.984   115591443.604    21684680.320    89904522.642    21684680.094  
  21684672.012  
  20439055.039   107407967.875    20439061.176    83694595.6474   20439061.133  
                
  22485753.461   118163435.849    22485762.750    92075483.8114   22485762.914  
                
 21  8  9  0 31 40.0000000  0 17R18G 6R 1R 8G21G22G19G14G 1R17R16G24
                                R15R24R14G17G 3
  22558983.992   120421398.971    22558991.398    93661740.054    22558990.926  
  22558982.430  
  23463770.938   123302951.225    23463780.773    96080270.1534   23463781.316  
                
  22985033.383   122868173.259    22985040.422    95564182.082    22985039.555  
  22985031.609  
  22760429.578   121881040.691    22760434.816    94796411.095    22760434.887  
  22760429.180  
  24385022.906   128144147.714    24385029.125    99852606.9664                 
                
  22758438.969   119596432.959    22758443.691    93192058.0604                 
                
  20902110.422   109841341.789    20902115.453    85590675.8044                 
                
  20765815.062   109125109.474    20765821.949    85032581.4954   20765821.770  
                
  21620739.953   113617756.568    21620749.781    88533444.3134   21620749.520  
                
  19337622.758   103479546.703    19337627.637    80484137.382    19337627.406  
  19337621.520  
  22020863.312   117631507.228    22020867.074    91491191.375    22020865.773  
  22020862.445  
  23305944.203   122473557.789    23305954.379    95433987.1924   23305954.207  
                
  19547376.234   104455232.305    19547380.934    81243019.207    19547380.703  
  19547375.176  
  20373940.047   108948605.987    20373944.551    84738334.134    20373944.461  
  20373938.695  
  21692331.336   115632261.579    21692337.676    89936269.940    21692337.434  
  21692329.348  
  20438652.570   107405852.898    20438658.707    83692947.6114   20438658.672  
                
  22482635.750   118147052.270    22482645.059    92062717.3984   22482645.242  
                
 21  8  9  0 31 50.0000000  0 17R18G 6R 1R 8G21G22G19G14G 1R17R16G24
                                R15R24R14G17G 3
  22552291.172   120385672.339    22552298.523    93633952.686    22552298.059  
  22552289.652  
  23456950.398   123267109.244    23456960.207    96052341.3814   23456960.805  
                
  22979584.398   122839045.367    22979591.402    95541527.059    22979590.562  
  22979582.617  
  22760061.430   121879069.244    22760066.660    94794877.737    22760066.734  
  22760061.086  
  24391068.102   128175915.471    24391074.281    99877361.0734                 
                
  22758842.602   119598554.090    22758847.312    93193710.8934                 
                
  20898185.312   109820715.324    20898190.324    85574603.2464                 
                
  20769259.961   109143212.529    20769266.840    85046687.7654   20769266.664  
                
  21626136.328   113646114.696    21626146.203    88555541.5424   21626145.895  
                
  19335625.656   103468859.866    19335630.578    80475825.397    19335630.352  
  19335624.422  
  22014409.102   117597029.973    22014412.848    91464375.728    22014411.531  
  22014408.250  
  23304802.406   122467557.644    23304812.582    95429311.7564   23304812.418  
                
  19548504.898   104461263.543    19548509.582    81247710.171    19548509.348  
  19548503.875  
  20378867.828   108974956.997    20378872.312    84758829.350    20378872.227  
  20378866.461  
  21699996.125   115673119.117    21700002.453    89968048.001    21700002.215  
  21699994.117  
  20438257.109   107403774.740    20438263.258    83691328.2674   20438263.223  
                
  22479529.805   118130730.439    22479539.109    92049999.0924   22479539.293  
                
 21  8  9  0 32  0.0000000  0 17R18G 6R 1R 8G21G22G19G14G 1R17R16G24
                                R15R24R14G17G 3
  22545603.234   120349971.809    22545610.590    93606185.622    22545610.098  
  22545601.777  
  23450134.055   123231289.143    23450143.832    96024429.6304   23450144.477  
                
  22974145.812   122809973.165    22974152.797    95518915.357    22974151.957  
  22974144.059  
  22759709.570   121877185.024    22759714.789    94793412.233    22759714.840  
  22759709.258  
  24397115.008   128207692.130    24397121.137    99902122.0934                 
                
  22759258.492   119600739.618    22759263.199    93195413.9004                 
                
  20894267.359   109800126.301    20894272.324    85558559.8434                 
                
  20772714.992   109161368.793    20772721.859    85060835.4874   20772721.680  
                
  21631540.758   113674515.084    21631550.672    88577671.7074   21631550.336  
                
  19333639.602   103458232.047    19333644.562    80467559.316    19333644.344  
  19333638.371  
  22007964.328   117562603.132    22007968.070    91437599.292    22007966.750  
  22007963.465  
  23303673.188   122461623.451    23303683.336    95424687.6914   23303683.184  
                
  19549650.414   104467384.801    19549655.074    81252471.144    19549654.836  
  19549649.418  
  20383802.672   109001345.787    20383807.145    84779353.953    20383807.055  
  20383801.281  
  21707668.172   115714015.366    21707674.500    89999856.179    21707674.258  
  21707666.184  
  20437868.531   107401732.739    20437874.691    83689737.0964   20437874.648  
                
  22476435.500   118114469.771    22476444.793    92037328.4414   22476444.996  
                
 21  8  9  0 32 10.0000000  0 17R18G 6R 1R 8G21G22G19G14G 1R17R16G24
                                R15R24R14G17G 3
  22538920.289   120314297.798    22538927.621    93578439.175    22538927.145  
  22538918.867  
  23443321.969   123195491.394    23443331.672    95996535.2954   23443332.367  
                
  22968717.812   122780957.545    22968724.809    95496347.687    22968723.910  
  22968716.102  
  22759374.117   121875388.618    22759379.309    94792015.022    22759379.348  
  22759373.797  
  24403163.711   128239478.123    24403169.770    99926890.3814                 
                
  22759686.727   119602990.010    22759691.449    93197167.4624                 
                
  20890356.617   109779575.172    20890361.539    85542545.9824                 
                
  20776180.234   109179578.705    20776187.086    85075025.0194   20776186.902  
                
  21636953.289   113702958.063    21636963.227    88599835.0604   21636962.875  
                
  19331664.656   103447663.744    19331669.672    80459339.538    19331669.461  
  19331663.445  
  22001529.023   117528226.966    22001532.812    91410862.298    22001531.473  
  22001528.188  
  23302556.586   122455755.655    23302566.727    95420115.3824   23302566.590  
                
  19550812.852   104473596.513    19550817.516    81257302.486    19550817.273  
  19550811.898  
  20388744.664   109027772.780    20388749.148    84799908.282    20388749.066  
  20388743.250  
  21715347.531   115754950.668    21715353.883    90031694.757    21715353.633  
  21715345.555  
  20437486.930   107399727.345    20437493.113    83688174.4524   20437493.055  
                
  22473352.945   118098270.788    22473362.234    92024705.8614   22473362.438  
                
 21  8  9  0 32 20.0000000  0 17R18G 6R 1R 8G21G22G19G14G 1R17R16G24
                                R15R24R14G17G 3
  22532242.297   120278650.303    22532249.613    93550713.360    22532249.156  
  22532240.902  
  23436514.125   123159716.009    23436523.797    95968658.3804   23436524.512  
                
  22963300.383   122751998.406    22963307.371    95473823.919    22963306.512  
  22963298.680  
  22759054.969   121873679.627    22759060.129    94790685.805    22759060.168  
  22759054.656  
  24409214.141   128271273.339    24409220.160    99951665.8634                 
                
  22760127.297   119605305.208    22760132.031    93198971.5134                 
                
  20886453.062   109759061.878    20886457.949    85526561.6004                 
                
  20779655.656   109197842.101    20779662.492    85089256.2304   20779662.320  
                
  21642373.867   113731443.463    21642383.828    88622031.4814   21642383.473  
                
  19329700.844   103437154.990    19329705.902    80451166.061    19329705.691  
  19329699.629  
  21995103.289   117493901.955    21995107.105    91384165.089    21995105.766  
  21995102.445  
  23301452.617   122449954.211    23301462.727    95415594.7624   23301462.602  
                
  19551992.219   104479898.687    19551996.867    81262204.170    19551996.621  
  19551991.277  
  20393693.766   109054237.842    20393698.246    84820492.210    20393698.164  
  20393692.328  
  21723034.180   115795924.891    21723040.543    90063563.602    21723040.293  
  21723032.215  
  20437112.273   107397758.537    20437118.473    83686640.3094   20437118.406  
                
  22470282.125   118082133.519    22470291.418    92012131.3614   22470291.621  
                
 21  8  9  0 32 30.0000000  0 17R18G 6R 1R 8G21G22G19G14G 1R17R16G24
                                R15R24R14G17G 3
  22525569.219   120243029.059    22525576.551    93523007.964    22525576.109  
  22525567.863  
  23429710.492   123123962.802    23429720.117    95940798.7564   23429720.867  
                
  22957893.477   122723095.547    22957900.453    95451343.938    22957899.578  
  22957891.797  
  22758752.164   121872058.083    22758757.297    94789424.599    22758757.320  
  22758751.855  
  24415266.266   128303077.437    24415272.285    99976448.2634                 
                
  22760580.141   119607684.982    22760584.879    93200825.8864                 
                
  20882556.648   109738586.195    20882561.523    85510606.5304                 
                
  20783141.188   109216158.734    20783148.016    85103528.9304   20783147.855  
                
  21647802.469   113759970.943    21647812.445    88644260.6824   21647812.078  
                
  19327748.078   103426705.409    19327753.184    80443038.617    19327752.977  
  19327746.871  
  21988687.102   117459627.837    21988690.906    91357507.439    21988689.574  
  21988686.258  
  23300361.203   122444218.872    23300371.301    95411125.6734   23300371.191  
                
  19553188.453   104486291.024    19553193.102    81267175.986    19553192.844  
  19553187.531  
  20398649.938   109080740.736    20398654.422    84841105.568    20398654.316  
  20398648.477  
  21730728.078   115836937.582    21730734.406    90095462.327    21730734.160  
  21730726.102  
  20436744.516   107395826.002    20436750.746    83685134.4374   20436750.660  
                
  22467223.008   118066057.774    22467232.320    91999604.8134   22467232.504  
                
 21  8  9  0 32 40.0000000  0 17R18G 6R 1R 8G21G22G19G14G 1R17R16G24
                                R15R24R14G17G 3
  22518901.117   120207434.272    22518908.457    93495323.139    22518907.988  
  22518899.773  
  23422911.172   123088232.080    23422920.758    95912956.6404   23422921.539  
                
  22952497.250   122694249.698    22952504.180    95428908.286    22952503.344  
  22952495.562  
  22758465.758   121870524.289    22758470.871    94788231.641    22758470.887  
  22758465.441  
  24421320.156   128334890.623    24421326.172   100001237.7314                 
                
  22761045.328   119610129.528    22761050.059    93202730.7324                 
                
  20878667.484   109718148.465    20878672.332    85494681.0344                 
                
  20786636.906   109234528.784    20786643.719    85117843.2444   20786643.566  
                
  21653239.125   113788540.663    21653249.105    88666522.7884   21653248.734  
                
  19325806.414   103416315.134    19325811.547    80434957.295    19325811.344  
  19325805.207  
  21982280.500   117425404.880    21982284.293    91330889.582    21982282.980  
  21982279.633  
  23299282.445   122438549.915    23299292.527    95406708.3084   23299292.406  
                
  19554401.609   104492773.695    19554406.258    81272218.066    19554405.996  
  19554400.695  
  20403613.211   109107281.470    20403617.676    84861748.346    20403617.570  
  20403611.707  
  21738429.227   115877988.964    21738435.551    90127391.181    21738435.320  
  21738427.285  
  20436383.734   107393929.989    20436389.980    83683657.0194   20436389.883  
                
  22464175.664   118050043.871    22464184.984    91987126.4494   22464185.156  
                
 21  8  9  0 32 50.0000000  0 17R18G 6R 1R 8G21G22G19G14G 1R17R16G24
                                R15R24R14G17G 3
  22512237.977   120171866.104    22512245.340    93467659.017    22512244.875  
  22512236.672  
  23416116.062   123052523.670    23416125.660    95885131.9334   23416126.465  
                
  22947111.641   122665460.632    22947118.562    95406516.788    22947117.695  
  22947109.930  
  22758195.641   121869077.840    22758200.742    94787106.614    22758200.758  
  22758195.324  
  24427375.664   128366712.604    24427381.703   100026034.0784                 
                
  22761522.797   119612638.631    22761527.512    93204685.8704                 
                
  20874785.500   109697748.485    20874790.305    85478784.9444                 
                
  20790142.719   109252951.947    20790149.516    85132198.9494   20790149.363  
                
  21658683.742   113817152.260    21658693.738    88688817.5234   21658693.344  
                
  19323875.805   103405984.069    19323880.969    80426922.021    19323880.758  
  19323874.590  
  21975883.445   117391232.976    21975887.234    91304311.447    21975885.875  
  21975882.527  
  23298216.258   122432947.104    23298226.324    95402342.4864   23298226.219  
                
  19555631.594   104499346.379    19555636.227    81277330.150    19555635.969  
  19555630.688  
  20408583.477   109133859.701    20408587.926    84882420.293    20408587.836  
  20408581.965  
  21746137.523   115919078.562    21746143.832    90159349.750    21746143.613  
  21746135.578  
  20436029.836   107392070.253    20436036.105    83682207.8744   20436035.992  
                
  22461140.062   118034091.665    22461149.387    91974696.1554   22461149.547  
                
 21  8  9  0 33  0.0000000  0 17R18G 6R 1R 8G21G22G19G14G 1R17R16G24
                                R15R24R14G17G 3
  22505579.859   120136324.673    22505587.262    93440015.701    22505586.773  
  22505578.582  
  23409325.344   123016838.155    23409334.875    95857325.0424   23409335.730  
                
  22941736.773   122636729.014    22941743.711    95384170.012    22941742.820  
  22941735.102  
  22757941.938   121867719.231    22757947.020    94786049.919    22757947.043  
  22757941.605  
  24433432.961   128398543.752    24433439.016   100050837.5464                 
                
  22762012.625   119615212.696    22762017.348    93206691.6334                 
                
  20870910.781   109677386.761    20870915.543    85462918.6744                 
                
  20793658.750   109271428.730    20793665.523    85146596.4314   20793665.379  
                
  21664136.398   113845806.109    21664146.414    88711145.1994   21664146.008  
                
  19321956.359   103395712.707    19321961.539    80418933.188    19321961.332  
  19321955.125  
  21969496.109   117357113.010    21969499.906    91277773.707    21969498.527  
  21969495.145  
  23297162.781   122427410.986    23297172.797    95398028.6114   23297172.695  
                
  19556878.555   104506009.752    19556883.191    81282512.772    19556882.930  
  19556877.652  
  20413560.836   109160475.843    20413565.266    84903121.732    20413565.180  
  20413559.324  
  21753853.055   115960206.637    21753859.352    90191338.250    21753859.137  
  21753851.156  
  20435682.953   107390247.342    20435689.238    83680787.4214   20435689.113  
                
  22458116.320   118018201.722    22458125.637    91962314.3714   22458125.789  
                
 21  8  9  0 33 10.0000000  0 17R18G 6R 1R 8G21G22G19G14G 1R17R16G24
                                R15R24R14G17G 3
  22498926.688   120100809.740    22498934.109    93412392.990    22498933.605  
  22498925.422  
  23402538.859   122981174.934    23402548.324    95829535.5194   23402549.207  
                
  22936372.539   122608054.173    22936379.461    95361867.349    22936378.531  
  22936370.844  
  22757704.547   121866448.095    22757709.617    94785061.270    22757709.664  
  22757704.199  
  24439491.828   128430383.293    24439497.930   100075647.5644                 
                
  22762514.695   119617851.143    22762519.441    93208747.5794                 
                
  20867043.219   109657062.585    20867047.906    85447081.6554                 
                
  20797184.820   109289958.385    20797191.570    85161035.1144   20797191.426  
                
  21669596.930   113874501.445    21669606.957    88733505.2044   21669606.551  
                
  19320047.938   103385500.392    19320053.145    80410990.280    19320052.930  
  19320046.691  
  21963118.312   117323044.045    21963122.102    91251275.633    21963120.734  
  21963117.285  
  23296121.844   122421940.850    23296131.809    95393766.1674   23296131.742  
                
  19558142.328   104512762.979    19558146.953    81287765.274    19558146.691  
  19558141.422  
  20418545.172   109187129.364    20418549.586    84923852.244    20418549.496  
  20418543.660  
  21761575.633   116001372.425    21761581.941    90223356.097    21761581.734  
  21761573.781  
  20435342.930   107388460.560    20435349.234    83679395.1244   20435349.102  
                
  22455104.289   118002373.437    22455113.613    91949980.6454   22455113.758  
                
 21  8  9  0 33 20.0000000  0 17R18G 6R 1R 8G21G22G19G14G 1R17R16G24
                                R15R24R14G17G 3
  22492278.562   120065321.723    22492286.020    93384791.220    22492285.523  
  22492277.289  
  23395756.727   122945534.669    23395766.250    95801763.9074   23395767.117  
                
  22931019.086   122579436.994    22931026.004    95339609.544    22931025.070  
  22931017.379  
  22757483.578   121865264.829    22757488.637    94784140.954    22757488.688  
  22757483.219  
  24445552.422   128462231.832    24445558.562   100100464.5834                 
                
  22763029.125   119620554.549    22763033.898    93210854.1354                 
                
  20863182.930   109636776.650    20863187.543    85431274.4324                 
                
  20800721.086   109308541.530    20800727.809    85175515.4724   20800727.676  
                
  21675065.461   113903238.804    21675075.484    88755897.9554   21675075.102  
                
  19318150.648   103375347.668    19318155.875    80403093.724    19318155.672  
  19318149.379  
  21956750.297   117289027.320    21956754.102    91224818.205    21956752.742  
  21956749.207  
  23295093.586   122416537.338    23295103.523    95389555.6444   23295103.477  
                
  19559423.062   104519606.808    19559427.695    81293088.252    19559427.438  
  19559422.152  
  20423536.547   109213820.488    20423540.953    84944612.010    20423540.871  
  20423535.043  
  21769305.477   116042576.618    21769311.742    90255403.756    21769311.516  
  21769303.590  
  20435009.906   107386710.534    20435016.223    83678031.4734   20435016.086  
                
  22452104.141   117986607.512    22452113.449    91937695.5074   22452113.586  
                
 21  8  9  0 33 30.0000000  0 17R18G 6R 1R 8G21G22G19G14G 1R17R16G24
                                R15R24R14G17G 3
  22485635.438   120029860.276    22485642.914    93357210.105    22485642.426  
  22485634.125  
  23388978.914   122909917.070    23388988.438    95774009.9434   23388989.305  
                
  22925676.406   122550877.396    22925683.316    95317396.549    22925682.383  
  22925674.660  
  22757278.977   121864169.154    22757284.039    94783288.762    22757284.098  
  22757278.648  
  24451614.656   128494088.960    24451620.836   100125288.2984                 
                
  22763555.859   119623322.476    22763560.637    93213010.9534                 
                
  20859329.867   109616528.604    20859334.398    85415496.7334                 
                
  20804267.461   109327177.723    20804274.156    85190037.1634   20804274.035  
                
  21680541.930   113932017.711    21680551.922    88778323.0654   21680551.566  
                
  19316264.453   103365254.193    19316269.684    80395243.251    19316269.477  
  19316263.156  
  21950391.961   117255062.261    21950395.801    91198400.951    21950394.438  
  21950390.801  
  23294077.953   122411200.104    23294087.891    95385396.7594   23294087.840  
                
  19560720.656   104526540.683    19560725.281    81298481.258    19560725.020  
  19560719.738  
  20428534.898   109240548.867    20428539.293    84965400.746    20428539.199  
  20428533.402  
  21777042.375   116083818.597    21777048.637    90287480.854    21777048.402  
  21777040.527  
  20434683.820   107384996.837    20434690.129    83676696.1164   20434689.988  
                
  22449115.797   117970903.637    22449125.082    91925458.7204   22449125.219  
                
 21  8  9  0 33 40.0000000  0 17R18G 6R 1R 8G21G22G19G14G 1R17R16G24
                                R15R24R14G17G 3
  22478997.297   119994425.572    22479004.809    93329649.792    22479004.324  
  22478995.969  
  23382205.422   122874322.122    23382214.848    95746273.6224   23382215.781  
                
  22920344.461   122522375.192    22920351.344    95295228.159    22920350.387  
  22920342.648  
  22757090.680   121863160.826    22757095.723    94782504.493    22757095.801  
  22757090.383  
  24457678.477   128525954.477    24457684.676   100150118.5384                 
                
  22764094.836   119626154.909    22764099.613    93215218.0494                 
                
  20855483.984   109596318.428    20855488.453    85399748.5494                 
                
  20807823.883   109345866.857    20807830.559    85204600.1134   20807830.445  
                
  21686026.227   113960837.951    21686036.203    88800780.3894   21686035.863  
                
  19314389.258   103355219.727    19314394.496    80387438.663    19314394.289  
  19314387.930  
  21944043.312   117221149.069    21944047.203    91172024.051    21944045.867  
  21944042.145  
  23293074.898   122405929.066    23293084.855    95381289.4564   23293084.797  
                
  19562035.086   104533564.628    19562039.715    81303944.324    19562039.457  
  19562034.164  
  20433540.164   109267314.346    20433544.547    84986218.343    20433544.453  
  20433538.688  
  21784786.250   116125097.883    21784792.527    90319586.969    21784792.301  
  21784784.406  
  20434364.609   107383319.409    20434370.918    83675389.0274   20434370.777  
                
  22446139.250   117955261.804    22446148.496    91913270.2744   22446148.664  
                
 21  8  9  0 33 50.0000000  0 17R18G 6R 1R 8G21G22G19G14G 1R17R16G24
                                R15R24R14G17G 3
  22472364.219   119959017.857    22472371.781    93302110.491    22472371.309  
  22472362.848  
  23375436.328   122838750.309    23375445.754    95718555.3414   23375446.738  
                
  22915023.391   122493931.091    22915030.270    95273104.979    22915029.277  
  22915021.539  
  22756918.844   121862240.651    22756923.883    94781788.806    22756923.953  
  22756918.578  
  24463743.977   128557828.760    24463750.172   100174955.6194                 
                
  22764646.172   119629052.191    22764650.941    93217475.6744                 
                
  20851645.414   109576146.613    20851649.812    85384030.2544                 
                
  20811390.469   109364609.300    20811397.121    85219204.6014   20811397.016  
                
  21691518.484   113989699.849    21691528.457    88823270.1674   21691528.113  
                
  19312525.219   103345244.873    19312530.457    80379680.451    19312530.266  
  19312523.875  
  21937704.469   117187288.233    21937708.406    91145687.872    21937707.070  
  21937703.281  
  23292084.539   122400724.643    23292094.480    95377234.0544   23292094.426  
                
  19563366.438   104540678.933    19563371.059    81309477.669    19563370.809  
  19563365.500  
  20438552.445   109294117.242    20438556.820    85007065.038    20438556.734  
  20438550.992  
  21792537.273   116166415.125    21792543.562    90351722.595    21792543.309  
  21792535.430  
  20434052.391   107381678.640    20434058.688    83674110.5054   20434058.555  
                
  22443174.609   117939682.497    22443183.820    91901130.5564   22443184.000  
                
 21  8  9  0 34  0.0000000  0 17R18G 6R 1R 8G21G22G19G14G 1R17R16G24
                                R15R24R14G17G 3
  22465736.227   119923637.341    22465743.836    93274592.331    22465743.371  
  22465734.809  
  23368671.602   122803201.550    23368681.031    95690855.0274   23368682.004  
                
  22909713.148   122465544.954    22909720.027    95251026.882    22909719.008  
  22909711.203  
  22756763.406   121861408.323    22756768.445    94781141.439    22756768.504  
  22756763.145  
  24469811.086   128589711.664    24469817.266   100199799.4444                 
                
  22765209.820   119632014.226    22765214.586    93219783.7534                 
                
  20847814.117   109556013.034    20847818.453    85368341.7564                 
                
  20814967.148   109383404.875    20814973.789    85233850.4884   20814973.684  
                
  21697018.602   114018603.184    21697028.582    88845792.2354   21697028.230  
                
  19310672.281   103335329.469    19310677.520    80371968.478    19310677.320  
  19310670.910  
  21931375.469   117153479.930    21931379.418    91119392.531    21931378.098  
  21931374.234  
  23291106.828   122395586.739    23291116.746    95373230.4934   23291116.707  
                
  19564714.672   104547883.553    19564719.305    81315081.263    19564719.039  
  19564713.719  
  20443571.688   109320957.404    20443576.059    85027940.718    20443575.969  
  20443570.262  
  21800295.352   116207769.933    21800301.625    90383887.402    21800301.383  
  21800293.469  
  20433747.109   107380074.452    20433753.398    83672860.4894   20433753.262  
                
  22440221.852   117924165.690    22440231.039    91889039.5324   22440231.230  
                
 21  8  9  0 34 10.0000000  0 17R18G 6R 1R 8G21G22G19G14G 1R17R16G24
                                R15R24R14G17G 3
  22459113.203   119888283.402    22459120.891    93247094.869    22459120.438  
  22459111.777  
  23361911.234   122767675.586    23361920.621    95663172.4604   23361921.613  
                
  22904413.758   122437216.841    22904420.668    95228993.928    22904419.637  
  22904411.707  
  22756624.328   121860663.462    22756629.355    94780562.090    22756629.422  
  22756624.047  
  24475879.758   128621602.745    24475885.895   100224649.6254                 
                
  22765785.742   119635040.674    22765790.512    93222142.0244                 
                
  20843990.031   109535917.370    20843994.328    85352682.7964                 
                
  20818553.875   109402253.192    20818560.492    85248537.4744   20818560.395  
                
  21702526.547   114047547.490    21702536.512    88868346.2194   21702536.148  
                
  19308830.367   103325473.039    19308835.598    80364302.362    19308835.414  
  19308828.977  
  21925056.242   117119723.776    21925060.180    91093137.753    21925058.867  
  21925054.965  
  23290141.695   122390514.984    23290151.586    95369278.4844   23290151.559  
                
  19566079.758   104555178.067    19566084.387    81320754.757    19566084.113  
  19566078.762  
  20448597.789   109347834.175    20448602.141    85048844.862    20448602.062  
  20448596.379  
  21808060.359   116249161.712    21808066.629    90416080.991    21808066.375  
  21808058.484  
  20433448.742   107378506.482    20433455.004    83671638.6904   20433454.887  
                
  22437280.945   117908711.078    22437290.094    91876996.9654   22437290.277  
                
 21  8  9  0 34 20.0000000  0 17R18G 6R 1R 8G21G22G19G14G 1R17R16G24
                                R15R24R14G17G 3
  22452495.305   119852956.691    22452503.043    93219618.569    22452502.590  
  22452493.855  
  23355155.305   122732172.896    23355164.672    95635508.0304   23355165.660  
                
  22899125.367   122408947.217    22899132.258    95207006.402    22899131.215  
  22899123.195  
  22756501.648   121860006.417    22756506.672    94780051.048    22756506.730  
  22756501.340  
  24481950.062   128653502.287    24481956.176   100249506.4124                 
                
  22766373.992   119638131.898    22766378.773    93224550.7694                 
                
  20840173.266   109515860.075    20840177.539    85337053.7404                 
                
  20822150.727   109421154.632    20822157.332    85263265.8604   20822157.223  
                
  21708042.336   114076533.076    21708052.297    88890932.3804   21708051.922  
                
  19306999.609   103315676.219    19307004.828    80356682.622    19307004.645  
  19306998.184  
  21918746.898   117086020.412    21918750.836    91066924.044    21918749.516  
  21918745.602  
  23289189.258   122385509.816    23289199.129    95365378.3564   23289199.117  
                
  19567461.750   104562562.951    19567466.391    81326498.557    19567466.105  
  19567460.715  
  20453630.852   109374748.154    20453635.207    85069777.961    20453635.137  
  20453629.469  
  21815832.336   116290590.765    21815838.656    90448303.617    21815838.398  
  21815830.484  
  20433157.352   107376975.148    20433163.582    83670445.4424   20433163.488  
                
  22434351.977   117893319.167    22434361.082    91865003.2714   22434361.297  
                
 21  8  9  0 34 30.0000000  0 17R18G 6R 1R 8G21G22G19G14G 1R17R16G24
                                R15R24R14G17G 3
  22445882.453   119817656.982    22445890.227    93192163.259    22445889.773  
  22445880.996  
  23348403.742   122696693.296    23348413.070    95607861.6074   23348414.098  
                
  22893847.789   122380735.719    22893854.719    95185064.145    22893853.656  
  22893845.570  
  22756395.312   121859437.004    22756400.328    94779608.160    22756400.383  
  22756394.953  
  24488021.898   128685410.041    24488028.020   100274369.5924                 
                
  22766974.508   119641287.684    22766979.316    93227009.8324                 
                
  20836363.750   109495840.935    20836367.988    85321454.4094                 
                
  20825757.609   109440108.934    20825764.199    85278035.4314   20825764.098  
                
  21713565.906   114105559.614    21713575.844    88913550.4564   21713575.480  
                
  19305179.867   103305938.468    19305185.062    80349108.818    19305184.891  
  19305178.402  
  21912447.383   117052369.646    21912451.309    91040751.244    21912450.004  
  21912446.074  
  23288249.414   122380570.986    23288259.277    95361529.9304   23288259.270  
                
  19568860.555   104570037.777    19568865.211    81332312.308    19568864.930  
  19568859.484  
  20458670.781   109401698.932    20458675.137    85090739.677    20458675.059  
  20458669.402  
  21823611.297   116332056.915    21823617.605    90480555.028    21823617.359  
  21823609.402  
  20432872.852   107375480.132    20432879.062    83669280.4974   20432878.984  
                
  22431434.883   117877989.809    22431443.938    91853058.3324   22431444.164  
                
 21  8  9  0 34 40.0000000  0 17R18G 6R 1R 8G21G22G19G14G 1R17R16G24
                                R15R24R14G17G 3
  22439274.695   119782384.378    22439282.480    93164729.028    22439282.016  
  22439273.246  
  23341656.625   122661236.960    23341665.926    95580233.2934   23341666.984  
                
  22888581.219   122352582.927    22888588.148    95163167.525    22888587.117  
  22888578.922  
  22756305.367   121858955.308    22756310.383    94779233.495    22756310.426  
  22756304.977  
  24494095.305   128717326.010    24494101.465   100299239.1734                 
                
  22767587.336   119644508.129    22767592.141    93229519.2634                 
                
  20832561.500   109475860.038    20832565.719    85305884.8834                 
                
  20829374.562   109459116.081    20829381.141    85292846.1784   20829381.039  
                
  21719097.258   114134627.036    21719107.180    88936200.3854   21719106.828  
                
  19303371.227   103296260.116    19303376.410    80341581.213    19303376.230  
  19303369.738  
  21906157.852   117018771.990    21906161.723    91014619.708    21906160.402  
  21906156.523  
  23287322.219   122375698.616    23287332.062    95357733.2844   23287332.074  
                
  19570276.234   104577602.705    19570280.891    81338196.133    19570280.621  
  19570275.113  
  20463717.555   109428686.284    20463721.902    85111729.826    20463721.836  
  20463716.168  
  21831397.172   116373559.858    21831403.465    90512835.051    21831403.223  
  21831395.262  
  20432595.305   107374021.608    20432601.488    83668143.9794   20432601.426  
                
  22428529.711   117862723.102    22428538.715    91841162.2004   22428538.984  
                
 21  8  9  0 34 50.0000000  0 17R18G 6R 1R 8G21G22G19G14G 1R17R16G24
                                R15R24R14G17G 3
  22432672.062   119747139.177    22432679.852    93137316.119    22432679.391  
  22432670.641  
  23334913.961   122625804.119    23334923.270    95552623.3164   23334924.352  
                
  22883325.688   122324489.076    22883332.613    95141316.735    22883331.566  
  22883323.305  
  22756231.852   121858561.663    22756236.887    94778927.344    22756236.910  
  22756231.453  
  24500170.328   128749250.363    24500176.516   100324115.2774                 
                
  22768212.516   119647793.443    22768217.305    93232079.2544                 
                
  20828766.602   109455917.709    20828770.801    85290345.4094                 
                
  20833001.625   109478176.312    20833008.195    85307698.2914   20833008.098  
                
  21724636.422   114163735.498    21724646.340    88958882.3054   21724645.988  
                
  19301573.695   103286641.149    19301578.867    80334099.803    19301578.688  
  19301572.172  
  21899878.234   116985227.336    21899882.082    90988529.417    21899880.734  
  21899876.934  
  23286407.734   122370892.923    23286417.535    95353988.5904   23286417.582  
                
  19571708.812   104585257.965    19571713.492    81344150.226    19571713.223  
  19571707.645  
  20468771.227   109455710.497    20468775.562    85132748.649    20468775.492  
  20468769.844  
  21839189.992   116415099.876    21839196.273    90545143.937    21839196.035  
  21839188.059  
  20432324.734   107372599.734    20432330.902    83667036.0284   20432330.848  
                
  22425636.539   117847519.361    22425645.508    91829315.1444   22425645.801  
                
 21  8  9  0 35  0.0000000  0 17R18G 6R 1R 8G21G22G19G14G 1R17R16G24
                                R15R24R14G17G 3
  22426074.484   119711920.953    22426082.262    93109924.177    22426081.809  
  22426073.117  
  23328175.734   122590394.512    23328184.984    95525031.4104   23328186.086  
                
  22878081.125   122296454.027    22878088.082    95119511.708    22878087.039  
  22878078.750  
  22756174.680   121858255.541    22756179.746    94778689.252    22756179.770  
  22756174.254  
  24506246.859   128781182.725    24506253.094   100348997.6174                 
                
  22768849.945   119651143.197    22768854.707    93234689.4534                 
                
  20824978.914   109436013.286    20824983.109    85274835.4704                 
                
  20836638.680   109497289.171    20836645.254    85322591.4214   20836645.152  
                
  21730183.289   114192884.493    21730193.203    88981595.8014   21730192.848  
                
  19299787.211   103277081.349    19299792.363    80326664.402    19299792.184  
  19299785.664  
  21893608.516   116951735.727    21893612.383    90962480.400    21893611.031  
  21893607.258  
  23285505.875   122366153.663    23285515.664    95350295.6704   23285515.734  
                
  19573158.203   104593003.084    19573162.906    81350174.202    19573162.637  
  19573156.980  
  20473831.672   109482770.998    20473836.012    85153795.702    20473835.941  
  20473830.293  
  21846989.633   116456676.371    21846995.934    90577481.208    21846995.703  
  21846987.711  
  20432061.062   107371214.161    20432067.223    83665956.3614   20432067.172  
                
  22422755.281   117832378.310    22422764.230    91817516.9324   22422764.531  
                
 21  8  9  0 35 10.0000000  0 17R18G 6R 1R 8G21G22G19G14G 1R17R16G24
                                R15R24R14G17G 3
  22419482.000   119676729.927    22419489.762    93082553.397    22419489.312  
  22419480.715  
  23321441.930   122555008.177    23321451.129    95497457.6444   23321452.273  
                
  22872847.578   122268477.758    22872854.551    95097752.372    22872853.547  
  22872845.160  
  22756133.867   121858037.009    22756138.965    94778519.286    22756138.980  
  22756133.395  
  24512324.898   128813122.966    24512331.152   100373886.1034                 
                
  22769499.617   119654557.307    22769504.355    93237349.8014                 
                
  20821198.516   109416147.156    20821202.719    85259355.3704                 
                
  20840285.734   109516454.611    20840292.320    85337525.5254   20840292.219  
                
  21735737.852   114222073.916    21735747.758    89004340.8044   21735747.398  
                
  19298011.766   103267580.589    19298016.895    80319274.922    19298016.703  
  19298010.188  
  21887348.750   116918297.291    21887352.625    90936472.734    21887351.234  
  21887347.551  
  23284616.602   122361480.562    23284626.418    95346654.3004   23284626.484  
                
  19574624.414   104600838.054    19574629.125    81356268.053    19574628.852  
  19574623.121  
  20478898.953   109509868.008    20478903.277    85174871.147    20478903.203  
  20478897.543  
  21854796.086   116498289.069    21854802.379    90609846.612    21854802.141  
  21854794.141  
  20431804.297   107369864.819    20431810.438    83664904.9194   20431810.379  
                
  22419885.945   117817299.951    22419894.879    91805767.5724   22419895.195  
                
 21  8  9  0 35 20.0000000  0 17R18G 6R 1R 8G21G22G19G14G 1R17R16G24
                                R15R24R14G17G 3
  22412894.711   119641566.618    22412902.430    93055204.170    22412901.957  
  22412893.520  
  23314712.648   122519645.661    23314721.871    95469902.4604   23314723.016  
                
  22867625.164   122240561.046    22867632.164    95076039.372    22867631.203  
  22867622.723  
  22756109.539   121857906.758    22756114.676    94778417.977    22756114.695  
  22756109.039  
  24518404.492   128845071.445    24518410.781   100398781.0184                 
                
  22770161.633   119658036.245    22770166.359    93240060.6644                 
                
  20817425.508   109396319.922    20817429.730    85243905.5764                 
                
  20843942.898   109535673.087    20843949.492    85352500.9534   20843949.387  
                
  21741300.188   114251304.172    21741310.090    89027117.6214   21741309.758  
                
  19296247.461   103258139.458    19296252.566    80311931.822    19296252.367  
  19296245.871  
  21881099.062   116884912.571    21881102.914    90910506.845    21881101.531  
  21881097.891  
  23283740.055   122356874.287    23283749.898    95343064.9974   23283749.938  
                
  19576107.531   104608763.393    19576112.277    81362432.205    19576112.008  
  19576106.184  
  20483973.078   109537001.582    20483977.402    85195975.033    20483977.328  
  20483971.668  
  21862609.438   116539938.539    21862615.730    90642240.620    21862615.516  
  21862607.488  
