     2.11           OBSERVATION DATA    M (MIXED)           RINEX VERSION / TYPE
EFT-CORS.RU                             20210813 095141 UTC PGM / RUN BY / DATE 
USSB                                                        MARKER NAME         
                                                            MARKER NUMBER       
USSB                EFT-CORS.RU                             OBSERVER / AGENCY   
0                   TRIMBLE BD970       2.0                 REC # / TYPE / VERS 
0                   UNKNOWN EXT NONE                        ANT # / TYPE        
  -912023.1940  3761226.2140  5053259.2690                  APPROX POSITION XYZ 
        0.0000        0.0000        0.0000                  ANTENNA: DELTA H/E/N
     1     1                                                WAVELENGTH FACT L1/2
     6    C1    L1    P2    L2    C2    P1                  # / TYPES OF OBSERV 
    10.000                                                  INTERVAL            
  2021     8     9     0    30    0.0000000     GPS         TIME OF FIRST OBS   
  2021     8     9     3    30    0.0000000     GPS         TIME OF LAST OBS    
     0                                                      RCV CLOCK OFFS APPL 
                                                            END OF HEADER       
 21  8  9  0 30  0.0000000  0 16R 1G 6R18G14R15G 1G22G19G24R16R14R 8
                                R24G17R17G 3
  23077406.734   123361834.865    23077413.922    95948222.562    23077412.938  
  23077404.199  
  23547755.133   123744296.388                    96424202.789    23547765.629  
                
  22608353.172   120684931.057    22608359.977    93866086.526    22608359.398  
  22608352.121  
  20762403.289   109107166.352                    85018631.820    20762409.566  
                
  19525926.062   104340609.888    19525931.168    81153873.002    19525930.793  
  19525924.996  
  21574742.859   113376043.509                    88345046.508    21574752.340  
                
  22780361.789   119711636.075    22780365.496    93281791.7634                 
                
  20914468.078   109906286.691    20914472.695    85641287.3784                 
                
  23254504.102   122203245.920                    95223349.366    23254513.895  
                
  22023770.531   117647030.822    22023775.129    91503271.419    22023773.906  
  22023769.410  
  21661650.578   115468765.419    21661657.336    89809078.422    21661657.195  
  21661649.160  
  22750719.648   121829071.245    22750726.570    94755972.058    22750726.234  
  22750717.664  
  20324587.289   108684707.330    20324592.309    84532597.453    20324592.199  
  20324586.004  
  20434727.023   107385213.654                    83676824.902    20434733.199  
                
  19342492.914   103505608.388    19342498.121    80504421.869    19342497.926  
  19342491.746  
  22560415.078   118555805.201                    92381215.714    22560424.711  
                
 21  8  9  0 30 10.0000000  0 16R 1G 6R18G14R15G 1G22G19G24R16R14R 8
                                R24G17R17G 3
  23071779.641   123331755.976    23071787.105    95924827.884    23071786.035  
  23071777.406  
  23540859.508   123708059.687                    96395966.413    23540869.984  
                
  22601555.961   120648647.130    22601562.742    93837865.715    22601562.160  
  22601554.969  
  20765830.984   109125178.979                    85032667.635    20765837.273  
                
  19526975.227   104346216.239    19526980.324    81158233.488    19526979.957  
  19526974.141  
  21580039.938   113403879.816                    88366737.115    21580049.430  
                
  22780562.977   119712693.336    22780566.641    93282615.6004                 
                
  20910491.883   109885391.657    20910496.531    85625005.5434                 
                
  23253258.594   122196700.731                    95218249.223    23253268.383  
                
  22017258.273   117612243.523    22017262.906    91476214.641    22017261.672  
  22017257.164  
  21669280.016   115509434.585    21669286.777    89840709.986    21669286.645  
  21669278.570  
  22750092.914   121825716.814    22750100.234    94753363.021    22750099.832  
  22750091.227  
  20329475.883   108710848.822    20329480.918    84552929.721    20329480.809  
  20329474.598  
  20434313.984   107383043.107                    83675133.564    20434320.141  
                
  19340367.508   103494234.959    19340372.707    80495575.874    19340372.508  
  19340366.316  
  22557121.516   118538497.417                    92367729.138    22557131.129  
                
 21  8  9  0 30 20.0000000  0 16R 1G 6R18G14R15G 1G22G19G24R16R14R 8
                                R24G17R17G 3
  23066163.133   123301731.041    23066170.383    95901475.189    23066169.328  
  23066160.699  
  23533967.922   123671844.222                    96367746.585    23533978.379  
                
  22594763.641   120612389.239    22594770.375    93809665.126    22594769.785  
  22594762.711  
  20769268.844   109143245.023                    85046745.053    20769275.137  
                
  19528041.250   104351912.745    19528046.348    81162664.104    19528045.984  
  19528040.152  
  21585345.438   113431760.337                    88388462.183    21585354.938  
                
  22780776.469   119713815.351    22780780.145    93283489.8924                 
                
  20906522.938   109864534.714    20906527.605    85608753.3754                 
                
  23252025.703   122190221.885                    95213200.770    23252035.480  
                
  22010755.312   117577505.915    22010759.930    91449196.500    22010758.699  
  22010754.195  
  21676916.891   115550143.365    21676923.645    89872372.361    21676923.504  
  21676915.426  
  22749482.266   121822449.897    22749490.152    94750822.037    22749489.801  
  22749481.395  
  20334371.906   108737030.021    20334376.934    84573292.866    20334376.824  
  20334370.617  
  20433908.000   107380909.618                    83673471.109    20433914.152  
                
  19338253.375   103482921.797    19338258.555    80486776.748    19338258.348  
  19338252.133  
  22553839.398   118521249.871                    92354289.515    22553849.004  
                
 21  8  9  0 30 30.0000000  0 16R 1G 6R18G14R15G 1G22G19G24R16R14R 8
                                R24G17R17G 3
  23060556.469   123271760.235    23060563.777    95878164.575    23060562.730  
  23060554.125  
  23527080.359   123635649.962                    96339543.305    23527090.828  
                
  22587976.180   120576157.343    22587982.902    93781484.776    22587982.312  
  22587975.328  
  20772716.836   109161364.337                    85060863.997    20772723.160  
                
  19529124.125   104357699.317    19529129.223    81167164.765    19529128.863  
  19529123.035  
  21590659.320   113459684.938                    88410221.589    21590668.836  
                
  22781002.305   119715002.182    22781006.023    93284414.7034                 
                
  20902561.242   109843715.837    20902565.934    85592530.8734                 
                
  23250805.453   122183809.384                    95208204.009    23250815.207  
                
  22004261.641   117542817.903    22004266.227    91422216.939    22004265.020  
  22004260.508  
  21684561.164   115590891.559    21684567.898    89904065.381    21684567.758  
  21684559.707  
  22748889.500   121819270.435    22748896.332    94748349.149    22748896.012  
  22748887.984  
  20339275.398   108763251.206    20339280.438    84593687.122    20339280.328  
  20339274.109  
  20433509.055   107378813.172                    83671837.513    20433515.199  
                
  19336150.500   103471668.912    19336155.664    80478024.511    19336155.449  
  19336149.215  
  22550568.758   118504062.618                    92340896.874    22550578.363  
                
 21  8  9  0 30 40.0000000  0 16R 1G 6R18G14R15G 1G22G19G24R16R14R 8
                                R24G17R17G 3
  23054959.750   123241843.532    23054967.238    95854896.004    23054966.156  
  23054957.730  
  23520196.875   123599477.081                    96311356.657    23520207.301  
                
  22581193.570   120539951.457    22581200.336    93753324.678    22581199.727  
  22581192.770  
  20776174.977   109179536.961                    85075024.477    20776181.332  
                
  19530223.898   104363576.110    19530228.988    81171735.597    19530228.633  
  19530222.797  
  21595981.578   113487653.562                    88432015.311    21595991.129  
                
  22781240.477   119716253.790    22781244.211    93285389.9644                 
                
  20898606.805   109822935.159    20898611.523    85576338.1384                 
                
  23249597.820   122177463.245                    95203258.967    23249607.551  
                
  21997777.336   117508179.911    21997781.898    91395276.276    21997780.688  
  21997776.172  
  21692212.852   115631679.168    21692219.543    89935789.036    21692219.402  
  21692211.395  
  22748312.055   121816178.349    22748318.863    94745944.184    22748318.520  
  22748310.629  
  20344186.305   108789511.981    20344191.336    84614112.155    20344191.234  
  20344185.004  
  20433117.172   107376753.791                    83670232.792    20433123.312  
                
  19334058.898   103460476.312    19334064.039    80469319.157    19334063.812  
  19334057.590  
  22547309.625   118486935.775                    92327551.279    22547319.195  
                
 21  8  9  0 30 50.0000000  0 16R 1G 6R18G14R15G 1G22G19G24R16R14R 8
                                R24G17R17G 3
  23049373.273   123211981.221    23049380.891    95831669.760    23049379.785  
  23049371.492  
  23513317.469   123563325.620                    96283186.703    23513327.859  
                
  22574415.883   120503771.881    22574422.699    93725185.048    22574422.098  
  22574415.105  
  20779643.258   109197762.855                    85089226.464    20779649.645  
                
  19531340.547   104369543.078    19531345.629    81176376.563    19531345.270  
  19531339.449  
  21601312.188   113515666.091                    88453843.260    21601321.785  
                
  22781490.953   119717570.109    22781494.746    93286415.6824                 
                
  20894659.641   109802192.674    20894664.379    85560175.1654                 
                
  23248402.812   122171183.493                    95198365.667    23248412.535  
                
  21991302.344   117473591.703    21991306.895    91368374.341    21991305.668  
  21991301.156  
  21699871.898   115672506.094    21699878.566    89967543.290    21699878.418  
  21699870.457  
  22747750.719   121813173.652    22747757.680    94743607.149    22747757.340  
  22747749.523  
  20349104.602   108815812.339    20349109.652    84634567.992    20349109.555  
  20349103.324  
  20432732.352   107374731.514                    83668656.989    20432738.488  
                
  19331978.562   103449344.046    19331983.688    80460660.729    19331983.445  
  19331977.254  
  22544061.992   118469869.404                    92314252.824    22544071.559  
                
 21  8  9  0 31  0.0000000  0 16R 1G 6R18G14R15G 1G22G19G24R16R14R 8
                                R24G17R17G 3
  23043797.141   123182173.389    23043804.754    95808485.908    23043803.629  
  23043795.406  
  23506442.172   123527195.712                    96255033.528    23506452.523  
                
  22567643.109   120467618.467    22567649.961    93697065.753    22567649.340  
  22567642.285  
  20783121.672   109216042.024                    85103469.974    20783128.090  
                
  19532474.055   104375600.205    19532479.137    81181087.661    19532478.781  
  19532472.965  
  21606651.133   113543722.469                    88475705.382    21606660.781  
                
  22781753.789   119718951.256    22781757.609    93287491.8654                 
                
  20890719.766   109781488.489    20890724.508    85544042.0364                 
                
  23247220.461   122164970.210                    95193524.157    23247230.168  
                
  21984836.758   117439053.734    21984841.301    91341511.490    21984840.090  
  21984835.527  
  21707538.273   115713372.084    21707544.918    89999327.924    21707544.762  
  21707536.848  
  22747206.352   121810256.523    22747212.891    94741338.252    22747212.562  
  22747204.840  
  20354030.273   108842152.112    20354035.328    84655054.468    20354035.238  
  20354029.008  
  20432354.594   107372746.385                    83667110.127    20432360.742  
                
  19329909.484   103438271.991    19329914.594    80452049.135    19329914.348  
  19329908.188  
  22540825.883   118452863.637                    92301001.596    22540835.449  
                
 21  8  9  0 31 10.0000000  0 16R 1G 6R18G14R15G 1G22G19G24R16R14R 8
                                R24G17R17G 3
  23038231.156   123152420.155    23038238.863    95785344.539    23038237.754  
  23038229.484  
  23499570.953   123491087.249                    96226897.054    23499581.266  
                
  22560875.227   120431491.250    22560882.102    93668966.856    22560881.484  
  22560874.363  
  20786610.188   109234374.277                    85117754.845    20786616.641  
                
  19533624.391   104381747.260    19533629.469    81185868.698    19533629.113  
  19533623.309  
  21611998.375   113571822.465                    88497601.486    21612008.062  
                
  22782028.883   119720396.964    22782032.738    93288618.3934                 
                
  20886787.156   109760822.527    20886791.895    85527938.6984                 
                
  23246050.719   122158823.245                    95188734.334    23246060.441  
                
  21978380.617   117404566.161    21978385.133    91314687.817    21978383.902  
  21978379.340  
  21715211.938   115754276.910    21715218.555    90031142.759    21715218.391  
  21715210.512  
  22746678.188   121807426.695    22746684.426    94739137.272    22746684.121  
  22746676.504  
  20358963.312   108868531.260    20358968.371    84675571.590    20358968.285  
  20358962.070  
  20431983.883   107370798.247                    83665592.095    20431990.035  
                
  19327851.648   103427260.143    19327856.766    80443484.370    19327856.520  
  19327850.387  
  22537601.305   118435918.408                    92287797.534    22537610.863  
                
 21  8  9  0 31 20.0000000  0 16R 1G 6R18G14R15G 1G22G19G24R16R14R 8
                                R24G17R17G 3
  23032675.453   123122721.800    23032683.199    95762245.803    23032682.109  
  23032673.781  
  23492703.859   123455000.471                    96198777.502    23492714.156  
                
  22554112.320   120395390.363    22554119.164    93640888.390    22554118.555  
  22554111.438  
  20790108.828   109252759.733                    85132081.161    20790115.305  
                
  19534791.609   104387984.472    19534796.676    81190719.855    19534796.328  
  19534790.520  
  21617353.922   113599966.093                    88519531.585    21617363.648  
                
  22782316.305   119721907.500    22782320.180    93289795.4594                 
                
  20882861.859   109740194.990    20882866.582    85511865.2994                 
                
  23244893.656   122152742.779                    95183996.303    23244903.387  
                
  21971933.898   117370129.046    21971938.418    91287903.406    21971937.168  
  21971932.582  
  21722892.914   115795220.803    21722899.512    90062987.992    21722899.336  
  21722891.512  
  22746165.617   121804684.446    22746172.344    94737004.454    22746172.035  
  22746164.457  
  20363903.688   108894949.678    20363908.746    84696119.244    20363908.652  
  20363902.473  
  20431620.234   107368887.302                    83664103.052    20431626.406  
                
  19325805.094   103416308.645    19325810.219    80434966.544    19325809.988  
  19325803.855  
  22534388.297   118419033.960                    92274640.838    22534397.840  
                
 21  8  9  0 31 30.0000000  0 16R 1G 6R18G14R15G 1G22G19G24R16R14R 8
                                R24G17R17G 3
  23027130.016   123093078.438    23027137.828    95739189.888    23027136.738  
  23027128.391  
  23485840.875   123418935.390                    96170674.883    23485851.184  
                
  22547354.328   120359315.857    22547361.172    93612830.463    22547360.586  
  22547353.473  
  20793617.570   109271198.294                    85146448.867    20793624.078  
                
  19535975.703   104394311.902    19535980.770    81195641.190    19535980.414  
  19535974.621  
  21622717.773   113628153.282                    88541495.602    21622727.504  
                
  22782616.094   119723482.835    22782619.938    93291022.9704                 
                
  20878943.859   109719605.807    20878948.562    85495821.7904                 
                
  23243749.234   122146728.802                    95179310.079    23243758.977  
                
  21965496.656   117335742.470    21965501.168    91261158.297    21965499.922  
  21965495.285  
  21730581.141   115836203.316    21730587.727    90094863.270    21730587.543  
  21730579.770  
  22745670.148   121802029.701    22745676.605    94734939.655    22745676.324  
  22745668.742  
  20368851.391   108921407.207    20368856.434    84716697.314    20368856.344  
  20368850.199  
  20431263.656   107367013.475                    83662642.928    20431269.844  
                
  19323769.828   103405417.498    19323774.961    80426495.652    19323774.727  
  19323768.605  
  22531186.859   118402210.329                    92261531.518    22531196.379  
                
 21  8  9  0 31 40.0000000  0 16R 1G 6R18G14R15G 1G22G19G24R16R14R 8
                                R24G17R17G 3
  23021594.938   123063490.252    23021602.730    95716176.845    23021601.641  
  23021593.297  
  23478982.062   123382892.137                    96142589.240    23478992.355  
                
  22540601.297   120323267.801    22540608.125    93584793.106    22540607.539  
  22540600.473  
  20797136.430   109289689.953                    85160857.941    20797142.961  
                
  19537176.656   104400729.382    19537181.727    81200632.556    19537181.367  
  19537175.582  
  21628089.875   113656383.869                    88563493.469    21628099.625  
                
  22782928.203   119725122.957    22782932.016    93292300.9904                 
                
  20875033.141   109699054.860    20875037.816    85479808.0694                 
                
  23242617.469   122140781.323                    95174675.669    23242627.207  
                
  21959068.914   117301406.695    21959073.434    91234452.704    21959072.176  
  21959067.512  
  21738276.609   115877224.450    21738283.176    90126768.592    21738282.992  
  21738275.262  
  22745190.805   121799462.735    22745197.297    94732943.122    22745197.004  
  22745189.391  
  20373806.398   108947903.860    20373811.438    84737305.814    20373811.340  
  20373805.227  
  20430914.141   107365176.722                    83661211.688    20430920.336  
                
  19321745.812   103394586.567    19321750.953    80418071.591    19321750.711  
  19321744.582  
  22527997.031   118385447.634                    92248469.673    22528006.512  
                
 21  8  9  0 31 50.0000000  0 16R 1G 6R18G14R15G 1G22G19G24R16R14R 8
                                R24G17R17G 3
  23016070.188   123033957.355    23016077.922    95693206.819    23016076.805  
  23016068.543  
  23472127.391   123346870.669                    96114520.587    23472137.691  
                
  22533853.195   120287246.080    22533860.012    93556776.244    22533859.422  
  22533852.363  
  20800665.367   109308234.609                    85175308.314    20800671.918  
                
  19538394.461   104407236.973    19538399.539    81205694.017    19538399.172  
  19538393.395  
  21633470.227   113684657.735                    88585525.031    21633479.977  
                
  22783252.617   119726827.784    22783256.395    93293629.4504                 
                
  20871129.750   109678542.397    20871134.406    85463824.3414                 
                
  23241498.352   122134900.303                    95170093.059    23241508.086  
                
  21952650.695   117267121.736    21952655.207    91207786.630    21952653.930  
  21952649.258  
  21745979.297   115918283.978    21745985.832    90158703.746    21745985.625  
  21745977.934  
  22744727.758   121796983.081    22744734.273    94731014.517    22744734.031  
  22744726.414  
  20378768.727   108974439.658    20378773.777    84757944.769    20378773.668  
  20378767.562  
  20430571.664   107363376.999                    83659809.312    20430577.883  
                
  19319733.062   103383815.934    19319738.219    80409694.435    19319737.980  
  19319731.828  
  22524818.773   118368745.843                    92235455.307    22524828.227  
                
 21  8  9  0 32  0.0000000  0 16R 1G 6R18G14R15G 1G22G19G24R16R14R 8
                                R24G17R17G 3
  23010555.758   123004479.689    23010563.426    95670279.754    23010562.270  
  23010554.094  
  23465276.883   123310871.090                    96086468.971    23465287.176  
                
  22527110.062   120251250.933    22527116.859    93528780.057    22527116.262  
  22527109.172  
  20804204.383   109326832.221                    85189799.945    20804210.957  
                
  19539629.117   104413834.569    19539634.191    81210825.476    19539633.832  
  19539628.035  
  21638858.781   113712974.759                    88607590.227    21638868.543  
                
  22783589.336   119728597.289    22783593.039    93295008.2914                 
                
  20867233.672   109658068.407    20867238.293    85447870.5904                 
                
  23240391.875   122129085.747                    95165562.244    23240401.582  
                
  21946242.039   117232887.902    21946246.555    91181160.326    21946245.273  
  21946240.582  
  21753689.164   115959381.764    21753695.656    90190668.652    21753695.469  
  21753687.770  
  22744281.125   121794591.058    22744287.602    94729154.035    22744287.379  
  22744279.797  
  20383738.312   109001014.228    20383743.379    84778613.871    20383743.266  
  20383737.148  
  20430236.227   107361614.309                    83658435.783    20430242.461  
                
  19317731.562   103373105.517    19317736.727    80401364.105    19317736.484  
  19317730.324  
  22521652.125   118352105.055                    92222488.476    22521661.562  
                
 21  8  9  0 32 10.0000000  0 16R 1G 6R18G14R15G 1G22G19G24R16R14R 8
                                R24G17R17G 3
  23005051.797   122975057.849    23005059.355    95647396.101    23005058.195  
  23005050.090  
  23458430.578   123274893.607                    96058434.583    23458440.859  
                
  22520371.938   120215282.451    22520378.664    93500804.589    22520378.078  
  22520370.988  
  20807753.500   109345482.918                    85204332.952    20807760.109  
                
  19540880.633   104420522.300    19540885.711    81216027.044    19540885.348  
  19540879.539  
  21644255.562   113741334.980                    88629689.072    21644265.312  
                
  22783938.398   119730431.646    22783942.004    93296437.6654                 
                
  20863344.953   109637633.068    20863349.535    85431946.9484                 
                
  23239298.086   122123337.810                    95161083.321    23239307.766  
                
  21939842.969   117198705.184    21939847.465    91154573.764    21939846.164  
  21939841.496  
  21761406.195   116000517.807    21761412.672    90222663.341    21761412.484  
  21761404.781  
  22743850.836   121792286.848    22743857.320    94727361.883    22743857.098  
  22743849.719  
  20388715.156   109027627.658    20388720.234    84799313.200    20388720.113  
  20388713.996  
  20429907.875   107359888.786                    83657091.223    20429914.125  
                
  19315741.352   103362455.487    19315746.520    80393080.751    19315746.273  
  19315740.129  
  22518497.125   118335525.490                    92209569.345    22518506.543  
                
 21  8  9  0 32 20.0000000  0 16R 1G 6R18G14R15G 1G22G19G24R16R14R 8
                                R24G17R17G 3
  22999558.211   122945691.631    22999565.699    95624555.700    22999564.504  
  22999556.543  
  23451588.469   123238938.104                    96030417.321    23451598.738  
                
  22513638.836   120179340.584    22513645.449    93472849.784    22513644.836  
  22513637.855  
  20811312.672   109364186.448                    85218907.117    20811319.301  
                
  19542149.000   104427300.044    19542154.074    81221298.619    19542153.723  
  19542147.891  
  21649660.500   113769738.111                    88651821.374    21649670.258  
                
  22784299.758   119732330.673    22784303.312    93297917.4624                 
                
  20859463.547   109617236.193    20859468.113    85416053.2894                 
                
  23238216.945   122117656.356                    95156656.207    23238226.609  
                
  21933453.508   117164573.896    21933457.977    91128027.207    21933456.672  
  21933452.043  
  21769130.359   116041691.859    21769136.816    90254687.580    21769136.648  
  21769128.906  
  22743436.883   121790070.017    22743443.410    94725637.685    22743443.211  
  22743436.000  
  20393699.234   109054279.712    20393704.316    84820042.566    20393704.199  
  20393698.074  
  20429586.562   107358200.314                    83655775.529    20429592.832  
                
  19313762.406   103351865.756    19313767.578    80384844.296    19313767.336  
  19313761.199  
  22515353.781   118319007.067                    92196697.842    22515363.168  
                
 21  8  9  0 32 30.0000000  0 17R 1G 6R18G14R15G 1G21G22G19G24R16R14
                                R 8R24G17R17G 3
  22994075.078   122916381.194    22994082.496    95601758.688    22994081.316  
  22994073.480  
  23444750.562   123203004.751                    96002417.323    23444760.832  
                
  22506910.719   120143425.366    22506917.254    93444915.705    22506916.621  
  22506909.766  
  20814881.906   109382942.858                    85233522.493    20814888.559  
                
  19543434.227   104434167.861    19543439.293    81226640.239    19543438.941  
  19543433.098  
  21655073.594   113798184.136                    88673987.127    21655083.352  
                
  24420801.930   128332215.191                                                  
                
  22784673.461   119734294.529    22784676.957    93299447.7504                 
                
  20855589.492   109596877.914    20855594.062    85400189.7014                 
                
  23237148.477   122112041.487                    95152280.975    23237158.133  
                
  21927073.711   117130494.117    21927078.137    91101520.708    21927076.824  
  21927072.230  
  21776861.633   116082903.797    21776868.090    90286741.285    21776867.930  
  21776860.152  
  22743039.305   121787940.900    22743045.879    94723981.721    22743045.676  
  22743038.617  
  20398690.562   109080970.514    20398695.637    84840802.052    20398695.504  
  20398689.387  
  20429272.320   107356548.910                    83654488.717    20429278.598  
                
  19311794.727   103341336.316    19311799.902    80376654.730    19311799.660  
  19311793.539  
  22512222.086   118302549.930                    92183874.108    22512231.453  
                
 21  8  9  0 32 40.0000000  0 17R 1G 6R18G14R15G 1G21G22G19G24R16R14
                                R 8R24G17R17G 3
  22988602.438   122887126.914    22988609.848    95579005.357    22988608.664  
  22988600.926  
  23437916.859   123167093.527                    95974434.575    23437927.129  
                
  22500187.523   120107536.682    22500194.094    93417002.329    22500193.453  
  22500186.625  
  20818461.180   109401752.077                    85248179.021    20818467.855  
                
  19544736.273   104441125.589    19544741.348    81232051.805    19544741.000  
  19544735.152  
  21660494.812   113826672.908                    88696186.178    21660504.527  
                
  24426862.930   128364062.205                                                  
                
  22785059.469   119736323.052    22785062.961    93301028.4294                 
                
  20851722.789   109576558.271    20851727.367    85384356.2154                 
                
  23236092.656   122106493.133                    95147957.585    23236102.324  
                
  21920703.539   117096465.842    21920707.953    91075054.272    21920706.656  
  21920702.059  
  21784599.992   116124153.587    21784606.449    90318824.440    21784606.285  
  21784598.508  
  22742658.102   121785899.553    22742664.715    94722393.988    22742664.535  
  22742657.461  
  20403689.078   109107699.727    20403694.137    84861591.414    20403694.016  
  20403687.926  
  20428965.102   107354934.517                    83653230.757    20428971.391  
                
  19309838.273   103330866.971    19309843.453    80368511.916    19309843.219  
  19309837.105  
  22509102.062   118286154.104                    92171098.148    22509111.410  
                
 21  8  9  0 32 50.0000000  0 17R 1G 6R18G14R15G 1G21G22G19G24R16R14
                                R 8R24G17R17G 3
  22983140.320   122857928.879    22983147.816    95556295.803    22983146.699  
  22983138.875  
  23431087.414   123131204.633                    95946469.223    23431097.684  
                
  22493469.414   120071675.076    22493476.027    93389110.013    22493475.387  
  22493468.566  
  20822050.523   109420614.164                    85262876.745    20822057.223  
                
  19546055.156   104448173.283    19546060.242    81237533.342    19546059.895  
  19546054.059  
  21665924.188   113855204.443                    88718418.566    21665933.840  
                
  24432922.789   128395919.190                                                  
                
  22785457.828   119738416.435    22785461.320    93302659.6354                 
                
  20847863.469   109556277.395    20847868.059    85368552.9364                 
                
  23235049.531   122101011.420                    95143686.118    23235059.211  
                
  21914343.055   117062489.316    21914347.469    91048628.091    21914346.168  
  21914341.598  
  21792345.430   116165441.046    21792351.887    90350936.893    21792351.707  
  21792343.934  
  22742293.297   121783945.892    22742299.910    94720874.430    22742299.730  
  22742292.699  
  20408694.773   109134467.370    20408699.832    84882410.686    20408699.719  
  20408693.664  
  20428664.961   107353357.250                    83652001.714    20428671.250  
                
  19307893.102   103320457.997    19307898.289    80360416.054    19307898.051  
  19307891.938  
  22505993.742   118269819.764                    92158370.086    22506003.082  
                
 21  8  9  0 33  0.0000000  0 16R 1G 6R18G14R15G 1G22G19G24R16R14R 8
                                R24G17R17G 3
  22977688.773   122828787.368    22977696.367    95533630.203    22977695.266  
  22977687.348  
  23424262.242   123095338.150                    95918521.318    23424272.508  
                
  22486756.297   120035840.152    22486762.965    93361238.437    22486762.305  
  22486755.492  
  20825649.914   109439529.061                    85277615.626    20825656.629  
                
  19547390.906   104455311.068    19547395.984    81243084.940    19547395.629  
  19547389.820  
  21671361.664   113883778.595                    88740684.150    21671371.250  
                
  22785868.477   119740574.523    22785871.965    93304341.2784                 
                
  20844011.523   109536035.273    20844016.133    85352779.8524                 
                
  23234019.078   122095596.353                    95139466.585    23234028.781  
                
  21907992.320   117028564.861    21907996.730    91022242.419    21907995.445  
  21907990.918  
  21800097.898   116206765.938    21800104.355    90383078.448    21800104.168  
  21800096.391  
  22741944.867   121782079.862    22741951.473    94719423.077    22741951.281  
  22741944.348  
  20413707.633   109161273.335    20413712.699    84903259.754    20413712.594  
  20413706.520  
  20428371.883   107351817.108                    83650801.607    20428378.176  
                
  19305959.219   103310109.363    19305964.398    80352367.113    19305964.164  
  19305958.031  
  22502897.125   118253546.972                    92145689.997    22502906.477  
                
 21  8  9  0 33 10.0000000  0 16R 1G 6R18G14R15G 1G22G19G24R16R14R 8
                                R24G17R17G 3
  22972247.766   122799702.274    22972255.441    95511008.495    22972254.328  
  22972246.387  
  23417441.336   123059494.090                    95890590.907    23417451.609  
                
  22480048.266   120000032.338    22480054.973    93333387.943    22480054.285  
  22480047.449  
  20829259.336   109458496.704                    85292395.595    20829266.055  
                
  19548743.477   104462538.766    19548748.566    81248706.484    19548748.211  
  19548742.406  
  21676807.250   113912395.256                    88762982.821    21676816.777  
                
  22786291.469   119742797.398    22786294.926    93306073.4004                 
                
  20840166.938   109515831.865    20840171.590    85337036.9414                 
                
  23233001.297   122090247.916                    95135298.977    23233011.012  
                
  21901651.297   116994692.269    21901655.703    90995897.066    21901654.426  
  21901649.941  
  21807857.375   116248128.221    21807863.840    90415249.087    21807863.648  
  21807855.871  
  22741612.875   121780301.817    22741619.457    94718040.129    22741619.273  
  22741612.371  
  20418727.672   109188117.745    20418732.781    84924138.739    20418732.660  
  20418726.555  
  20428085.852   107350314.076                    83649630.425    20428092.164  
                
  19304036.602   103299821.078    19304041.781    80344365.116    19304041.559  
  19304035.395  
  22499812.242   118237335.820                    92133057.937    22499821.586  
                
 21  8  9  0 33 20.0000000  0 17R 1G 6R18G14R15G 1G21G22G19G24R16R14
                                R 8R24G17R17G 3
  22966817.359   122770673.847    22966825.109    95488430.868    22966823.988  
  22966816.051  
  23410624.711   123023672.520                    95862677.992    23410634.957  
                
  22473345.234   119964251.337    22473351.996    93305558.332    22473351.316  
  22473344.391  
  20832878.797   109477517.034                    85307216.612    20832885.512  
                
  19550112.891   104469856.495    19550117.992    81254398.046    19550117.633  
  19550111.832  
  21682260.883   113941054.284                    88785314.548    21682270.359  
                
  24451123.492   128491541.812                                                  
                
  22786726.789   119745085.001    22786730.215    93307855.9524                 
                
  20836329.734   109495667.207    20836334.414    85321324.2164                 
                
  23231996.211   122084966.110                    95131183.271    23232005.918  
                
  21895320.078   116960872.078    21895324.496    90969592.476    21895323.234  
  21895318.750  
  21815623.828   116289527.816    21815630.344    90447448.786    21815630.145  
  21815622.363  
  22741297.258   121778611.442    22741303.781    94716725.372    22741303.617  
  22741296.746  
  20423754.828   109215000.190    20423759.973    84945047.296    20423759.844  
  20423753.684  
  20427806.906   107348848.134                    83648488.126    20427813.207  
                
  19302125.242   103289593.004    19302130.418    80336409.943    19302130.195  
  19302124.016  
  22496739.086   118221186.309                    92120473.904    22496748.438  
                
 21  8  9  0 33 30.0000000  0 17R 1G 6R18G14R15G 1G21G22G19G24R16R14
                                R 8R24G17R17G 3
  22961397.672   122741702.455    22961405.426    95465897.563    22961404.336  
  22961396.383  
  23403812.383   122987873.512                    95834782.672    23403822.625  
                
  22466647.281   119928497.275    22466654.039    93277749.644    22466653.383  
  22466646.406  
  20836508.289   109496590.019                    85322078.656    20836514.984  
                
  19551499.133   104477264.092    19551504.238    81260159.504    19551503.875  
  19551498.070  
  21687722.570   113969755.605                    88807679.210    21687732.012  
                
  24457191.539   128523435.118                                                  
                
  22787174.414   119747437.284    22787177.820    93309688.8874                 
                
  20832499.914   109475541.350    20832504.625    85305641.7254                 
                
  23231003.797   122079750.954                    95127119.508    23231013.504  
                
  21888998.641   116927104.106    21889003.055    90943328.503    21889001.809  
  21888997.332  
  21823397.305   116330964.648    21823403.832    90479677.398    21823403.625  
  21823395.840  
  22740998.031   121777008.929    22741004.473    94715478.950    22741004.270  
  22740997.562  
  20428789.125   109241920.718    20428794.266    84965985.459    20428794.141  
  20428787.934  
  20427535.000   107347419.242                    83647374.697    20427541.281  
                
  19300225.164   103279425.253    19300230.340    80328501.690    19300230.105  
  19300223.918  
  22493677.680   118205098.566                    92107938.018    22493687.055  
                
 21  8  9  0 33 40.0000000  0 17R 1G 6R18G14R15G 1G21G22G19G24R16R14
                                R 8R24G17R17G 3
  22955988.617   122712787.880    22955996.352    95443408.443    22955995.207  
  22955987.312  
  23397004.344   122952097.104                    95806904.977    23397014.605  
                
  22459954.422   119892770.387    22459961.156    93249962.076    22459960.504  
  22459953.512  
  20840147.766   109515715.575                    85336981.677    20840154.441  
                
  19552902.188   104484761.625    19552907.297    81265990.915    19552906.930  
  19552901.105  
  21693192.273   113998499.071                    88830076.726    21693201.715  
                
  24463262.008   128555337.465                                                  
                
  22787634.336   119749854.298    22787637.770    93311572.2984                 
                
  20828677.469   109455454.322    20828682.207    85289989.5024                 
                
  23230024.062   122074602.410                    95123107.653    23230033.762  
                
  21882687.016   116893388.606    21882691.445    90917105.350    21882690.199  
  21882685.715  
  21831177.641   116372438.167    21831184.215    90511934.566    21831184.008  
  21831176.188  
  22740715.148   121775493.987    22740721.520    94714300.669    22740721.344  
  22740714.836  
  20433830.523   109268879.220    20433835.648    84986953.148    20433835.531  
  20433829.293  
  20427270.141   107346027.392                    83646290.130    20427276.406  
                
  19298336.289   103269317.574    19298341.480    80320640.172    19298341.254  
  19298335.039  
  22490628.047   118189072.639                    92095450.281    22490637.422  
                
 21  8  9  0 33 50.0000000  0 17R 1G 6R18G14R15G 1G21G22G19G24R16R14
                                R 8R24G17R17G 3
  22950590.227   122683930.469    22950598.000    95420963.827    22950596.781  
  22950588.949  
  23390200.625   122916343.375                    95779044.944    23390210.898  
                
  22453266.617   119857070.510    22453273.359    93222195.519    22453272.695  
  22453265.664  
  20843797.258   109534893.695                    85351925.651    20843803.906  
                
  19554322.070   104492348.984    19554327.188    81271892.187    19554326.820  
  19554320.969  
  21698669.992   114027284.593                    88852506.980    21698679.402  
                
  24469334.477   128587248.841                                                  
                
  22788106.617   119752335.974    22788110.023    93313506.0644                 
                
  20824862.438   109435406.222    20824867.199    85274367.6114                 
                
  23229057.000   122069520.515                    95119147.748    23229066.715  
                
  21876385.242   116859725.705    21876389.688    90890923.101    21876388.457  
  21876383.965  
  21838964.914   116413948.677    21838971.539    90544220.510    21838971.332  
  21838963.457  
  22740448.750   121774067.118    22740455.004    94713190.841    22740454.793  
  22740448.480  
  20438878.984   109295875.563    20438884.105    85007950.296    20438883.988  
  20438877.766  
  20427012.328   107344672.570                    83645234.424    20427018.574  
                
  19296458.711   103259270.221    19296463.906    80312825.560    19296463.684  
  19296457.438  
  22487590.188   118173108.590                    92083010.767    22487599.578  
                
 21  8  9  0 34  0.0000000  0 17R 1G 6R18G14R15G 1G21G22G19G24R16R14
                                R 8R24G17R17G 3
  22945202.516   122655130.259    22945210.297    95398563.691    22945208.988  
  22945201.285  
  23383401.258   122880612.465                    95751202.674    23383411.516  
                
  22446583.938   119821397.982    22446590.684    93194450.246    22446590.020  
  22446582.965  
  20847456.750   109554124.397                    85366910.600    20847463.375  
                
  19555758.773   104500026.299    19555763.906    81277863.431    19555763.531  
  19555757.660  
  21704155.703   114056112.160                    88874970.002    21704165.094  
                
  24475408.539   128619169.170                                                  
                
  22788591.188   119754882.407    22788594.621    93315490.2934                 
                
  20821054.828   109415397.099    20821059.582    85258776.0974                 
                
  23228102.656   122064505.380                    95115239.845    23228112.375  
                
  21870093.375   116826115.706    21870097.824    90864781.998    21870096.613  
  21870092.086  
  21846759.078   116455495.962    21846765.750    90576535.060    21846765.535  
  21846757.605  
  22740198.719   121772728.125    22740204.863    94712149.404    22740204.648  
  22740198.543  
  20443934.539   109322909.827    20443939.645    85028976.935    20443939.535  
  20443933.312  
  20426761.594   107343354.885                    83644207.652    20426767.816  
                
  19294592.398   103249283.199    19294597.590    80305057.876    19294597.367  
  19294591.113  
  22484564.133   118157206.590                    92070619.606    22484573.555  
                
 21  8  9  0 34 10.0000000  0 17R 1G 6R18G14R15G 1G21G22G19G24R16R14
                                R 8R24G17R17G 3
  22939825.625   122626387.588    22939833.309    95376208.276    22939831.898  
  22939824.379  
  23376606.211   122844904.332                    95723378.166    23376616.488  
                
  22439906.336   119785752.503    22439913.055    93166725.984    22439912.395  
  22439905.367  
  20851126.211   109573407.524                    85381936.401    20851132.820  
                
  19557212.281   104507793.388    19557217.422    81283904.500    19557217.055  
  19557211.168  
  21709649.367   114084981.519                    88897465.594    21709658.785  
                
  24481483.773   128651098.859                                                  
                
  22789088.047   119757493.505    22789091.516    93317524.9394                 
                
  20817254.625   109395426.881    20817259.355    85243214.8864                 
                
  23227160.992   122059556.856                    95111383.842    23227170.711  
                
  21863811.375   116792558.490    21863815.832    90838681.962    21863814.617  
  21863810.078  
  21854560.094   116497079.677    21854566.809    90608877.933    21854566.586  
  21854558.598  
  22739965.102   121771476.941    22739971.137    94711176.245    22739970.961  
  22739965.086  
  20448997.109   109349981.604    20449002.211    85050032.754    20449002.105  
  20448995.879  
  20426517.891   107342074.220                    83643209.730    20426524.086  
                
  19292737.305   103239356.270    19292742.500    80297336.938    19292742.281  
  19292736.035  
  22481549.867   118141366.556                    92058276.731    22481559.320  
                
 21  8  9  0 34 20.0000000  0 16R 1G 6R18G14R15G 1G22G19G24R16R14R 8
                                R24G17R17G 3
  22934459.477   122597702.533    22934467.188    95353897.703    22934465.746  
  22934458.250  
  23369815.531   122809219.137                    95695571.539    23369825.840  
                
  22433233.844   119750134.365    22433240.555    93139023.006    22433239.902  
  22433232.852  
  20854805.664   109592743.144                    85397003.104    20854812.254  
                
  19558682.625   104515650.441    19558687.777    81290015.541    19558687.410  
  19558681.496  
  21715150.969   114113892.690                    88919993.806    21715160.434  
                
  22789597.273   119760169.366    22789600.766    93319610.0014                 
                
  20813461.844   109375495.729    20813466.562    85227684.1224                 
                
  23226232.016   122054675.078                    95107579.852    23226241.730  
                
  21857539.344   116759054.423    21857543.766    90812623.242    21857542.551  
  21857538.047  
  21862367.938   116538699.825    21862374.707    90641249.142    21862374.484  
  21862366.395  
  22739747.898   121770313.579    22739753.828    94710271.396    22739753.695  
  22739747.953  
  20454066.727   109377091.172    20454071.832    85071117.970    20454071.727  
  20454065.473  
  20426281.242   107340830.675                    83642240.736    20426287.418  
                
  19290893.516   103229489.779    19290898.699    80289663.002    19290898.484  
  19290892.262  
  22478547.445   118125588.716                    92045982.315    22478556.906  
                
 21  8  9  0 34 30.0000000  0 16R 1G 6R18G14R15G 1G22G19G24R16R14R 8
                                R24G17R17G 3
  22929104.109   122569075.074    22929111.836    95331631.918    22929110.414  
  22929102.891  
  23363029.227   122773556.928                    95667782.821    23363039.559  
                
  22426566.484   119714543.563    22426573.188    93111341.272    22426572.527  
  22426565.453  
  20858495.094   109612131.195                    85412110.668    20858501.664  
                
  19560169.758   104523597.228    19560174.922    81296196.371    19560174.551  
  19560168.602  
  21720660.523   114142845.564                    88942554.481    21720669.996  
                
  22790118.773   119762909.898    22790122.375    93321745.4954                 
                
  20809676.492   109355603.614    20809681.199    85212183.7804                 
                
  23225315.750   122049860.033                    95103827.860    23225325.434  
                
  21851277.258   116725603.508    21851281.656    90786605.868    21851280.422  
  21851275.961  
  21870182.625   116580356.403    21870189.441    90673648.687    21870189.219  
  21870181.055  
  22739547.086   121769238.109    22739552.957    94709434.916    22739552.824  
  22739547.180  
  20459143.391   109404238.332    20459148.492    85092232.420    20459148.398  
  20459142.121  
  20426051.641   107339624.151                    83641300.594    20426057.805  
                
  19289060.961   103219683.399    19289066.125    80282035.817    19289065.910  
  19289059.711  
  22475556.859   118109873.107                    92033736.381    22475566.309  
                
 21  8  9  0 34 40.0000000  0 17R 1G 6R18G14R15G 1G21G22G19G24R16R14
                                R 8R24G17R17G 3
  22923759.602   122540505.640    22923767.336    95309411.256    22923765.926  
  22923758.398  
  23356247.328   122737917.807                    95640012.076    23356257.668  
                
  22419904.258   119678980.171    22419910.941    93083680.864    22419910.277  
  22419903.215  
  20862194.484   109631571.636                    85427259.064    20862201.051  
                
  19561673.703   104531633.838    19561678.875    81302447.058    19561678.512  
  19561672.539  
  21726177.984   114171840.006                    88965147.561    21726187.504  
                
  24499723.344   128746943.578                                                  
                
  22790652.641   119765715.215    22790656.355    93323931.4274                 
                
  20805898.586   109335750.595    20805903.262    85196713.8954                 
                
  23224412.172   122045111.720                    95100127.877    23224421.832  
                
  21845025.195   116692206.152    21845029.578    90760630.147    21845028.328  
  21845023.879  
  21878004.055   116622049.057    21878010.910    90706076.307    21878010.691  
  21878002.473  
  22739362.695   121768250.526    22739368.469    94708666.780    22739368.359  
  22739362.820  
  20464227.023   109431422.794    20464232.105    85113375.875    20464232.012  
  20464225.754  
  20425829.109   107338454.744                    83640389.370    20425835.262  
                
  19287239.672   103209937.372    19287244.828    80274455.583    19287244.613  
  19287238.438  
  22472578.133   118094219.803                    92021539.009    22472587.598  
                
 21  8  9  0 34 50.0000000  0 17R 1G 6R18G14R15G 1G21G22G19G24R16R14
                                R 8R24G17R17G 3
  22918425.898   122511994.254    22918433.754    95287235.802    22918432.367  
  22918424.754  
  23349469.836   122702301.863                    95612259.401    23349480.195  
                
  22413247.164   119643444.258    22413253.855    93056041.854    22413253.207  
  22413246.129  
  20865903.859   109651064.478                    85442448.284    20865910.422  
                
  19563194.469   104539760.320    19563199.652    81308767.656    19563199.297  
  19563193.297  
  21731703.352   114200875.970                    88987772.990    21731712.914  
                
  24505805.039   128778907.720                                                  
                
  22791198.805   119768585.320    22791202.688    93326167.8704                 
                
  20802128.141   109315936.778    20802132.785    85181274.5624                 
                
  23223521.305   122040430.201                    95096479.956    23223530.922  
                
  21838783.109   116658862.108    21838787.504    90734695.909    21838786.270  
  21838781.805  
  21885832.305   116663777.941    21885839.180    90738532.089    21885838.969  
  21885830.711  
  22739194.711   121767350.946    22739200.473    94707967.135    22739200.383  
  22739194.848  
  20469317.656   109458644.640    20469322.723    85134548.425    20469322.633  
  20469316.398  
  20425613.648   107337322.459                    83639507.074    20425619.793  
                
  19285429.648   103200251.551    19285434.785    80266922.167    19285434.562  
  19285428.406  
  22469611.273   118078628.893                    92009390.269    22469620.773  
                
 21  8  9  0 35  0.0000000  0 17R 1G 6R18G14R15G 1G21G22G19G24R16R14
                                R 8R24G17R17G 3
  22913103.117   122483541.117    22913111.012    95265105.623    22913109.629  
  22913101.984  
  23342696.727   122666709.030                    95584524.734    23342707.102  
                
  22406595.188   119607935.664    22406601.871    93028424.090    22406601.211  
  22406594.137  
  20869623.164   109670609.519                    85457678.181    20869629.727  
                
  19564732.000   104547976.439    19564737.188    81315157.976    19564736.840  
  19564730.816  
  21737236.562   114229953.197                    89010430.567    21737246.168  
                
  24511889.375   128810880.381                                                  
                
  22791757.242   119771520.004    22791761.285    93328454.6634                 
                
  20798365.070   109296161.764    20798369.691    85165865.4834                 
                
  23222643.141   122035815.473                    95092884.087    23222652.758  
                
  21832551.055   116625571.667    21832555.484    90708803.362    21832554.250  
  21832549.797  
  21893667.258   116705542.635    21893674.164    90771015.742    21893673.949  
  21893665.680  
  22739043.172   121766539.179    22739048.898    94707335.748    22739048.812  
  22739043.254  
  20474415.211   109485903.574    20474420.254    85155749.819    20474420.164  
  20474413.961  
  20425405.211   107336227.168                    83638653.605    20425411.359  
                
  19283630.859   103190625.916    19283635.992    80259435.571    19283635.762  
  19283629.613  
  22466656.281   118063100.381                    91997290.141    22466665.801  
                
 21  8  9  0 35 10.0000000  0 17R 1G 6R18G14R15G 1G21G22G19G24R16R14
                                R 8R24G17R17G 3
  22907791.273   122455146.298    22907799.105    95243020.790    22907797.754  
  22907790.156  
  23335928.047   122631139.485                    95556808.234    23335938.449  
                
  22399948.391   119572454.744    22399955.066    93000827.845    22399954.395  
  22399947.332  
  20873352.422   109690206.823                    85472948.794    20873358.977  
                
  19566286.328   104556282.319    19566291.516    81321618.098    19566291.180  
  19566285.141  
  21742777.641   114259071.745                    89033120.334    21742787.266  
                
  24517974.914   128842861.537                                                  
                
  22792327.977   119774519.344    22792332.117    93330791.8134                 
                
  20794609.484   109276426.072    20794614.082    85150487.0264                 
                
  23221777.656   122031267.407                    95089340.154    23221787.281  
                
  21826329.086   116592335.068    21826333.531    90682952.687    21826332.289  
  21826327.871  
  21901508.906   116747343.046    21901515.824    90803527.168    21901515.602  
  21901507.328  
  22738908.023   121765815.367    22738913.762    94706772.767    22738913.648  
  22738908.086  
  20479519.766   109513199.924    20479524.781    85176980.311    20479524.695  
  20479518.535  
  20425203.828   107335168.916                    83637828.996    20425209.984  
                
  19281843.320   103181060.482    19281848.461    80251995.796    19281848.230  
  19281842.082  
  22463713.203   118047634.399                    91985238.730    22463722.727  
                
 21  8  9  0 35 20.0000000  0 17R 1G 6R18G14R15G 1G21G22G19G24R16R14
                                R 8R24G17R17G 3
  22902490.352   122426809.975    22902498.152    95220981.470    22902496.789  
  22902489.281  
  23329163.820   122595593.231                    95529109.849    23329174.211  
                
  22393306.789   119537001.468    22393313.465    92973253.082    22393312.801  
  22393305.723  
  20877091.594   109709856.299                    85488260.066    20877098.148  
                
  19567857.453   104564677.902    19567862.641    81328147.995    19567862.309  
  19567856.266  
  21748326.547   114288231.401                    89055842.139    21748336.203  
                
  24524062.289   128874851.099                                                  
                
  22792911.062   119777583.272    22792915.207    93333179.2354                 
                
  20790861.391   109256729.726    20790865.957    85135139.2264                 
                
  23220924.883   122026786.085                    95085848.233    23220934.535  
                
  21820117.180   116559152.281    21820121.637    90657143.874    21820120.391  
  21820116.008  
  21909357.258   116789179.148    21909364.168    90836066.350    21909363.961  
  21909355.672  
  22738789.273   121765179.566    22738795.043    94706278.280    22738794.941  
  22738789.340  
  20484631.219   109540533.174    20484636.219    85198239.508    20484636.129  
  20484630.000  
  20425009.492   107334147.669                    83637033.219    20425015.656  
                
  19280067.055   103171555.272    19280072.188    80244602.849    19280071.957  
  19280065.812  
  22460782.008   118032230.953                    91973236.069    22460791.531  
                
 21  8  9  0 35 30.0000000  0 17R 1G 6R18G14R15G 1G21G22G19G24R16R14
                                R 8R24G17R17G 3
  22897200.414   122398532.375    22897208.223    95198987.810    22897206.824  
  22897199.379  
  23322404.062   122560070.495                    95501429.795    23322414.453  
                
  22386670.320   119501575.697    22386677.031    92945699.744    22386676.367  
  22386669.242  
  20880840.711   109729558.012                    85503612.041    20880847.273  
                
  19569445.359   104573163.150    19569450.543    81334747.626    19569450.203  
  19569444.168  
  21753883.297   114317432.221                    89078596.009    21753892.977  
                
  24530150.484   128906849.056                                                  
                
  22793506.438   119780711.945    22793510.602    93335617.1634                 
                
  20787120.805   109237072.813    20787125.348    85119822.1614                 
                
  23220084.852   122022371.643                    95082408.390    23220094.496  
                
  21813915.445   116526023.810    21813919.902    90631377.301    21813918.637  
  21813914.273  
  21917212.258   116831050.681    21917219.156    90868633.091    21917218.938  
  21917210.652  
  22738687.023   121764631.666    22738692.723    94705852.116    22738692.633  
  22738687.109  
  20489749.625   109567903.556    20489754.613    85219527.579    20489754.523  
  20489748.414  
  20424822.234   107333163.565                    83636266.371    20424828.402  
                
  19278302.031   103162110.290    19278307.176    80237256.758    19278306.957  
  19278300.809  
  22457862.773   118016890.277                    91961282.305    22457872.277  
                
