     2.11           OBSERVATION DATA    M (MIXED)           RINEX VERSION / TYPE
EFT-CORS.RU                             20210813 101231 UTC PGM / RUN BY / DATE 
ANGR                                                        MARKER NAME         
                                                            MARKER NUMBER       
ANGR                EFT-CORS.RU                             OBSERVER / AGENCY   
0                   TRIMBLE BD970       2.0                 REC # / TYPE / VERS 
0                   UNKNOWN EXT NONE                        ANT # / TYPE        
  -931437.4817  3778495.1924  5036899.3175                  APPROX POSITION XYZ 
        0.0000        0.0000        0.0000                  ANTENNA: DELTA H/E/N
     1     1                                                WAVELENGTH FACT L1/2
     6    C1    L1    P2    L2    C2    P1                  # / TYPES OF OBSERV 
    10.000                                                  INTERVAL            
  2021     8     6     0    30    0.0000000     GPS         TIME OF FIRST OBS   
  2021     8     6     2    30    0.0000000     GPS         TIME OF LAST OBS    
     0                                                      RCV CLOCK OFFS APPL 
                                                            END OF HEADER       
 21  8  6  0 30  0.0000000  0 14G19R13R22G 1G21G22G14G 6R 5G24R12R21
                                G 3G17
  21236569.984   111598943.592    21236573.230    86960227.4984                 
                
  22147699.383   118267479.853    22147704.156    91985840.778    22147703.484  
  22147697.598  
  19632570.086   104800074.620    19632573.340    81511135.083    19632573.156  
  19632568.844  
  21210177.688   111460245.750    21210186.008    86852182.8544   21210185.918  
                
  23893909.617   125563363.462    23893914.090    97841590.4114                 
                
  22794522.562   119786068.057    22794526.148    93339805.6774                 
                
  20524938.211   107859284.595    20524943.785    84046219.7064   20524944.027  
                
  24067116.281   126473585.660    24067125.266    98550860.8684   24067126.406  
                
  22755491.484   121641142.330    22755496.750    94609781.268    22755496.727  
  22755490.742  
  23407469.070   123007099.705    23407477.332    95849712.0734   23407477.695  
                
  19469634.305   104003296.557    19469638.617    80891443.714    19469638.465  
  19469633.594  
  19918900.031   106590056.607    19918904.242    82903376.293    19918903.750  
  19918899.312  
  22807483.844   119854154.067    22807491.230    93392894.5144   22807491.988  
                
  20489713.625   107674178.099    20489718.625    83901983.2894   20489718.844  
                
 21  8  6  0 30 10.0000000  0 14G19R13R22G 1G21G22G14G 6R 5G24R12R21
                                G 3G17
  21232081.336   111575355.631    21232084.586    86941847.2864                 
                
  22140808.359   118230682.163    22140813.113    91957220.357    22140812.406  
  22140806.570  
  19629725.141   104784888.122    19629728.387    81499323.372    19629728.207  
  19629723.910  
  21214822.648   111484655.211    21214830.980    86871203.2144   21214830.887  
                
  23899762.703   125594121.578    23899767.148    97865557.7614                 
                
  22793874.594   119782662.997    22793878.160    93337152.4054                 
                
  20527556.109   107873041.691    20527561.676    84056939.5134   20527561.918  
                
  24059970.047   126436032.283    24059979.113    98521598.5324   24059980.242  
                
  22753865.547   121632450.690    22753870.801    94603021.119    22753870.770  
  22753864.824  
  23405294.773   122995673.622    23405303.008    95840808.6394   23405303.387  
                
  19469378.961   104001932.578    19469383.305    80890382.836    19469383.137  
  19469378.250  
  19922832.969   106611102.569    19922837.176    82919745.365    19922836.699  
  19922832.250  
  22803447.938   119832945.362    22803455.266    93376368.2454   22803456.062  
                
  20488766.281   107669199.788    20488771.273    83898104.0904   20488771.492  
                
 21  8  6  0 30 20.0000000  0 14G19R13R22G 1G21G22G14G 6R 5G24R12R21
                                G 3G17
  21227599.375   111551802.748    21227602.629    86923494.3904                 
                
  22133925.578   118193928.517    22133930.328    91928634.192    22133929.633  
  22133923.750  
  19626891.750   104769763.260    19626894.980    81487559.584    19626894.812  
  19626890.535  
  21219477.375   111509116.041    21219485.699    86890263.5994   21219485.621  
                
  23905618.672   125624894.873    23905623.070    97889536.9594                 
                
  22793238.812   119779321.958    22793242.359    93334549.0184                 
                
  20530184.625   107886854.602    20530190.195    84067702.8104   20530190.426  
                
  24052826.891   126398494.896    24052835.988    98492348.6604   24052837.121  
                
  22752255.656   121623844.870    22752260.906    94596327.703    22752260.871  
  22752254.941  
  23403132.664   122984311.665    23403140.887    95831955.1794   23403141.270  
                
  19469140.367   104000658.026    19469144.746    80889391.520    19469144.543  
  19469139.660  
  19926775.055   106632197.455    19926779.273    82936152.492    19926778.793  
  19926774.305  
  22799422.336   119811790.788    22799429.637    93359884.1734   22799430.461  
                
  20487825.961   107664258.364    20487830.941    83894253.6254   20487831.172  
                
 21  8  6  0 30 30.0000000  0 14G19R13R22G 1G21G22G14G 6R 5G24R12R21
                                G 3G17
  21223124.055   111528284.823    21223127.309    86905168.7394                 
                
  22127051.023   118157218.827    22127055.793    91900082.234    22127055.102  
  22127049.184  
  19624069.945   104754700.355    19624073.180    81475844.001    19624073.023  
  19624068.738  
  21224141.875   111533628.178    21224150.180    86909363.9684   21224150.109  
                
  23911477.539   125655683.412    23911481.898    97913528.0134                 
                
  22792615.227   119776044.980    22792618.750    93331995.5424                 
                
  20532823.766   107900723.319    20532829.324    84078509.5924   20532829.562  
                
  24045686.883   126360973.647    24045695.871    98463111.2864   24045697.023  
                
  22750661.891   121615325.207    22750667.152    94589701.298    22750667.102  
  22750661.203  
  23400982.773   122973013.885    23400990.980    95823151.6994   23400991.383  
                
  19468918.500   103999472.867    19468922.879    80888469.730    19468922.688  
  19468917.797  
  19930726.273   106653341.189    19930730.488    82952597.617    19930730.012  
  19930725.520  
  22795407.047   119790690.417    22795414.324    93343442.3514   22795415.168  
                
  20486892.656   107659353.833    20486897.629    83890431.9184   20486897.867  
                
 21  8  6  0 30 40.0000000  0 14G19R13R22G 1G21G22G14G 6R 5G24R12R21
                                G 3G17
  21218655.406   111504801.874    21218658.656    86886870.3464                 
                
  22120184.742   118120553.230    22120189.527    91871564.566    22120188.824  
  22120182.895  
  19621259.680   104739698.991    19621262.914    81464176.285    19621262.742  
  19621258.473  
  21228816.109   111558191.408    21228824.387    86928504.1444   21228824.309  
                
  23917339.273   125686486.947    23917343.645    97937530.7594                 
                
  22792003.812   119772831.947    22792007.328    93329491.8984                 
                
  20535473.500   107914647.716    20535479.039    84089359.7634   20535479.277  
                
  24038549.836   126323468.440    24038558.859    98433886.4664   24038560.008  
                
  22749084.195   121606891.523    22749089.426    94583141.777    22749089.379  
  22749083.516  
  23398845.086   122961780.210    23398853.312    95814398.1924   23398853.691  
                
  19468713.336   103998376.904    19468717.711    80887617.313    19468717.527  
  19468712.633  
  19934686.555   106674533.455    19934690.785    82969080.484    19934690.312  
  19934685.797  
  22791402.070   119769644.254    22791409.355    93327042.7604   22791410.195  
                
  20485966.367   107654486.117    20485971.336    83886638.8924   20485971.578  
                
 21  8  6  0 30 50.0000000  0 14G19R13R22G 1G21G22G14G 6R 5G24R12R21
                                G 3G17
  21214193.406   111481353.926    21214196.660    86868599.2224                 
                
  22113326.766   118083932.096    22113331.555    91843081.471    22113330.871  
  22113324.926  
  19618460.938   104724759.115    19618464.156    81452556.381    19618463.996  
  19618459.742  
  21233500.039   111582805.653    21233508.289    86947684.0834   21233508.227  
                
  23923203.836   125717305.418    23923208.258    97961545.1414                 
                
  22791404.570   119769682.899    22791408.105    93327038.1084                 
                
  20538133.828   107928627.775    20538139.359    84100253.3054   20538139.598  
                
  24031415.852   126285979.338    24031424.902    98404674.2064   24031426.047  
                
  22747522.602   121598543.903    22747527.840    94576649.201    22747527.789  
  22747521.914  
  23396719.609   122950610.669    23396727.852    95805694.6574   23396728.191  
                
  19468524.930   103997370.423    19468529.316    80886834.493    19468529.137  
  19468524.227  
  19938655.914   106695774.248    19938660.137    82985601.098    19938659.656  
  19938655.160  
  22787407.430   119748652.442    22787414.734    93310685.5194   22787415.570  
                
  20485047.078   107649655.244    20485052.051    83882874.5804   20485052.301  
                
 21  8  6  0 31  0.0000000  0 14G19R13R22G 1G21G22G14G 6R 5G24R12R21
                                G 3G17
  21209738.078   111457941.038    21209741.340    86850355.4224                 
                
  22106477.109   118047355.424    22106481.914    91814632.967    22106481.250  
  22106475.301  
  19615673.789   104709881.140    19615676.996    81440984.633    19615676.840  
  19615672.578  
  21238193.656   111607470.793    21238201.891    86966903.6724   21238201.836  
                
  23929071.234   125748138.787    23929075.703    97985571.1264                 
                
  22790817.477   119766597.704    22790821.004    93324634.0684                 
                
  20540804.734   107942663.449    20540810.266    84111190.1854   20540810.492  
                
  24024284.977   126248506.468    24024294.148    98375474.6104   24024295.238  
                
  22745977.094   121590282.311    22745982.328    94570223.517    22745982.262  
  22745976.375  
  23394606.344   122939505.340    23394614.590    95797041.1544   23394614.906  
                
  19468353.234   103996453.273    19468357.645    80886121.155    19468357.453  
  19468352.527  
  19942634.344   106717063.599    19942638.555    83002159.480    19942638.078  
  19942633.609  
  22783423.156   119727715.031    22783430.492    93294370.6674   22783431.301  
                
  20484134.805   107644861.238    20484139.785    83879138.9924   20484140.031  
                
 21  8  6  0 31 10.0000000  0 14G19R13R22G 1G21G22G14G 6R 5G24R12R21
                                G 3G17
  21205289.344   111434562.799    21205292.605    86832138.6214                 
                
  22099635.750   118010823.008    22099640.520    91786218.868    22099639.895  
  22099633.953  
  19612898.102   104695064.338    19612901.281    81429460.458    19612901.121  
  19612896.891  
  21242896.867   111632186.345    21242905.102    86986162.5404   21242905.031  
                
  23934941.375   125778986.588    23934945.828    98009608.3764                 
                
  22790242.508   119763576.197    22790246.031    93322279.6654                 
                
  20543486.156   107956754.347    20543491.684    84122170.1024   20543491.902  
                
  24017157.211   126211049.500    24017166.328    98346287.3534   24017167.406  
                
  22744447.648   121582106.529    22744452.875    94563864.584    22744452.785  
  22744446.918  
  23392505.219   122928463.848    23392513.461    95788437.3954   23392513.762  
                
  19468198.188   103995625.053    19468202.602    80885476.977    19468202.414  
  19468197.473  
  19946621.711   106738400.762    19946625.918    83018755.044    19946625.438  
  19946620.973  
  22779449.164   119706831.723    22779456.527    93278097.9784   22779457.324  
                
  20483229.477   107640103.689    20483234.465    83875431.8074   20483234.699  
                
 21  8  6  0 31 20.0000000  0 14G19R13R22G 1G21G22G14G 6R 5G24R12R21
                                G 3G17
  21200847.312   111411219.752    21200850.570    86813949.2374                 
                
  22092802.734   117974335.104    22092807.488    91757839.386    22092806.871  
  22092800.953  
  19610133.953   104680309.143    19610137.129    81417984.192    19610136.961  
  19610132.750  
  21247609.734   111656952.629    21247617.965    87005460.9394   21247617.887  
                
  23940814.336   125809849.181    23940818.742    98033657.1494                 
                
  22789679.750   119760618.831    22789683.266    93319975.2414                 
                
  20546178.164   107970900.880    20546183.668    84133193.3604   20546183.891  
                
  24010032.539   126173608.917    24010041.605    98317112.8884   24010042.672  
                
  22742934.297   121574016.806    22742939.504    94557572.587    22742939.414  
  22742933.512  
  23390416.336   122917486.672    23390424.574    95779883.7574   23390424.879  
                
  19468059.914   103994886.397    19468064.320    80884902.465    19468064.125  
  19468059.199  
  19950618.109   106759786.257    19950622.316    83035388.202    19950621.844  
  19950617.383  
  22775485.586   119686003.059    22775492.961    93261867.8824   22775493.758  
                
  20482331.156   107635383.014    20482336.156    83871753.3644   20482336.387  
                
 21  8  6  0 31 30.0000000  0 14G19R13R22G 1G21G22G14G 6R 5G24R12R21
                                G 3G17
  21196411.984   111387911.953    21196415.238    86795787.3294                 
                
  22085978.188   117937892.415    22085982.926    91729495.080    22085982.312  
  22085976.418  
  19607381.406   104665615.870    19607384.586    81406556.096    19607384.398  
  19607380.215  
  21252332.258   111681769.618    21252340.469    87024798.8514   21252340.402  
                
  23946690.125   125840726.652    23946694.492    98057717.5184                 
                
  22789129.195   119757725.668    22789132.680    93317720.8424                 
                
  20548880.766   107985103.068    20548886.250    84144259.9934   20548886.480  
                
  24002910.883   126136184.810    24002919.934    98287951.2604   24002921.035  
                
  22741437.141   121566013.673    22741442.328    94551347.926    22741442.242  
  22741436.355  
  23388339.703   122906573.869    23388347.918    95771380.2904   23388348.258  
                
  19467938.391   103994237.218    19467942.793    80884397.552    19467942.613  
  19467937.676  
  19954623.523   106781220.014    19954627.730    83052058.898    19954627.254  
  19954622.797  
  22771532.430   119665229.207    22771539.805    93245680.4744   22771540.617  
                
  20481439.898   107630699.428    20481444.914    83868103.8164   20481445.125  
                
 21  8  6  0 31 40.0000000  0 14G19R13R22G 1G21G22G14G 6R 5G24R12R21
                                G 3G17
  21191983.359   111364639.412    21191986.605    86777652.8884                 
                
  22079162.062   117901494.766    22079166.793    91701185.815    22079166.176  
  22079160.281  
  19604640.406   104650984.338    19604643.582    81395176.031    19604643.363  
  19604639.207  
  21257064.414   111706637.243    21257072.602    87044176.2224   21257072.562  
                
  23952568.719   125871618.841    23952573.078    98081789.3284                 
                
  22788590.859   119754896.740    22788594.309    93315516.4994                 
                
  20551593.945   107999360.906    20551599.422    84155369.9864   20551599.660  
                
  23995792.492   126098777.351    23995801.566    98258802.6164   23995802.637  
                
  22739956.117   121558096.814    22739961.301    94545190.385    22739961.211  
  22739955.305  
  23386275.336   122895725.533    23386283.516    95762927.0594   23386283.891  
                
  19467833.625   103993677.609    19467838.012    80883962.297    19467837.844  
  19467832.906  
  19958637.945   106802701.993    19958642.145    83068767.092    19958641.680  
  19958637.227  
  22767589.734   119644510.278    22767597.098    93229535.8644   22767597.922  
                
  20480555.641   107626052.657    20480560.660    83864482.9534   20480560.867  
                
 21  8  6  0 31 50.0000000  0 14G19R13R22G 1G21G22G14G 6R 5G24R12R21
                                G 3G17
  21187561.414   111341401.904    21187564.656    86759545.7454                 
                
  22072354.359   117865142.034    22072359.082    91672911.487    22072358.461  
  22072352.520  
  19601910.938   104636414.294    19601914.121    81383843.772    19601913.867  
  19601909.723  
  21261806.133   111731555.083    21261814.301    87063592.7224   21261814.273  
                
  23958450.047   125902525.441    23958454.402    98105872.3934                 
                
  22788064.711   119752131.774    22788068.117    93313361.9904                 
                
  20554317.672   108013674.111    20554323.148    84166523.1254   20554323.383  
                
  23988677.297   126061386.326    23988686.328    98229666.7564   23988687.375  
                
  22738491.250   121550266.269    22738496.406    94539099.967    22738496.324  
  22738490.434  
  23384223.203   122884941.451    23384231.383    95754523.8754   23384231.762  
                
  19467745.602   103993207.350    19467749.965    80883596.534    19467749.812  
  19467744.891  
  19962661.320   106824231.781    19962665.543    83085512.483    19962665.059  
  19962660.641  
  22763657.453   119623846.063    22763664.816    93213433.9024   22763665.652  
                
  20479678.352   107621442.480    20479683.375    83860890.6104   20479683.574  
                
 21  8  6  0 32  0.0000000  0 14G19R13R22G 1G21G22G14G 6R 5G24R12R21
                                G 3G17
  21183146.164   111318199.692    21183149.406    86741466.1014                 
                
  22065555.180   117828834.873    22065559.891    91644672.590    22065559.266  
  22065553.293  
  19599193.016   104621905.886    19599196.180    81372559.462    19599195.910  
  19599191.781  
  21266557.406   111756523.199    21266565.566    87083048.3924   21266565.555  
                
  23964334.117   125933446.404    23964338.484    98129966.6404                 
                
  22787550.750   119749430.928    22787554.129    93311257.4354                 
                
  20557051.938   108028042.742    20557057.391    84177719.4514   20557057.637  
                
  23981565.180   126024011.885    23981574.336    98200543.8534   23981575.309  
                
  22737042.516   121542521.996    22737047.637    94533076.636    22737047.582  
  22737041.699  
  23382183.305   122874221.729    23382191.512    95746170.8334   23382191.863  
                
  19467674.305   103992826.532    19467678.648    80883300.338    19467678.512  
  19467673.598  
  19966693.586   106845809.266    19966697.832    83102294.969    19966697.324  
  19966692.926  
  22759735.617   119603236.773    22759743.000    93197374.7434   22759743.816  
                
  20478808.055   107616869.059    20478813.078    83857326.9014   20478813.277  
                
 21  8  6  0 32 10.0000000  0 14G19R13R22G 1G21G22G14G 6R 5G24R12R21
                                G 3G17
  21178737.641   111295032.708    21178740.879    86723413.9204                 
                
  22058764.531   117792573.189    22058769.238    91616469.065    22058768.613  
  22058762.625  
  19596486.672   104607459.222    19596489.840    81361323.175    19596489.547  
  19596485.406  
  21271318.227   111781541.422    21271326.383    87102543.1194   21271326.375  
                
  23970220.922   125964381.700    23970225.258    98154072.0724                 
                
  22787048.992   119746794.132    22787052.355    93309202.8104                 
                
  20559796.758   108042466.771    20559802.203    84188958.9514   20559802.461  
                
  23974456.164   125986654.068    23974465.398    98171433.8794   23974466.340  
                
  22735609.977   121534864.177    22735615.113    94527120.583    22735615.055  
  22735609.184  
  23380155.656   122863566.365    23380163.879    95737867.9724   23380164.207  
                
  19467619.789   103992535.246    19467624.117    80883073.779    19467623.988  
  19467619.090  
  19970734.805   106867434.561    19970739.066    83119114.634    19970738.535  
  19970734.141  
  22755824.273   119582682.507    22755831.668    93181358.4334   22755832.461  
                
  20477944.766   107612332.381    20477949.781    83853791.8394   20477949.992  
                
 21  8  6  0 32 20.0000000  0 14G19R13R22G 1G21G22G14G 6R 5G24R12R21
                                G 3G17
  21174335.828   111271901.098    21174339.051    86705389.2984                 
                
  22051982.406   117756357.043    22051987.113    91588300.954    22051986.488  
  22051980.504  
  19593791.875   104593074.270    19593795.031    81350134.878    19593794.750  
  19593790.605  
  21276088.594   111806609.813    21276096.738    87122076.9264   21276096.730  
                
  23976110.469   125995331.391    23976114.758    98178188.7134                 
                
  22786559.453   119744221.557    22786562.773    93307198.2224                 
                
  20562552.125   108056946.273    20562557.574    84200241.6704   20562557.828  
                
  23967350.344   125949313.051    23967359.656    98142337.0364   23967360.582  
                
  22734193.617   121527292.942    22734198.754    94521231.849    22734198.707  
  22734192.867  
  23378140.289   122852975.542    23378148.496    95729615.3834   23378148.848  
                
  19467582.031   103992333.533    19467586.352    80882916.890    19467586.223  
  19467581.336  
  19974784.938   106889107.584    19974789.191    83135971.430    19974788.656  
  19974784.277  
  22751923.422   119562183.457    22751930.816    93165385.1544   22751931.598  
                
  20477088.469   107607832.521    20477093.477    83850285.4564   20477093.691  
                
 21  8  6  0 32 30.0000000  0 14G19R13R22G 1G21G22G14G 6R 5G24R12R21
                                G 3G17
  21169940.797   111248805.085    21169943.992    86687392.4134                 
                
  22045208.898   117720186.936    22045213.617    91560168.654    22045212.969  
  22045207.031  
  19591108.664   104578751.174    19591111.801    81338994.694    19591111.504  
  19591107.367  
  21280868.492   111831728.331    21280876.617    87141649.7954   21280876.613  
                
  23982002.734   126026295.434    23982006.969    98202316.5304                 
                
  22786082.156   119741713.327    22786085.410    93305243.7674                 
                
  20565318.055   108071481.329    20565323.508    84211567.6764   20565323.750  
                
  23960247.906   125911989.080    23960257.082    98113253.4024   23960258.020  
                
  22732793.484   121519808.397    22732798.562    94515410.533    22732798.543  
  22732792.742  
  23376137.227   122842449.388    23376145.438    95721413.1924   23376145.809  
                
  19467561.078   103992221.606    19467565.395    80882829.831    19467565.266  
  19467560.395  
  19978843.984   106910828.377    19978848.207    83152865.378    19978847.688  
  19978843.332  
  22748033.117   119541739.803    22748040.512    93149455.0484   22748041.273  
                
  20476239.203   107603369.643    20476244.195    83846807.8884   20476244.426  
                
 21  8  6  0 32 40.0000000  0 14G19R13R22G 1G21G22G14G 6R 5G24R12R21
                                G 3G17
  21165552.500   111225744.466    21165555.680    86669423.1094                 
                
  22038443.984   117684062.677    22038448.680    91532072.013    22038448.043  
  22038442.121  
  19588437.016   104564489.792    19588440.145    81327902.520    19588439.875  
  19588435.727  
  21285657.883   111856896.719    21285665.996    87161261.5244   21285666.004  
                
  23987897.688   126057273.634    23987901.910    98226455.3904                 
                
  22785617.062   119739269.233    22785620.262    93303339.2974                 
                
  20568094.523   108086071.747    20568099.973    84222936.8264   20568100.223  
                
  23953148.656   125874681.985    23953157.805    98084182.9624   23953158.719  
                
  22731409.555   121512410.464    22731414.629    94509656.588    22731414.602  
  22731408.820  
  23374146.430   122831987.747    23374154.668    95713261.2604   23374155.039  
                
  19467556.883   103992199.178    19467561.199    80882812.387    19467561.070  
  19467556.219  
  19982911.906   106932596.590    19982916.117    83169796.211    19982915.621  
  19982911.254  
  22744153.352   119521351.478    22744160.758    93133568.0454   22744161.504  
                
  20475396.938   107598943.527    20475401.910    83843358.9664   20475402.145  
                
 21  8  6  0 32 50.0000000  0 14G19R13R22G 1G21G22G14G 6R 5G24R12R21
                                G 3G17
  21161170.953   111202719.316    21161174.141    86651481.4434                 
                
  22031687.688   117647984.412    22031692.344    91504011.148    22031691.734  
  22031685.824  
  19585776.930   104550290.071    19585780.055    81316858.293    19585779.781  
  19585775.660  
  21290456.742   111882114.839    21290464.848    87180912.0014   21290464.863  
                
  23993795.328   126088265.921    23993799.570    98250605.2174                 
                
  22785164.172   119736889.250    22785167.328    93301484.7704                 
                
  20570881.516   108100717.442    20570886.957    84234349.0494   20570887.223  
                
  23946052.484   125837391.797    23946061.762    98055125.6994   23946062.637  
                
  22730041.812   121505099.097    22730046.926    94503969.991    22730046.871  
  22730041.078  
  23372167.922   122821590.633    23372176.184    95705159.6244   23372176.555  
                
  19467569.453   103992266.300    19467573.777    80882864.589    19467573.645  
  19467568.797  
  19986988.680   106954412.207    19986992.895    83186763.907    19986992.395  
  19986988.023  
  22740284.117   119501018.500    22740291.535    93117724.1894   22740292.262  
                
  20474561.664   107594554.108    20474566.617    83839938.6384   20474566.859  
                
 21  8  6  0 33  0.0000000  0 14G19R13R22G 1G21G22G14G 6R 5G24R12R21
                                G 3G17
  21156796.164   111179729.694    21156799.352    86633567.4644                 
                
  22024940.016   117611952.303    22024944.652    91475986.178    22024944.055  
  22024938.168  
  19583128.414   104536152.139    19583131.539    81305862.126    19583131.277  
  19583127.145  
  21295265.047   111907382.647    21295273.156    87200601.2034   21295273.176  
                
  23999695.672   126119272.425    23999699.949    98274766.1134                 
                
  22784723.508   119734573.540    22784726.637    93299680.3374                 
                
  20573679.031   108115418.497    20573684.480    84245804.4024   20573684.746  
                
  23938959.641   125800118.708    23938968.938    98026081.7764   23938969.824  
                
  22728690.305   121497874.457    22728695.410    94498350.830    22728695.352  
  22728689.574  
  23370201.703   122811258.141    23370209.957    95697108.3414   23370210.348  
                
  19467598.812   103992423.159    19467603.141    80882986.585    19467603.004  
  19467598.160  
  19991074.289   106976275.107    19991078.508    83203768.375    19991077.984  
  19991073.637  
  22736425.453   119480741.098    22736432.902    93101923.6194   22736433.609  
                
  20473733.375   107590201.472    20473738.309    83836546.9724   20473738.562  
                
 21  8  6  0 33 10.0000000  0 14G19R13R22G 1G21G22G14G 6R 5G24R12R21
                                G 3G17
  21152428.141   111156775.603    21152431.309    86615681.1624                 
                
  22018201.078   117575966.692    22018205.699    91447997.376    22018205.098  
  22018199.250  
  19580491.508   104522076.173    19580494.613    81294914.156    19580494.371  
  19580490.250  
  21300082.812   111932700.121    21300090.941    87220329.1024   21300090.949  
                
  24005598.688   126150292.889    24005602.973    98298937.9014                 
                
  22784295.086   119732322.140    22784298.188    93297926.0114                 
                
  20576487.102   108130174.925    20576492.559    84257302.9144   20576492.812  
                
  23931870.023   125762862.818    23931879.270    97997051.2184   23931880.234  
                
  22727355.039   121490736.662    22727360.109    94492799.210    22727360.043  
  22727354.312  
  23368247.805   122800990.408    23368256.027    95689107.5144   23368256.441  
                
  19467644.984   103992669.732    19467649.320    80883178.367    19467649.180  
  19467644.348  
  19995168.727   106998185.218    19995172.945    83220809.575    19995172.434  
  19995168.074  
  22732577.383   119460519.383    22732584.840    93086166.4454   22732585.551  
                
  20472912.125   107585885.738    20472917.043    83833184.0604   20472917.309  
                
 21  8  6  0 33 20.0000000  0 14G19R13R22G 1G21G22G14G 6R 5G24R12R21
                                G 3G17
  21148066.883   111133857.099    21148070.027    86597822.5974                 
                
  22011470.812   117540027.383    22011475.430    91420044.587    22011474.816  
  22011468.980  
  19577866.164   104508061.936    19577869.273    81284014.198    19577869.039  
  19577864.914  
  21304910.008   111958067.141    21304918.137    87240095.6084   21304918.137  
                
  24011504.344   126181327.320    24011508.617    98323120.5624                 
                
  22783878.891   119730135.050    22783881.969    93296221.7854                 
                
  20579305.688   108144986.693    20579311.141    84268844.5484   20579311.402  
                
  23924783.812   125725624.260    23924792.910    97968034.1414   23924793.934  
                
  22726036.031   121483685.784    22726041.062    94487315.205    22726041.008  
  22726035.309  
  23366306.227   122790787.408    23366314.426    95681157.1214   23366314.867  
                
  19467707.930   103993005.966    19467712.281    80883439.876    19467712.125  
  19467707.289  
  19999271.992   107020142.605    19999276.207    83237887.544    19999275.715  
  19999271.340  
  22728739.938   119440353.451    22728747.379    93070452.7504   22728748.109  
                
  20472097.883   107581606.865    20472102.789    83829849.8764   20472103.055  
                
 21  8  6  0 33 30.0000000  0 14G19R13R22G 1G21G22G14G 6R 5G24R12R21
                                G 3G17
  21143712.391   111110974.093    21143715.520    86579991.6884                 
                
  22004749.273   117504134.662    22004753.883    91392128.041    22004753.246  
  22004747.418  
  19575252.352   104494109.217    19575255.453    81273162.094    19575255.293  
  19575251.102  
  21309746.570   111983483.412    21309754.715    87259900.4914   21309754.707  
                
  24017412.617   126212375.440    24017416.891    98347313.8954                 
                
  22783474.891   119728012.044    22783477.895    93294567.5064                 
                
  20582134.766   108159853.555    20582140.207    84280429.1074   20582140.484  
                
  23917700.742   125688402.781    23917709.812    97939030.3984   23917710.852  
                
  22724733.234   121476721.644    22724738.254    94481898.664    22724738.215  
  22724732.535  
  23364376.945   122780648.989    23364385.129    95673257.0594   23364385.578  
                
  19467787.633   103993431.748    19467792.000    80883771.034    19467791.828  
  19467786.992  
  20003384.016   107042146.901    20003388.227    83255001.995    20003387.754  
  20003383.355  
  22724913.078   119420243.179    22724920.512    93054782.4174   22724921.254  
                
  20471290.625   107577364.701    20471295.531    83826544.2954   20471295.797  
                
 21  8  6  0 33 40.0000000  0 14G19R13R22G 1G21G22G14G 6R 5G24R12R21
                                G 3G17
  21139364.742   111088127.076    21139367.855    86562188.8234                 
                
  21998036.562   117468289.170    21998041.164    91364248.230    21998040.539  
  21998034.668  
  19572650.195   104480218.688    19572653.289    81262358.348    19572653.121  
  19572648.980  
  21314592.570   112008949.243    21314600.715    87279743.9944   21314600.715  
                
  24023323.531   126243437.532    24023327.801    98371518.1164                 
                
  22783083.188   119725953.612    22783086.086    93292963.5414                 
                
  20584974.406   108174775.936    20584979.852    84292056.9304   20584980.133  
                
  23910621.008   125651198.889    23910630.090    97910040.4014   23910631.141  
                
  22723446.742   121469844.669    22723451.789    94476549.912    22723451.734  
  22723446.062  
  23362460.047   122770575.601    23362468.176    95665407.6724   23362468.660  
                
  19467884.195   103993947.564    19467888.574    80884172.216    19467888.402  
  19467883.559  
  20007504.875   107064198.430    20007509.098    83272153.184    20007508.621  
  20007504.211  
  22721096.922   119400189.104    22721104.359    93039155.8704   22721105.109  
                
  20470490.422   107573159.626    20470495.332    83823267.6084   20470495.590  
                
 21  8  6  0 33 50.0000000  0 14G19R13R22G 1G21G22G14G 6R 5G24R12R21
                                G 3G17
  21135023.852   111065315.601    21135026.965    86544413.6634                 
                
  21991332.586   117432490.484    21991337.172    91336404.821    21991336.570  
  21991330.695  
  19570059.539   104466389.629    19570062.641    81251602.421    19570062.516  
  19570058.324  
  21319447.898   112034464.139    21319456.055    87299625.7284   21319456.059  
                
  24029237.016   126274513.136    24029241.270    98395732.8854                 
                
  22782703.680   119723959.343    22782706.484    93291409.5764                 
                
  20587824.523   108189753.377    20587829.984    84303727.6574   20587830.254  
                
  23903544.727   125614012.380    23903553.695    97881063.8744   23903554.734  
                
  22722176.500   121463054.514    22722181.543    94471268.667    22722181.500  
  22722175.832  
  23360555.445   122760566.873    23360563.512    95657608.6844   23360564.043  
                
  19467997.547   103994553.042    19468001.926    80884643.137    19468001.762  
  19467996.902  
  20011634.438   107086296.559    20011638.668    83289340.609    20011638.180  
  20011633.754  
  22717291.375   119380190.887    22717298.820    93023572.8634   22717299.574  
                
  20469697.188   107568991.151    20469702.102    83820019.4424   20469702.359  
                
 21  8  6  0 34  0.0000000  0 14G19R13R22G 1G21G22G14G 6R 5G24R12R21
                                G 3G17
  21130689.750   111042539.794    21130692.867    86526666.2844                 
                
  21984637.516   117396739.210    21984642.070    91308598.273    21984641.477  
  21984635.660  
  19567480.461   104452622.364    19567483.562    81240894.554    19567483.430  
  19567479.254  
  21324312.555   112060028.061    21324320.723    87319545.6554   21324320.723  
                
  24035153.086   126305602.249    24035157.344    98419958.1714                 
                
  22782336.406   119722029.345    22782339.125    93289905.6994                 
                
  20590685.125   108204785.921    20590690.586    84315441.3284   20590690.855  
                
  23896471.680   125576843.241    23896480.645    97852100.9404   23896481.668  
                
  22720922.523   121456351.321    22720927.578    94466055.085    22720927.516  
  22720921.863  
  23358663.180   122750622.908    23358671.211    95649860.1504   23358671.754  
                
  19468127.672   103995248.156    19468132.051    80885183.781    19468131.891  
  19468127.035  
  20015772.727   107108441.401    20015776.949    83306564.376    20015776.473  
  20015772.016  
  22713496.500   119360248.683    22713503.957    93008033.5034   22713504.699  
                
  20468910.930   107564859.369    20468915.848    83816799.8754   20468916.109  
                
 21  8  6  0 34 10.0000000  0 14G19R13R22G 1G21G22G14G 6R 5G24R12R21
                                G 3G17
  21126362.461   111019799.808    21126365.566    86508946.8254                 
                
  21977951.281   117361035.189    21977955.816    91280828.480    21977955.246  
  21977949.457  
  19564912.961   104438916.898    19564916.047    81230234.750    19564915.926  
  19564911.762  
  21329186.539   112085641.011    21329194.723    87339503.7964   21329194.707  
                
  24041071.758   126336705.031    24041076.027    98444194.0674                 
                
  22781981.398   119720163.755    22781984.059    93288451.9964                 
                
  20593556.234   108219873.664    20593561.695    84327198.0034   20593561.973  
                
  23889401.969   125539691.746    23889410.945    97823151.7264   23889411.941  
                
  22719684.859   121449735.242    22719689.906    94460909.259    22719689.844  
  22719684.164  
  23356783.266   122740743.865    23356791.281    95642162.2004   23356791.812  
                
  19468274.617   103996033.080    19468279.008    80885794.281    19468278.840  
  19468273.980  
  20019919.750   107130632.958    20019923.969    83323824.478    20019923.504  
  20019919.035  
  22709712.320   119340362.729    22709719.773    92992537.9624   22709720.508  
                
  20468131.695   107560764.466    20468136.613    83813609.0474   20468136.871  
                
 21  8  6  0 34 20.0000000  0 14G19R13R22G 1G21G22G14G 6R 5G24R12R21
                                G 3G17
  21122042.133   110997096.362    21122045.227    86491255.8284                 
                
  21971274.023   117325379.051    21971278.551    91253095.927    21971277.988  
  21971272.207  
  19562357.172   104425273.924    19562360.238    81219623.550    19562360.125  
  19562355.980  
  21334069.953   112111303.540    21334078.129    87359500.5674   21334078.117  
                
  24046993.102   126367821.897    24046997.402    98468440.9784                 
                
  22781638.750   119718363.165    22781641.355    93287048.9494                 
                
  20596437.953   108235017.197    20596443.426    84338998.1514   20596443.695  
                
  23882335.719   125502558.562    23882344.734    97794216.8064   23882345.715  
                
  22718463.594   121443206.896    22718468.621    94455831.646    22718468.590  
  22718462.891  
  23354915.828   122730930.402    23354923.828    95634515.3464   23354924.336  
                
  19468438.508   103996908.583    19468442.902    80886475.216    19468442.715  
  19468437.855  
  20024075.594   107152871.752    20024079.797    83341121.316    20024079.344  
  20024074.852  
  22705938.969   119320533.729    22705946.426    92977086.7954   22705947.168  
                
  20467359.594   107556707.056    20467364.516    83810447.4284   20467364.781  
                
 21  8  6  0 34 30.0000000  0 14G19R13R22G 1G21G22G14G 6R 5G24R12R21
                                G 3G17
  21117728.539   110974428.295    21117731.629    86473592.4074                 
                
  21964605.602   117289770.008    21964610.113    91225400.024    21964609.543  
  21964603.738  
  19559812.859   104411692.253    19559815.910    81209060.042    19559815.809  
  19559811.672  
  21338962.562   112137014.367    21338970.719    87379534.9744   21338970.734  
                
  24052916.898   126398951.634    24052921.207    98492697.9074                 
                
  22781308.250   119716626.428    22781310.805    93285695.6604                 
                
  20599330.070   108250215.347    20599335.566    84350840.8574   20599335.824  
                
  23875272.820   125465442.659    23875281.816    97765295.3344   23875282.773  
                
  22717258.555   121436765.313    22717263.590    94450821.533    22717263.570  
  22717257.816  
  23353060.664   122721181.384    23353068.676    95626918.7084   23353069.164  
                
  19468619.133   103997873.426    19468623.539    80887225.651    19468623.340  
  19468618.473  
  20028240.055   107175156.626    20028244.270    83358454.000    20028243.816  
  20028239.305  
  22702176.266   119300760.606    22702183.742    92961679.1864   22702184.477  
                
  20466594.406   107552685.967    20466599.328    83807314.1124   20466599.594  
                
 21  8  6  0 34 40.0000000  0 14G19R13R22G 1G21G22G14G 6R 5G24R12R21
                                G 3G17
  21113421.734   110951795.920    21113424.824    86455956.7954                 
                
  21957946.023   117254208.263    21957950.543    91197740.896    21957949.988  
  21957944.141  
  19557280.086   104398172.148    19557283.117    81198544.399    19557283.031  
  19557278.887  
  21343864.398   112162773.701    21343872.555    87399607.1784   21343872.582  
                
  24058843.211   126430094.562    24058847.539    98516965.1204                 
                
  22780989.969   119714953.893    22780992.484    93284392.3844                 
                
  20602232.633   108265468.376    20602238.145    84362726.3224   20602238.391  
                
  23868213.242   125428344.347    23868222.230    97736387.5534   23868223.195  
                
  22716069.805   121430410.794    22716074.836    94445879.130    22716074.812  
  22716069.027  
  23351217.797   122711497.135    23351225.816    95619372.5574   23351226.309  
                
  19468816.531   103998927.885    19468820.934    80888045.784    19468820.738  
  19468815.867  
  20032413.141   107197487.675    20032417.379    83375822.580    20032416.898  
  20032412.352  
  22698424.273   119281043.763    22698431.785    92946315.4224   22698432.508  
                
  20465836.188   107548701.562    20465841.117    83804209.3834   20465841.383  
                
 21  8  6  0 34 50.0000000  0 14G19R13R22G 1G21G22G14G 6R 5G24R12R21
                                G 3G17
  21109121.758   110929199.410    21109124.852    86438349.1374                 
                
  21951295.438   117218694.451    21951299.930    91170119.042    21951299.371  
  21951293.562  
  19554758.891   104384713.847    19554761.914    81188076.842    19554761.801  
  19554757.695  
  21348775.477   112188581.556    21348783.645    87419717.1884   21348783.668  
                
  24064772.055   126461250.738    24064776.398    98541242.6614                 
                
  22780683.930   119713345.684    22780686.410    93283139.2494                 
                
  20605145.656   108280776.384    20605151.168    84374654.6324   20605151.422  
                
  23861157.000   125391263.830    23861166.113    97707493.6724   23861167.031  
                
  22714897.352   121424143.400    22714902.363    94441004.473    22714902.336  
  22714896.551  
  23349387.305   122701877.831    23349395.309    95611876.9934   23349395.801  
                
  19469030.734   104000072.120    19469035.129    80888935.736    19469034.922  
  19469030.059  
  20036594.867   107219864.904    20036599.129    83393227.092    20036598.633  
  20036594.074  
  22694683.023   119261383.411    22694690.559    92930995.6804   22694691.258  
                
  20465084.961   107544753.859    20465089.891    83801133.2554   20465090.148  
                
 21  8  6  0 35  0.0000000  0 14G19R13R22G 1G21G22G14G 6R 5G24R12R21
                                G 3G17
  21104828.609   110906638.793    21104831.707    86420769.4424                 
                
  21944653.797   117183228.477    21944658.281    91142534.401    21944657.703  
  21944651.934  
  19552249.297   104371317.498    19552252.305    81177657.466    19552252.180  
  19552248.098  
  21353695.766   112214437.888    21353703.961    87439864.9724   21353703.957  
                
  24070703.391   126492420.147    24070707.742    98565530.4994                 
                
  22780390.148   119711801.897    22780392.598    93281936.2964                 
                
  20608069.141   108296139.379    20608074.656    84386625.7894   20608074.902  
                
  23854104.156   125354201.207    23854113.332    97678613.7184   23854114.223  
                
  22713741.195   121417963.152    22713746.184    94436197.635    22713746.164  
  22713740.324  
  23347569.180   122692323.527    23347577.172    95604432.0674   23347577.660  
                
  19469261.766   104001306.248    19469266.160    80889895.610    19469265.949  
  19469261.102  
  20040785.219   107242288.347    20040789.492    83410667.548    20040788.996  
  20040784.430  
  22690952.539   119241779.680    22690960.090    92915720.0574   22690960.781  
                
  20464340.719   107540842.891    20464345.656    83798085.7464   20464345.910  
                
 21  8  6  0 35 10.0000000  0 14G19R13R22G 1G21G22G14G 6R 5G24R12R21
                                G 3G17
  21100542.336   110884114.267    21100545.441    86403217.8724                 
                
  21938021.188   117147810.726    21938025.668    91114987.266    21938025.117  
  21938019.301  
  19549751.289   104357982.959    19549754.309    81167286.166    19549754.148  
  19549750.090  
  21358625.289   112240342.684    21358633.500    87460050.5284   21358633.480  
                
  24076637.250   126523602.722    24076641.609    98589828.5864                 
                
  22780108.648   119710322.607    22780111.066    93280783.6204                 
                
  20611003.117   108311557.456    20611008.648    84398639.8644   20611008.887  
                
  23847054.844   125317156.708    23847063.973    97649747.8764   23847064.848  
                
  22712601.375   121411870.323    22712606.352    94431458.781    22712606.332  
  22712600.438  
  23345763.453   122682834.379    23345771.445    95597037.9354   23345771.922  
                
  19469509.641   104002630.330    19469514.047    80890925.452    19469513.824  
  19469508.980  
  20044984.211   107264758.009    20044988.500    83428143.954    20044988.020  
  20044983.406  
  22687232.883   119222232.770    22687240.426    92900488.7134   22687241.125  
                
  20463603.508   107536968.818    20463608.449    83795066.9904   20463608.703  
                
 21  8  6  0 35 20.0000000  0 14G19R13R22G 1G21G22G14G 6R 5G24R12R21
                                G 3G17
  21096262.938   110861625.927    21096266.051    86385694.5004                 
                
  21931397.656   117112441.513    21931402.164    91087477.902    21931401.633  
  21931395.754  
  19547264.891   104344710.436    19547267.918    81156963.094    19547267.754  
  19547263.680  
  21363564.031   112266295.888    21363572.234    87480273.8084   21363572.230  
                
  24082573.609   126554798.474    24082578.031    98614136.9634                 
                
  22779839.430   119708907.872    22779841.820    93279681.2294                 
                
  20613947.570   108327030.616    20613953.105    84410696.8634   20613953.336  
                
  23840009.016   125280130.428    23840018.117    97620896.2284   23840018.973  
                
  22711477.953   121405865.076    22711482.898    94426788.033    22711482.875  
  22711476.973  
  23343970.133   122673410.439    23343978.137    95589694.6124   23343978.594  
                
  19469774.375   104004044.451    19469778.793    80892025.322    19469778.562  
  19469773.715  
  20049191.820   107287273.780    20049196.133    83445656.204    20049195.652  
  20049191.000  
  22683524.078   119202742.831    22683531.613    92885301.7514   22683532.309  
                
  20462873.320   107533131.662    20462878.270    83792077.0024   20462878.520  
                
 21  8  6  0 35 30.0000000  0 14G19R13R22G 1G21G22G14G 6R 5G24R12R21
                                G 3G17
  21091990.383   110839173.547    21091993.504    86368199.1504                 
                
  21924783.133   117077120.467    21924787.668    91060005.987    21924787.152  
  21924781.223  
  19544790.047   104331499.615    19544793.082    81146688.015    19544792.914  
  19544788.820  
  21368511.906   112292297.196    21368520.082    87500534.5584   21368520.098  
                
  24088512.461   126586007.248    24088516.938    98638455.4934                 
                
  22779582.453   119707557.519    22779584.812    93278629.0124                 
                
  20616902.453   108342558.594    20616907.988    84422796.5834   20616908.219  
                
  23832966.531   125243122.158    23832975.762    97592058.6504   23832976.566  
                
  22710370.859   121399947.153    22710375.766    94422185.191    22710375.770  
  22710369.859  
  23342189.180   122664051.519    23342197.215    95582401.9634   23342197.656  
                
  19470055.898   104005548.305    19470060.301    80893194.986    19470060.070  
  19470055.227  
  20053408.000   107309835.426    20053412.328    83463204.143    20053411.855  
  20053407.172  
  22679826.070   119183309.678    22679833.621    92870159.0544   22679834.305  
                
  20462150.117   107529331.254    20462155.070    83789115.6474   20462155.324  
                
 21  8  6  0 35 40.0000000  0 14G19R13R22G 1G21G22G14G 6R 5G24R12R21
                                G 3G17
  21087724.719   110816757.342    21087727.852    86350731.9814                 
                
  21918177.734   117041848.133    21918182.301    91032571.959    21918181.770  
  21918175.836  
  19542326.797   104318350.658    19542329.840    81136461.058    19542329.664  
  19542325.570  
  21373468.953   112318346.578    21373477.121    87520832.7744   21373477.133  
                
  24094453.758   126617228.890    24094458.250    98662784.0354                 
                
  22779337.742   119706271.601    22779340.070    93277627.0114                 
                
  20619867.789   108358141.484    20619873.320    84434939.0794   20619873.559  
                
  23825927.609   125206132.157    23825936.844    97563235.2794   23825937.617  
                
  22709280.141   121394116.650    22709285.016    94417650.374    22709285.047  
  22709279.086  
  23340420.633   122654757.735    23340428.723    95575160.0574   23340429.121  
                
  19470354.266   104007142.132    19470358.652    80894434.630    19470358.438  
  19470353.590  
  20057632.742   107332442.846    20057637.098    83480787.695    20057636.613  
  20057631.918  
  22676138.906   119163933.525    22676146.457    92855060.7664   22676147.121  
                
  20461433.922   107525567.641    20461438.883    83786182.9634   20461439.129  
                
 21  8  6  0 35 50.0000000  0 14G19R13R22G 1G21G22G14G 6R 5G24R12R21
                                G 3G17
  21083465.930   110794377.310    21083469.074    86333293.0014                 
                
  21911581.406   117006624.254    21911586.000    91005175.619    21911585.480  
  21911579.535  
  19539875.109   104305263.403    19539878.160    81126282.083    19539877.992  
  19539873.871  
  21378435.109   112344443.883    21378443.293    87541168.3404   21378443.293  
                
  24100397.477   126648463.303    24100401.961    98687122.5294                 
                
  22779105.297   119705050.107    22779107.590    93276675.2184                 
                
  20622843.555   108373779.203    20622849.086    84447124.3034   20622849.324  
                
  23818892.117   125169160.373    23818901.391    97534426.1324   23818902.129  
                
  22708205.812   121388373.759    22708210.684    94413183.668    22708210.711  
  22708204.746  
  23338664.469   122645529.110    23338672.613    95567968.9224   23338672.969  
                
  19470669.477   104008825.946    19470673.867    80895744.250    19470673.648  
  19470668.793  
  20061866.016   107355095.914    20061870.379    83498406.740    20061869.902  
  20061865.176  
  22672462.609   119144614.451    22672470.148    92840006.9514   22672470.820  
                
  20460724.727   107521840.794    20460729.695    83783278.9364   20460729.938  
                
 21  8  6  0 36  0.0000000  0 14G19R13R22G 1G21G22G14G 6R 5G24R12R21
                                G 3G17
  21079214.078   110772033.696    21079217.230    86315882.3974                 
                
  21904994.305   116971449.571    21904998.895    90977817.526    21904998.379  
  21904992.477  
  19537435.055   104292238.301    19537438.102    81116151.443    19537437.938  
  19537433.801  
  21383410.414   112370589.292    21383418.613    87561541.3774   21383418.613  
                
  24106343.641   126679710.677    24106348.086    98711471.1104                 
                
  22778885.148   119703893.271    22778887.430    93275773.7884                 
                
  20625829.805   108389471.965    20625835.344    84459352.4274   20625835.578  
                
  23811860.180   125132207.224    23811869.363    97505631.4304   23811870.121  
                
  22707147.852   121382718.384    22707152.734    94408785.048    22707152.770  
  22707146.789  
  23336920.758   122636365.884    23336928.926    95560828.7554   23336929.266  
                
  19471001.586   104010599.959    19471005.984    80897124.038    19471005.750  
  19471000.910  
  20066107.852   107377794.857    20066112.227    83516061.470    20066111.758  
  20066107.012  
  22668797.227   119125352.748    22668804.730    92824997.8444   22668805.418  
                
  20460022.562   107518150.945    20460027.539    83780403.7274   20460027.785  
                
 21  8  6  0 36 10.0000000  0 14G19R13R22G 1G21G22G14G 6R 5G24R12R21
                                G 3G17
  21074969.102   110749726.253    21074972.258    86298499.9904                 
                
  21898416.359   116936323.719    21898420.934    90950497.435    21898420.430  
  21898414.531  
  19535006.578   104279274.919    19535009.637    81106068.823    19535009.461  
  19535005.316  
  21388394.805   112396782.419    21388403.016    87581951.6014   21388403.016  
                
  24112292.219   126710970.655    24112296.652    98735829.5394                 
                
  22778677.250   119702800.819    22778679.551    93274922.5314                 
                
  20628826.469   108405219.492    20628832.016    84471623.2164   20628832.250  
                
  23804831.594   125095272.372    23804840.945    97476851.0724   23804841.648  
                
  22706106.305   121377150.696    22706111.223    94404454.624    22706111.258  
  22706105.250  
  23335189.453   122627267.850    23335197.656    95553739.3824   23335197.977  
                
  19471350.508   104012463.833    19471354.898    80898573.726    19471354.660  
  19471349.840  
  20070358.188   107400539.268    20070362.570    83533751.565    20070362.090  
  20070357.324  
  22665142.734   119106148.266    22665150.188    92810033.3164   22665150.914  
                
  20459327.398   107514497.829    20459332.379    83777557.1454   20459332.621  
                
 21  8  6  0 36 20.0000000  0 14G19R13R22G 1G21G22G14G 6R 5G24R12R21
                                G 3G17
  21070731.047   110727455.151    21070734.211    86281145.8854                 
                
  21891847.609   116901247.071    21891852.188    90923215.611    21891851.707  
  21891845.797  
  19532589.695   104266373.512    19532592.781    81096034.402    19532592.594  
  19532588.438  
  21393388.258   112423023.207    21393396.477    87602398.9604   21393396.469  
                
  24118243.211   126742243.325    24118247.637    98760197.8294                 
                
  22778481.633   119701772.842    22778483.934    93274121.5184                 
                
  20631833.555   108421021.803    20631839.109    84483936.6974   20631839.344  
                
  23797806.609   125058356.054    23797816.008    97448085.1374   23797816.695  
                
  22705081.156   121371670.653    22705086.078    94400192.368    22705086.117  
  22705080.098  
  23333470.570   122618235.081    23333478.801    95546700.8544   23333479.094  
                
  19471716.266   104014417.625    19471720.637    80900093.334    19471720.410  
  19471715.590  
  20074617.000   107423329.055    20074621.375    83551476.949    20074620.902  
  20074616.129  
  22661499.148   119087001.137    22661506.586    92795113.4884   22661507.336  
                
  20458639.234   107510881.535    20458644.223    83774739.2564   20458644.461  
                
 21  8  6  0 36 30.0000000  0 14G19R13R22G 1G21G22G14G 6R 5G24R12R21
                                G 3G17
  21066499.867   110705220.181    21066503.035    86263819.9424                 
                
  21885288.102   116866219.666    21885292.652    90895972.071    21885292.203  
  21885286.285  
  19530184.375   104253533.761    19530187.465    81086047.940    19530187.289  
  19530183.121  
  21398390.758   112449311.486    21398398.961    87622883.3374   21398398.973  
                
  24124196.602   126773528.510    24124201.016    98784575.9014                 
                
  22778298.273   119700809.327    22778300.586    93273370.7314                 
                
  20634851.039   108436878.777    20634856.609    84496292.7764   20634856.832  
                
  23790785.188   125021458.256    23790794.633    97419333.6044   23790795.258  
                
  22704072.352   121366278.031    22704077.289    94395998.108    22704077.324  
