     2.11           OBSERVATION DATA    M (MIXED)           RINEX VERSION / TYPE
EFT-CORS.RU                             20210813 103503 UTC PGM / RUN BY / DATE 
IRKT                                                        MARKER NAME         
                                                            MARKER NUMBER       
IRKT                EFT-CORS.RU                             OBSERVER / AGENCY   
0                   TRIMBLE BD970       2.0                 REC # / TYPE / VERS 
0                   UNKNOWN EXT NONE                        ANT # / TYPE        
  -967349.5145  3789899.4449  5021728.6725                  APPROX POSITION XYZ 
        0.0000        0.0000        0.0000                  ANTENNA: DELTA H/E/N
     1     1                                                WAVELENGTH FACT L1/2
     6    C1    L1    P2    L2    C2    P1                  # / TYPES OF OBSERV 
    10.000                                                  INTERVAL            
  2021     8     6     0    30    0.0000000     GPS         TIME OF FIRST OBS   
  2021     8     6     4    30    0.0000000     GPS         TIME OF LAST OBS    
     0                                                      RCV CLOCK OFFS APPL 
                                                            END OF HEADER       
 21  8  6  0 30  0.0000000  0 14G22G14G19R13R 5G 6G24R12R22R21G 3G 1
                                G17G21
  22771722.734   119666226.142    22771727.781    93246452.3484                 
                
  20512483.484   107793843.957    20512490.078    83995234.0004   20512489.906  
                
  21256507.344   111703713.601    21256512.293    87041873.4054                 
                
  22182652.711   118454135.565    22182657.387    92131013.435    22182657.215  
  22182650.762  
  22754155.414   121634018.439    22754161.418    94604254.887    22754161.430  
  22754154.289  
  24063584.516   126454987.424    24063594.395    98536401.1214   24063594.953  
                
  23445298.430   123205877.152    23445307.625    96004619.5744   23445307.867  
                
  19482143.500   104070103.406    19482149.121    80943489.538    19482148.129  
  19482142.578  
  19643409.844   104857872.933    19643414.145    81556140.963    19643413.887  
  19643408.508  
  19917913.953   106584786.422    19917918.578    82899334.565    19917918.094  
  19917912.457  
  22774973.461   119683325.806    22774982.980    93259774.8364   22774983.227  
                
  21200125.680   111407433.111    21200135.852    86811064.7554   21200135.305  
                
  20497246.086   107713765.267    20497252.621    83932924.6934   20497252.387  
                
  23884416.352   125513460.470    23884422.418    97802717.8304                 
                
 21  8  6  0 30 10.0000000  0 14G22G14G19R13R 5G 6G24R12R22R21G 3G 1
                                G17G21
  22771115.812   119663036.764    22771120.824    93243967.1314                 
                
  20515051.445   107807338.634    20515058.043    84005749.3304   20515057.871  
                
  21252005.484   111680056.165    21252010.488    87023439.0484                 
                
  22175744.461   118417245.909    22175749.117    92102321.499    22175748.918  
  22175742.523  
  22752586.109   121625629.618    22752592.121    94597730.264    22752592.141  
  22752585.039  
  24056453.969   126417516.160    24056463.871    98507202.7444   24056464.414  
                
  23443121.391   123194436.748    23443130.680    95995704.9854   23443130.902  
                
  19481843.164   104068498.971    19481848.766    80942241.642    19481847.773  
  19481842.250  
  19640571.336   104842720.746    19640575.633    81544355.932    19640575.422  
  19640570.035  
  19921824.805   106605714.143    19921829.438    82915611.672    19921828.949  
  19921823.301  
  22770969.984   119662287.422    22770979.488    93243381.3114   22770979.738  
                
  21204779.023   111431886.591    21204789.211    86830119.4224   21204788.660  
                
  20496266.086   107708615.305    20496272.637    83928911.7404   20496272.395  
                
  23890267.164   125544206.651    23890273.234    97826675.8914                 
                
 21  8  6  0 30 20.0000000  0 14G22G14G19R13R 5G 6G24R12R22R21G 3G 1
                                G17G21
  22770521.031   119659911.254    22770526.012    93241531.6834                 
                
  20517630.023   107820889.150    20517636.625    84016308.1634   20517636.441  
                
  21247510.148   111656433.108    21247515.184    87005031.4744                 
                
  22168844.367   118380399.877    22168849.016    92073663.479    22168848.820  
  22168842.418  
  22751032.820   121617326.472    22751038.840    94591272.261    22751038.852  
  22751031.777  
  24049326.453   126380060.794    24049336.367    98478016.7364   24049336.910  
                
  23440956.469   123183060.112    23440965.875    95986840.0924   23440966.055  
                
  19481559.516   104066983.818    19481565.121    80941063.185    19481564.117  
  19481558.605  
  19637744.203   104827629.430    19637748.520    81532618.255    19637748.301  
  19637742.969  
  19925744.664   106626690.121    19925749.301    82931926.314    19925748.816  
  19925743.180  
  22766976.805   119641303.247    22766986.309    93227030.0284   22766986.555  
                
  21209442.031   111456390.896    21209452.238    86849213.6824   21209451.676  
                
  20495292.984   107703501.642    20495299.555    83924927.0624   20495299.301  
                
  23896120.773   125574967.560    23896126.836    97850645.4184                 
                
 21  8  6  0 30 30.0000000  0 14G22G14G19R13R 5G 6G24R12R22R21G 3G 1
                                G17G21
  22769938.484   119656849.916    22769943.418    93239146.2314                 
                
  20520219.289   107834495.764    20520225.898    84026910.7214   20520225.723  
                
  21243021.398   111632844.584    21243026.469    86986650.8314                 
                
  22161952.492   118343597.649    22161957.145    92045039.546    22161956.949  
  22161950.535  
  22749495.719   121609109.649    22749501.727    94584881.386    22749501.734  
  22749494.684  
  24042202.023   126342621.646    24042211.930    98448843.3824   24042212.461  
                
  23438803.766   123171747.554    23438813.289    95978025.1184   23438813.406  
                
  19481292.648   104065558.193    19481298.258    80939954.370    19481297.250  
  19481291.742  
  19634928.617   104812599.620    19634932.949    81520928.405    19634932.707  
  19634927.426  
  19929673.602   106647714.576    19929678.234    82948278.659    19929677.758  
  19929672.133  
  22762994.031   119620373.645    22763003.516    93210721.2684   22763003.766  
                
  21214114.766   111480946.227    21214124.973    86868347.7024   21214124.418  
                
  20494326.852   107698424.557    20494333.441    83920970.8924   20494333.180  
                
  23901977.258   125605743.489    23901983.309    97874626.6484                 
                
 21  8  6  0 30 40.0000000  0 14G22G14G19R13R 5G 6G24R12R22R21G 3G 1
                                G17G21
  22769368.086   119653852.528    22769372.988    93236810.6124                 
                
  20522819.164   107848158.237    20522825.781    84037556.7954   20522825.605  
                
  21238539.203   111609290.521    21238544.270    86968297.0114                 
                
  22155068.797   118306839.247    22155073.465    92016449.698    22155073.262  
  22155066.855  
  22747974.664   121600978.811    22747980.672    94578557.400    22747980.672  
  22747973.688  
  24035080.641   126305198.609    24035090.543    98419682.5784   24035091.074  
                
  23436663.219   123160498.908    23436672.836    95969259.9384   23436672.906  
                
  19481042.461   104064221.783    19481048.066    80938914.932    19481047.055  
  19481041.562  
  19632124.438   104797630.729    19632128.766    81509285.940    19632128.523  
  19632123.309  
  19933611.508   106668787.053    19933616.129    82964668.349    19933615.652  
  19933610.051  
  22759021.602   119599498.471    22759031.066    93194454.9124   22759031.305  
                
  21218797.125   111505552.227    21218807.324    86887521.2144   21218806.785  
                
  20493367.633   107693383.849    20493374.238    83917043.0684   20493373.973  
                
  23907836.523   125636534.126    23907842.582    97898619.3364                 
                
 21  8  6  0 30 50.0000000  0 14G22G14G19R13R 5G 6G24R12R22R21G 3G 1
                                G17G21
  22768809.930   119650919.381    22768814.789    93234525.0504                 
                
  20525429.734   107861876.807    20525436.355    84048246.5834   20525436.180  
                
  21234063.609   111585771.168    21234068.695    86949970.2614                 
                
  22148193.445   118270125.315    22148198.102    91987894.426    22148197.906  
  22148191.477  
  22746469.758   121592934.282    22746475.766    94572300.559    22746475.758  
  22746468.836  
  24027962.406   126267791.999    24027972.305    98390534.5774   24027972.828  
                
  23434534.898   123149314.463    23434544.609    95960544.7834   23434544.637  
                
  19480809.086   104062975.133    19480814.691    80937945.319    19480813.688  
  19480808.199  
  19629331.711   104782723.008    19629336.035    81497691.052    19629335.801  
  19629330.641  
  19937558.430   106689907.819    19937563.062    82981095.605    19937562.582  
  19937556.996  
  22755059.609   119578678.112    22755069.059    93178231.2704   22755069.301  
                
  21223489.172   111530209.101    21223499.363    86906734.3674   21223498.840  
                
  20492415.398   107688379.802    20492422.020    83913143.8144   20492421.750  
                
  23913698.633   125667339.600    23913704.699    97922623.5854                 
                
 21  8  6  0 31  0.0000000  0 14G22G14G19R13R 5G 6G24R12R22R21G 3G 1
                                G17G21
  22768263.875   119648049.902    22768268.688    93232289.1014                 
                
  20528050.875   107875651.002    20528057.516    84058979.7174   20528057.328  
                
  21229594.570   111562286.192    21229599.668    86931670.2824                 
                
  22141326.336   118233455.375    22141330.988    91959373.375    22141330.797  
  22141324.316  
  22744980.922   121584975.609    22744986.926    94566110.488    22744986.910  
  22744980.055  
  24020847.211   126230401.469    24020857.133    98361399.1074   24020857.625  
                
  23432418.695   123138193.820    23432428.543    95951879.3644   23432428.516  
                
  19480592.414   104061817.667    19480598.004    80937045.060    19480596.996  
  19480591.535  
  19626550.453   104767876.425    19626554.773    81486143.714    19626554.531  
  19626549.449  
  19941514.297   106711076.463    19941518.934    82997560.101    19941518.453  
  19941512.879  
  22751107.977   119557912.205    22751117.406    93162050.0604   22751117.660  
                
  21228190.805   111554916.303    21228200.992    86925986.7254   21228200.473  
                
  20491470.070   107683412.018    20491476.695    83909272.8094   20491476.426  
                
  23919563.469   125698159.479    23919569.539    97946639.0624                 
                
 21  8  6  0 31 10.0000000  0 14G22G14G19R13R 5G 6G24R12R22R21G 3G 1
                                G17G21
  22767730.062   119645244.712    22767734.836    93230103.2474                 
                
  20530682.680   107889481.202    20530689.332    84069756.4914   20530689.152  
                
  21225132.133   111538835.938    21225137.254    86913397.3584                 
                
  22134467.562   118196830.029    22134472.219    91930887.014    22134472.027  
  22134465.527  
  22743508.250   121577103.361    22743514.270    94559987.637    22743514.258  
  22743507.406  
  24013735.172   126193027.431    24013745.098    98332276.4814   24013745.582  
                
  23430314.734   123127137.413    23430324.691    95943263.9784   23430324.605  
                
  19480392.492   104060749.750    19480398.086    80936214.458    19480397.074  
  19480391.633  
  19623780.641   104753091.025    19623784.961    81474643.966    19623784.691  
  19623779.703  
  19945479.117   106732293.019    19945483.766    83014061.871    19945483.289  
  19945477.711  
  22747166.797   119537201.220    22747176.203    93145911.6494   22747176.453  
                
  21232902.055   111579674.107    21232912.258    86945278.5104   21232911.730  
                
  20490531.688   107678480.839    20490538.332    83905430.3354   20490538.062  
                
  23925431.086   125728994.054    23925437.184    97970666.0194                 
                
 21  8  6  0 31 20.0000000  0 14G22G14G19R13R 5G 6G24R12R22R21G 3G 1
                                G17G21
  22767208.422   119642503.507    22767213.148    93227967.2504                 
                
  20533325.078   107903367.060    20533331.742    84080576.6334   20533331.562  
                
  21220676.250   111515420.169    21220681.398    86895151.3144                 
                
  22127617.070   118160248.777    22127621.691    91902434.930    22127621.477  
  22127614.988  
  22742051.656   121569317.029    22742057.680    94553931.611    22742057.676  
  22742050.820  
  24006626.219   126155669.696    24006636.172    98303166.5684   24006636.664  
                
  23428222.945   123116144.956    23428233.004    95934698.4374   23428232.844  
                
  19480209.328   104059771.266    19480214.906    80935453.412    19480213.895  
  19480208.480  
  19621022.234   104738366.474    19621026.543    81463191.542    19621026.277  
  19621021.344  
  19949452.852   106753557.262    19949457.504    83030600.720    19949457.027  
  19949451.398  
  22743236.023   119516544.950    22743245.406    93129815.8804   22743245.684  
                
  21237622.859   111604482.073    21237633.078    86964609.3924   21237632.547  
                
  20489600.219   107673585.958    20489606.875    83901616.1454   20489606.609  
                
  23931301.453   125759842.966    23931307.523    97994704.1174                 
                
 21  8  6  0 31 30.0000000  0 14G22G14G19R13R 5G 6G24R12R22R21G 3G 1
                                G17G21
  22766699.000   119639826.503    22766703.695    93225881.2804                 
                
  20535978.102   107917308.762    20535984.777    84091440.2874   20535984.598  
                
  21216226.984   111492039.138    21216232.156    86876932.3274                 
                
  22120774.984   118123712.488    22120779.582    91874017.819    22120779.352  
  22120772.875  
  22740611.234   121561617.279    22740617.266    94547942.941    22740617.273  
  22740610.406  
  23999520.414   126118328.484    23999530.391    98274069.5304   23999530.859  
                
  23426143.344   123105216.684    23426153.469    95926182.9064   23426153.250  
                
  19480042.906   104058882.294    19480048.473    80934761.983    19480047.477  
  19480042.074  
  19618275.320   104723703.262    19618279.605    81451786.818    19618279.340  
  19618274.473  
  19953435.516   106774869.279    19953440.156    83047176.722    19953439.676  
  19953434.031  
  22739315.727   119495943.701    22739325.082    93113762.9724   22739325.371  
                
  21242353.227   111629340.335    21242363.453    86983979.4644   21242362.918  
                
  20488675.734   107668727.738    20488682.402    83897830.5194   20488682.133  
                
  23937174.570   125790706.421    23937180.621    98018753.5614                 
                
 21  8  6  0 31 40.0000000  0 14G22G14G19R13R 5G 6G24R12R22R21G 3G 1
                                G17G21
  22766201.789   119637213.727    22766206.465    93223845.3634                 
                
  20538641.750   107931306.299    20538648.441    84102347.4524   20538648.266  
                
  21211784.312   111468692.816    21211789.512    86858740.4014                 
                
  22113941.281   118087220.946    22113945.859    91845635.524    22113945.613  
  22113939.133  
  22739186.969   121554003.821    22739193.000    94542021.379    22739192.988  
  22739186.145  
  23992417.773   126081003.920    23992427.754    98244985.4654   23992428.207  
                
  23424075.992   123094352.663    23424086.160    95917717.4454   23424085.922  
                
  19479893.266   104058082.905    19479898.812    80934140.228    19479897.809  
  19479892.453  
  19615539.852   104709101.197    19615544.133    81440429.662    19615543.875  
  19615539.035  
  19957427.078   106796228.974    19957431.727    83063789.823    19957431.234  
  19957425.609  
  22735405.906   119475397.589    22735415.238    93097753.0314   22735415.539  
                
  21247093.156   111654248.834    21247103.383    87003388.6804   21247102.863  
                
  20487758.156   107663905.896    20487764.836    83894073.2434   20487764.570  
                
  23943050.438   125821584.273    23943056.461    98042814.2194                 
                
 21  8  6  0 31 50.0000000  0 14G22G14G19R13R 5G 6G24R12R22R21G 3G 1
                                G17G21
  22765716.805   119634665.109    22765721.457    93221859.4344                 
                
  20541316.000   107945359.576    20541322.719    84113298.0514   20541322.543  
                
  21207348.258   111445381.196    21207353.465    86840575.5124                 
                
  22107115.977   118050774.301    22107120.535    91817288.150    22107120.277  
  22107113.820  
  22737778.883   121546476.890    22737784.934    94536167.116    22737784.926  
  22737778.090  
  23985318.328   126043696.033    23985328.266    98215914.3654   23985328.730  
                
  23422020.852   123083552.869    23422031.059    95909302.0294   23422030.793  
                
  19479760.391   104057373.093    19479765.918    80933588.152    19479764.910  
  19479759.602  
  19612815.836   104694560.199    19612820.113    81429119.997    19612819.879  
  19612815.059  
  19961427.547   106817636.238    19961432.180    83080439.903    19961431.691  
  19961426.070  
  22731506.586   119454906.611    22731515.906    93081786.0624   22731516.219  
                
  21251842.609   111679207.361    21251852.836    87022836.8764   21251852.316  
                
  20486847.516   107659120.420    20486854.207    83890344.3034   20486853.941  
                
  23948929.016   125852476.412    23948935.031    98066886.0134                 
                
 21  8  6  0 32  0.0000000  0 14G22G14G19R13R 5G 6G24R12R22R21G 3G 1
                                G17G21
  22765244.031   119632180.722    22765248.664    93219923.5604                 
                
  20544000.867   107959468.592    20544007.609    84124292.0844   20544007.426  
                
  21202918.844   111422104.480    21202924.039    86822437.8124                 
                
  22100299.188   118014373.081    22100303.719    91788976.090    22100303.457  
  22100297.035  
  22736386.984   121539036.368    22736393.039    94530380.042    22736393.016  
  22736386.234  
  23978222.047   126006404.891    23978232.012    98186856.3464   23978232.480  
                
  23419977.945   123072817.359    23419988.188    95900936.7064   23419987.902  
                
  19479644.289   104056752.881    19479649.801    80933105.767    19479648.797  
  19479643.520  
  19610103.281   104680080.409    19610107.535    81417857.936    19610107.324  
  19610102.504  
  19965436.867   106839090.841    19965441.469    83097126.799    19965440.988  
  19965435.398  
  22727617.797   119434470.938    22727627.117    93065862.1744   22727627.430  
                
  21256601.578   111704215.879    21256611.805    87042324.0304   21256611.277  
                
  20485943.797   107654371.388    20485950.508    83886643.7664   20485950.246  
                
  23954810.305   125883382.726    23954816.305    98090968.8444                 
                
 21  8  6  0 32 10.0000000  0 14G22G14G19R13R 5G 6G24R12R22R21G 3G 1
                                G17G21
  22764783.453   119629760.366    22764788.066    93218037.5834                 
                
  20546696.312   107973633.188    20546703.066    84135329.4224   20546702.879  
                
  21198496.031   111398862.456    21198501.199    86804327.1514                 
                
  22093490.867   117978017.025    22093495.363    91760699.175    22093495.086  
  22093488.695  
  22735011.258   121531682.297    22735017.305    94524660.211    22735017.281  
  22735010.582  
  23971128.914   125969130.375    23971138.973    98157811.3114   23971139.406  
                
  23417947.258   123062146.022    23417957.508    95892621.3894   23417957.223  
                
  19479544.953   104056222.222    19479550.445    80932693.029    19479549.441  
  19479544.199  
  19607402.188   104665661.723    19607406.426    81406643.402    19607406.203  
  19607401.402  
  19969455.008   106860592.713    19969459.594    83113850.480    19969459.121  
  19969453.559  
  22723739.508   119414090.456    22723748.848    93049981.2984   22723749.137  
                
  21261370.000   111729274.097    21261380.227    87061849.9124   21261379.691  
                
  20485047.000   107649658.678    20485053.711    83882971.5204   20485053.453  
                
  23960694.258   125914303.051    23960700.258    98115062.5954                 
                
 21  8  6  0 32 20.0000000  0 14G22G14G19R13R 5G 6G24R12R22R21G 3G 1
                                G17G21
  22764335.109   119627404.422    22764339.719    93216201.7974                 
                
  20549402.375   107987853.647    20549409.152    84146410.2944   20549408.965  
                
  21194079.891   111375655.484    21194085.016    86786243.7994                 
                
  22086691.047   117941706.473    22086695.527    91732457.653    22086695.250  
  22086688.902  
  22733651.758   121524414.994    22733657.766    94519007.865    22733657.750  
  22733651.121  
  23964039.062   125931872.954    23964049.148    98128779.5594   23964049.555  
                
  23415928.828   123051539.180    23415939.062    95884356.3354   23415938.785  
                
  19479462.430   104055781.382    19479467.914    80932350.150    19479466.906  
  19479461.695  
  19604712.570   104651304.370    19604716.793    81395476.575    19604716.570  
  19604711.762  
  19973482.008   106882142.021    19973486.594    83130611.063    19973486.117  
  19973480.625  
  22719871.820   119393765.618    22719881.156    93034143.7774   22719881.430  
                
  21266147.930   111754382.274    21266158.156    87081414.7264   21266157.605  
                
  20484157.164   107644982.552    20484163.879    83879327.7854   20484163.625  
                
  23966580.930   125945237.655    23966586.941    98139167.4724                 
                
 21  8  6  0 32 30.0000000  0 14G22G14G19R13R 5G 6G24R12R22R21G 3G 1
                                G17G21
  22763899.039   119625112.858    22763903.637    93214416.1644                 
                
  20552119.062   108002129.889    20552125.859    84157534.6294   20552125.660  
                
  21189670.430   111352483.596    21189675.496    86768187.7794                 
                
  22079899.820   117905441.728    22079904.277    91704251.741    22079904.012  
  22079897.707  
  22732308.477   121517234.417    22732314.449    94513422.975    22732314.430  
  22732307.852  
  23956952.469   125894632.604    23956962.531    98099761.0944   23956962.930  
                
  23413922.672   123040996.827    23413932.871    95876141.5264   23413932.617  
                
  19479396.727   104055430.366    19479402.211    80932077.136    19479401.199  
  19479396.004  
  19602034.430   104637008.286    19602038.641    81384357.401    19602038.426  
  19602033.621  
  19977517.852   106903738.649    19977522.414    83147408.435    19977521.941  
  19977516.512  
  22716014.703   119373496.419    22716024.047    93018349.6114   22716024.309  
                
  21270935.328   111779540.203    21270945.547    87101018.3004   21270944.996  
                
  20483274.273   107640342.991    20483281.000    83875712.5484   20483280.742  
                
  23972470.266   125976186.322    23972476.301    98163283.3084                 
                
 21  8  6  0 32 40.0000000  0 14G22G14G19R13R 5G 6G24R12R22R21G 3G 1
                                G17G21
  22763475.172   119622885.426    22763479.781    93212680.5104                 
                
  20554846.320   108016461.693    20554853.141    84168702.2614   20554852.941  
                
  21185267.602   111329346.574    21185272.598    86750158.9344                 
                
  22073117.125   117869222.573    22073121.574    91676081.299    22073121.293  
  22073115.043  
  22730981.414   121510140.472    22730987.352    94507905.466    22730987.332  
  22730980.809  
  23949869.062   125857409.157    23949879.129    98070755.8344   23949879.535  
                
  23411928.773   123030518.813    23411938.883    95867976.8384   23411938.668  
                
  19479347.773   104055168.907    19479353.262    80931873.778    19479352.262  
  19479347.090  
  19599367.734   104622773.343    19599371.949    81373285.781    19599371.730  
  19599366.910  
  19981562.492   106925382.232    19981567.020    83164242.320    19981566.543  
  19981561.160  
  22712168.156   119353282.773    22712177.496    93002598.7334   22712177.773  
                
  21275732.133   111804747.608    21275742.332    87120660.4374   21275741.785  
                
  20482398.320   107635739.789    20482405.043    83872125.6364   20482404.781  
                
  23978362.250   126007148.826    23978368.312    98187409.9274                 
                
 21  8  6  0 32 50.0000000  0 14G22G14G19R13R 5G 6G24R12R22R21G 3G 1
                                G17G21
  22763063.500   119620722.125    22763068.105    93210994.8294                 
                
  20557584.141   108030848.990    20557590.977    84179913.1354   20557590.777  
                
  21180871.422   111306244.541    21180876.359    86732157.3504                 
                
  22066343.023   117833049.188    22066347.426    91647946.438    22066347.121  
  22066340.969  
  22729670.531   121503133.118    22729676.445    94502455.305    22729676.418  
  22729669.953  
  23942788.891   125820202.714    23942798.992    98041763.8304   23942799.402  
                
  23409947.125   123020105.166    23409957.125    95859862.3014   23409956.922  
                
  19479315.602   104054997.064    19479321.094    80931740.123    19479320.098  
  19479314.949  
  19596712.500   104608599.492    19596716.711    81362261.673    19596716.508  
  19596711.668  
  19985615.875   106947072.739    19985620.391    83181112.720    19985619.910  
  19985614.582  
  22708332.219   119333124.753    22708341.535    92986891.1894   22708341.805  
                
  21280538.344   111830004.378    21280548.520    87140341.0324   21280547.980  
                
  20481529.273   107631172.898    20481535.988    83868567.0134   20481535.730  
                
  23984256.852   126038125.143    23984262.953    98211547.3084                 
                
 21  8  6  0 33  0.0000000  0 14G22G14G19R13R 5G 6G24R12R22R21G 3G 1
                                G17G21
  22762664.062   119618623.161    22762668.672    93209359.2814                 
                
  20560332.531   108045291.919    20560339.383    84191167.3524   20560339.180  
                
  21176481.922   111283177.585    21176486.801    86714183.1024                 
                
  22059577.500   117796921.775    22059581.879    91619847.340    22059581.602  
  22059575.527  
  22728375.898   121496212.558    22728381.777    94497072.642    22728381.730  
  22728375.312  
  23935711.992   125783013.472    23935722.133    98012785.2134   23935722.523  
                
  23407977.727   123009756.005    23407987.598    95851798.0284   23407987.426  
                
  19479300.258   104054915.081    19479305.746    80931676.347    19479304.754  
  19479299.629  
  19594068.727   104594486.896    19594072.945    81351285.221    19594072.750  
  19594067.879  
  19989678.008   106968810.112    19989682.512    83198019.569    19989682.027  
  19989676.734  
  22704506.875   119313022.561    22704516.180    92971227.1704   22704516.469  
                
  21285353.945   111855310.537    21285364.078    87160060.1034   21285363.559  
                
  20480667.141   107626642.433    20480673.863    83865036.7854   20480673.602  
                
  23990154.102   126069115.436    23990160.238    98235695.5834                 
                
 21  8  6  0 33 10.0000000  0 14G22G14G19R13R 5G 6G24R12R22R21G 3G 1
                                G17G21
  22762276.898   119616588.617    22762281.504    93207773.9384                 
                
  20563091.539   108059790.540    20563098.410    84202464.9744   20563098.199  
                
  21172099.109   111260145.750    21172103.945    86696236.2144                 
                
  22052820.695   117760840.737    22052825.047    91591784.304    22052824.770  
  22052818.750  
  22727097.539   121489378.958    22727103.367    94491757.616    22727103.309  
  22727096.949  
  23928638.398   125745841.578    23928648.598    97983820.1274   23928648.926  
                
  23406020.656   122999471.515    23406030.320    95843784.1274   23406030.258  
                
  19479301.742   104054922.973    19479307.242    80931682.487    19479306.254  
  19479301.160  
  19591436.477   104580435.786    19591440.703    81340356.586    19591440.488  
  19591435.594  
  19993748.914   106990594.359    19993753.398    83214962.873    19993752.910  
  19993747.641  
  22700692.219   119292976.439    22700701.504    92955606.8244   22700701.805  
                
  21290178.945   111880666.067    21290189.047    87179817.6614   21290188.535  
                
  20479811.984   107622148.569    20479818.715    83861535.0764   20479818.449  
                
  23996054.008   126100119.522    23996060.141    98259854.5884                 
                
 21  8  6  0 33 20.0000000  0 14G22G14G19R13R 5G 6G24R12R22R21G 3G 1
                                G17G21
  22761901.961   119614618.359    22761906.559    93206238.6894                 
                
  20565861.109   108074344.682    20565867.996    84213805.8544   20565867.781  
                
  21167722.969   111237148.956    21167727.770    86678316.6334                 
                
  22046072.477   117724805.708    22046076.832    91563757.071    22046076.484  
  22046070.562  
  22725835.414   121482632.230    22725841.215    94486510.182    22725841.133  
  22725834.844  
  23921568.102   125708687.000    23921578.328    97954868.5234   23921578.633  
                
  23404075.875   122989251.531    23404085.324    95835820.4994   23404085.379  
                
  19479320.000   104055020.534    19479325.523    80931758.372    19479324.535  
  19479319.473  
  19588815.672   104566445.799    19588819.918    81329475.493    19588819.711  
  19588814.754  
  19997828.570   107012425.390    19997833.043    83231942.564    19997832.551  
  19997827.254  
  22696888.211   119272986.279    22696897.496    92940030.0904   22696897.809  
                
  21295013.289   111906070.725    21295023.355    87199613.5034   21295022.848  
                
  20478963.758   107617691.135    20478970.508    83858061.7584   20478970.234  
                
  24001956.461   126131137.202    24001962.613    98284024.2254                 
                
 21  8  6  0 33 30.0000000  0 14G22G14G19R13R 5G 6G24R12R22R21G 3G 1
                                G17G21
  22761539.297   119612712.530    22761543.863    93204753.6304                 
                
  20568641.273   108088954.465    20568648.176    84225190.0974   20568647.961  
                
  21163353.555   111214187.470    21163358.332    86660424.5734                 
                
  22039333.023   117688817.363    22039337.367    91535766.139    22039337.027  
  22039331.113  
  22724589.570   121475972.559    22724595.348    94481330.458    22724595.266  
  22724588.949  
  23914501.148   125671549.936    23914511.371    97925930.5564   23914511.688  
                
  23402143.398   122979096.280    23402152.730    95827907.3184   23402152.840  
                
  19479355.125   104055208.049    19479360.656    80931904.213    19479359.672  
  19479354.637  
  19586206.367   104552517.086    19586210.621    81318642.052    19586210.363  
  19586205.410  
  20001916.977   107034303.193    20001921.441    83248958.634    20001920.941  
  20001915.605  
  22693094.906   119253052.328    22693104.223    92924497.1574   22693104.512  
                
  21299857.008   111931524.582    21299867.047    87219447.6784   21299866.539  
                
  20478122.516   107613270.326    20478129.273    83854616.9764   20478128.996  
                
  24007861.578   126162168.634    24007867.703    98308204.5434                 
                
 21  8  6  0 33 40.0000000  0 14G22G14G19R13R 5G 6G24R12R22R21G 3G 1
                                G17G21
  22761188.805   119610870.727    22761193.344    93203318.4654                 
                
  20571431.930   108103619.431    20571438.828    84236617.3264   20571438.617  
                
  21158990.766   111191260.922    21158995.543    86642559.7354                 
                
  22032602.250   117652875.470    22032606.582    91507811.332    22032606.238  
  22032600.344  
  22723359.945   121469399.547    22723365.719    94476218.128    22723365.621  
  22723359.250  
  23907437.438   125634429.988    23907447.656    97897005.9414   23907447.953  
                
  23400223.148   122969005.335    23400232.438    95820044.2514   23400232.543  
                
  19479406.977   104055485.093    19479412.531    80932119.692    19479411.543  
  19479406.531  
  19583608.469   104538649.426    19583612.742    81307856.106    19583612.477  
  19583607.496  
  20006014.008   107056227.218    20006018.461    83266010.641    20006017.973  
  20006012.629  
  22689312.234   119233174.279    22689321.578    92909007.7644   22689321.828  
                
  21304709.969   111957027.083    21304719.969    87239319.7524   21304719.461  
                
  20477288.133   107608885.661    20477294.902    83851200.3514   20477294.605  
                
  24013769.148   126193213.188    24013775.254    98332395.1004                 
                
 21  8  6  0 33 50.0000000  0 14G22G14G19R13R 5G 6G24R12R22R21G 3G 1
                                G17G21
  22760850.633   119609093.580    22760855.168    93201933.6834                 
                
  20574233.203   108118340.141    20574240.109    84248088.0094   20574239.895  
                
  21154634.750   111168369.891    21154639.531    86624722.5734                 
                
  22025880.289   117616980.621    22025884.637    91479893.139    22025884.297  
  22025878.398  
  22722146.680   121462913.855    22722152.418    94471173.691    22722152.328  
  22722145.934  
  23900377.141   125597327.877    23900387.340    97868095.2134   23900387.617  
                
  23398315.250   122958979.326    23398324.500    95812231.7974   23398324.613  
                
  19479475.742   104055852.357    19479481.320    80932405.338    19479480.336  
  19479475.332  
  19581022.094   104524843.147    19581026.367    81297117.887    19581026.086  
  19581021.070  
  20010119.742   107078197.842    20010124.223    83283098.913    20010123.730  
  20010118.355  
  22685540.336   119213352.801    22685549.688    92893562.4674   22685549.918  
                
  21309572.289   111982578.730    21309582.254    87259230.1264   21309581.777  
                
  20476460.750   107604537.669    20476467.523    83847812.3084   20476467.211  
                
  24019679.352   126224271.446    24019685.441    98356596.3444                 
                
 21  8  6  0 34  0.0000000  0 14G22G14G19R13R 5G 6G24R12R22R21G 3G 1
                                G17G21
  22760524.664   119607380.699    22760529.211    93200598.9764                 
                
  20577044.984   108133116.180    20577051.895    84259601.7944   20577051.680  
                
  21150285.406   111145514.003    21150290.188    86606912.7934                 
                
  22019167.156   117581132.945    22019171.504    91452011.622    22019171.180  
  22019165.277  
  22720949.656   121456515.124    22720955.379    94466196.909    22720955.293  
  22720948.910  
  23893320.148   125560243.245    23893330.363    97839198.1074   23893330.609  
                
  23396419.641   122949017.894    23396428.785    95804469.6404   23396428.926  
                
  19479561.289   104056309.314    19479566.883    80932760.742    19479565.910  
  19479560.902  
  19578447.164   104511098.067    19578451.441    81286427.267    19578451.164  
  19578446.090  
  20014234.133   107100214.737    20014238.609    83300223.151    20014238.117  
  20014232.742  
  22681779.125   119193587.569    22681788.469    92878160.9934   22681788.715  
                
  21314443.852   112008179.014    21314453.777    87279178.3984   21314453.328  
                
  20475640.242   107600225.973    20475647.023    83844452.5484   20475646.711  
                
  24025592.047   126255342.942    24025598.141    98380807.8994                 
                
 21  8  6  0 34 10.0000000  0 14G22G14G19R13R 5G 6G24R12R22R21G 3G 1
                                G17G21
  22760210.984   119605732.302    22760215.523    93199314.5164                 
                
  20579867.344   108147947.716    20579874.250    84271158.8214   20579874.043  
                
  21145942.805   111122693.502    21145947.605    86589130.5944                 
                
  22012462.867   117545332.347    22012467.207    91424166.703    22012466.871  
  22012460.953  
  22719768.961   121450203.595    22719774.652    94461287.939    22719774.555  
  22719768.207  
  23886266.523   125523176.344    23886276.797    97810314.8364   23886277.016  
                
  23394536.391   122939121.281    23394545.359    95796757.9804   23394545.605  
                
  19479663.672   104056856.227    19479669.301    80933186.116    19479668.332  
  19479663.312  
  19575883.719   104497414.253    19575888.008    81275784.310    19575887.797  
  19575882.621  
  20018357.172   107122277.955    20018361.641    83317383.421    20018361.156  
  20018355.793  
  22678028.680   119173878.879    22678038.023    92862803.5784   22678038.273  
                
  21319324.711   112033828.032    21319334.594    87299164.6374   21319334.156  
                
  20474826.711   107595950.824    20474833.496    83841121.2654   20474833.195  
                
  24031507.312   126286427.831    24031513.418    98405029.8874                 
                
 21  8  6  0 34 20.0000000  0 14G22G14G19R13R 5G 6G24R12R22R21G 3G 1
                                G17G21
  22759909.539   119604148.274    22759914.078    93198080.2234                 
                
  20582700.234   108162834.633    20582707.145    84282759.0144   20582706.945  
                
  21141606.938   111099908.394    21141611.758    86571375.9734                 
                
  22005767.344   117509578.738    22005771.703    91396358.363    22005771.344  
  22005765.426  
  22718604.531   121443979.141    22718610.211    94456446.711    22718610.109  
  22718603.777  
  23879216.266   125486127.167    23879226.594    97781445.3874   23879226.824  
                
  23392665.453   122929289.403    23392674.270    95789096.7754   23392674.629  
                
  19479782.891   104057493.123    19479788.566    80933681.490    19479787.605  
  19479782.562  
  19573331.758   104483791.736    19573336.062    81265189.025    19573335.859  
  19573330.605  
  20022488.836   107144387.307    20022493.297    83334579.580    20022492.820  
  20022487.457  
  22674288.984   119154226.743    22674298.332    92847490.2474   22674298.602  
                
  21324214.805   112059525.634    21324224.652    87319188.7454   21324224.227  
                
  20474020.117   107591712.150    20474026.898    83837818.4054   20474026.598  
                
  24037425.094   126317525.930    24037431.223    98429262.1644                 
                
 21  8  6  0 34 30.0000000  0 14G22G14G19R13R 5G 6G24R12R22R21G 3G 1
                                G17G21
  22759620.352   119602628.577    22759624.879    93196896.0524                 
                
  20585543.656   108177776.865    20585550.559    84294402.3004   20585550.363  
                
  21137277.797   111077158.636    21137282.621    86553648.8984                 
                
  21999080.711   117473872.502    21999085.078    91368586.862    21999084.707  
  21999078.730  
  22717456.438   121437841.931    22717462.105    94451673.334    22717462.023  
  22717455.660  
  23872169.445   125449095.805    23872179.711    97752589.7684   23872179.957  
                
  23390806.805   122919522.268    23390815.586    95781486.0454   23390815.961  
                
  19479918.969   104058219.921    19479924.656    80934246.763    19479923.695  
  19479918.648  
  19570791.266   104470230.404    19570795.570    81254641.327    19570795.336  
  19570790.051  
  20026629.117   107166542.753    20026633.590    83351811.594    20026633.109  
  20026627.762  
  22670560.078   119134631.220    22670569.453    92832221.0094   22670569.691  
                
  21329114.109   112085271.615    21329123.906    87339250.5434   21329123.516  
                
  20473220.445   107587509.851    20473227.223    83834543.8904   20473226.922  
                
  24043345.359   126348637.066    24043351.512    98453504.5934                 
                
 21  8  6  0 34 40.0000000  0 14G22G14G19R13R 5G 6G24R12R22R21G 3G 1
                                G17G21
  22759343.438   119601173.435    22759347.945    93195762.1814                 
                
  20588397.625   108192774.556    20588404.523    84306088.8074   20588404.336  
                
  21132955.422   111054444.425    21132960.238    86535949.5174                 
                
  21992402.953   117438213.692    21992407.332    91340852.237    21992406.953  
  21992400.938  
  22716324.711   121431792.169    22716330.359    94446967.959    22716330.273  
  22716323.918  
  23865126.023   125412082.426    23865136.270    97723748.1834   23865136.500  
                
  23388960.531   122909820.089    23388969.301    95773925.9174   23388969.633  
                
  19480071.891   104059036.767    19480077.617    80934882.090    19480076.660  
  19480071.605  
  19568262.273   104456730.439    19568266.574    81244141.353    19568266.324  
  19568261.004  
  20030778.008   107188744.284    20030782.473    83369079.445    20030781.984  
  20030776.648  
  22666842.008   119115092.570    22666851.410    92816996.0904   22666851.613  
                
  21334022.625   112111066.083    21334032.391    87359350.1304   21334032.023  
                
  20472427.742   107583344.211    20472434.516    83831297.9384   20472434.223  
                
  24049268.148   126379761.484    24049274.316    98477757.3724                 
                
 21  8  6  0 34 50.0000000  0 14G22G14G19R13R 5G 6G24R12R22R21G 3G 1
                                G17G21
  22759078.742   119599782.514    22759083.238    93194678.3594                 
                
  20591262.078   108207827.340    20591268.969    84317818.2354   20591268.785  
                
  21128639.742   111031765.446    21128644.555    86518277.5974                 
                
  21985734.094   117402602.428    21985738.477    91313154.590    21985738.109  
  21985731.984  
  22715209.250   121425829.389    22715214.859    94442330.227    22715214.766  
  22715208.438  
  23858085.953   125375086.758    23858096.215    97694920.4144   23858096.430  
                
  23387126.562   122900182.520    23387135.273    95766416.1344   23387135.629  
                
  19480241.594   104059943.323    19480247.359    80935587.192    19480246.402  
  19480241.324  
  19565744.703   104443291.564    19565749.008    81233688.904    19565748.781  
  19565743.402  
  20034935.414   107210991.424    20034939.887    83386382.777    20034939.398  
  20034934.059  
  22663134.672   119095610.474    22663144.109    92801815.2484   22663144.305  
                
  21338940.297   112136908.580    21338950.035    87379487.1334   21338949.688  
                
  20471641.930   107579214.747    20471648.688    83828080.1734   20471648.402  
                
  24055193.383   126410898.746    24055199.574    98502020.1474                 
                
 21  8  6  0 35  0.0000000  0 14G22G14G19R13R 5G 6G24R12R22R21G 3G 1
                                G17G21
  22758826.352   119598456.137    22758830.816    93193644.8114                 
                
  20594137.055   108222935.453    20594143.941    84329590.7814   20594143.762  
                
  21124330.812   111009121.962    21124335.652    86500633.3454                 
                
  21979074.180   117367038.900    21979078.562    91285494.079    21979078.188  
  21979071.992  
  22714110.133   121419953.923    22714115.684    94437760.420    22714115.582  
  22714109.309  
  23851049.336   125338109.181    23851059.605    97666106.7274   23851059.805  
                
  23385304.945   122890609.883    23385313.555    95758956.9374   23385313.957  
                
  19480428.180   104060939.981    19480433.973    80936362.361    19480433.016  
  19480427.918  
  19563238.672   104429914.177    19563242.988    81223284.267    19563242.781  
  19563237.348  
  20039101.406   107233284.457    20039105.883    83403721.790    20039105.387  
  20039100.051  
  22659438.195   119076185.386    22659447.637    92786678.8154   22659447.809  
                
  21343867.133   112162799.283    21343876.852    87399661.7034   21343876.516  
                
  20470863.055   107575121.748    20470869.793    83824890.8264   20470869.520  
                
  24061121.109   126442049.040    24061127.312    98526293.0904                 
                
 21  8  6  0 35 10.0000000  0 14G22G14G19R13R 5G 6G24R12R22R21G 3G 1
                                G17G21
  22758586.219   119597194.352    22758590.672    93192661.6224                 
                
  20597022.586   108238098.973    20597029.461    84341406.5064   20597029.289  
                
  21120028.680   110986514.165    21120033.547    86483016.8894                 
                
  21972423.258   117331523.457    21972427.676    91257870.989    21972427.289  
  21972421.020  
  22713027.359   121414165.945    22713032.867    94433258.672    22713032.750  
  22713026.520  
  23844016.195   125301149.837    23844026.477    97637307.2514   23844026.672  
                
  23383495.695   122881102.327    23383504.230    95751548.4714   23383504.680  
                
  19480631.617   104062026.747    19480637.449    80937207.631    19480636.492  
  19480631.379  
  19560744.117   104416598.124    19560748.465    81212927.346    19560748.254  
  19560742.777  
  20043275.961   107255623.353    20043280.457    83421096.488    20043279.953  
  20043274.617  
  22655752.586   119056817.442    22655762.039    92771586.9294   22655762.215  
                
  21348803.141   112188738.186    21348812.844    87419873.8394   21348812.527  
                
  20470091.141   107571065.341    20470097.863    83821729.9994   20470097.602  
                
  24067051.281   126473212.327    24067057.496    98550576.1724                 
                
 21  8  6  0 35 20.0000000  0 14G22G14G19R13R 5G 6G24R12R22R21G 3G 1
                                G17G21
  22758358.414   119595997.211    22758362.844    93191728.7994                 
                
  20599918.664   108253317.903    20599925.531    84353265.4094   20599925.371  
                
  21115733.359   110963942.135    21115738.266    86465428.3224                 
                
  21965781.398   117296056.446    21965785.883    91230285.562    21965785.496  
  21965779.129  
  22711961.008   121408465.662    22711966.465    94428825.120    22711966.352  
  22711960.148  
  23836986.547   125264208.866    23836996.852    97608522.1094   23836997.027  
                
  23381698.875   122871659.908    23381707.332    95744190.7484   23381707.797  
                
  19480851.969   104063203.740    19480857.824    80938123.068    19480856.871  
  19480851.723  
  19558261.102   104403343.599    19558265.453    81202618.277    19558265.246  
  19558259.738  
  20047459.070   107278007.983    20047463.570    83438506.755    20047463.062  
  20047457.719  
  22652077.891   119037506.790    22652087.348    92756539.6774   22652087.527  
                
  21353748.320   112214725.215    21353757.992    87440123.4724   21353757.699  
                
  20469326.203   107567045.558    20469332.895    83818597.7014   20469332.645  
                
  24072983.953   126504388.594    24072990.160    98574869.3454                 
                
 21  8  6  0 35 30.0000000  0 14G22G14G19R13R 5G 6G24R12R22R21G 3G 1
                                G17G21
  22758142.828   119594864.398    22758147.230    93190846.1044                 
                
  20602825.195   108268591.838    20602832.059    84365167.1754   20602831.906  
                
  21111444.766   110941405.510    21111449.703    86447867.3334                 
                
  21959148.508   117260637.298    21959153.035    91202737.365    21959152.684  
  21959146.211  
  22710910.969   121402852.602    22710916.398    94424459.417    22710916.273  
  22710910.121  
  23829960.336   125227285.938    23829970.633    97579751.0124   23829970.812  
                
  23379914.359   122862282.275    23379922.754    95736883.5184   23379923.219  
                
  19481089.109   104064470.484    19481094.996    80939108.310    19481094.047  
  19481088.875  
  19555789.508   104390150.127    19555793.887    81192356.702    19555793.695  
  19555788.133  
  20051650.656   107300437.997    20051655.164    83455952.319    20051654.645  
  20051649.289  
  22648414.047   119018253.139    22648423.504    92741536.8314   22648423.668  
                
  21358702.555   112240759.902    21358712.211    87460410.2534   21358711.930  
                
  20468568.172   107563062.075    20468574.836    83815493.6954   20468574.602  
                
  24078919.016   126535577.562    24078925.219    98599172.4424                 
                
 21  8  6  0 35 40.0000000  0 14G22G14G19R13R 5G 6G24R12R22R21G 3G 1
                                G17G21
  22757939.461   119593795.790    22757943.836    93190013.4314                 
                
  20605742.164   108283920.647    20605749.020    84377111.6934   20605748.887  
                
  21107162.906   110918904.297    21107167.879    86430333.9304                 
                
  21952524.672   117225266.399    21952529.203    91175226.658    21952528.824  
  21952522.324  
  22709877.250   121397326.771    22709882.641    94420161.528    22709882.531  
  22709876.391  
  23822937.547   125190381.023    23822947.824    97550993.9384   23822948.000  
                
  23378142.164   122852969.351    23378150.484    95729626.6934   23378150.934  
                
  19481343.047   104065827.008    19481348.973    80940163.386    19481348.016  
  19481342.816  
  19553329.352   104377017.697    19553333.742    81182142.596    19553333.559  
  19553327.984  
  20055850.664   107322913.100    20055855.176    83473432.946    20055854.664  
  20055849.281  
  22644761.008   118999056.432    22644770.492    92726578.3804   22644770.645  
                
  21363665.812   112266842.049    21363675.461    87480733.9954   21363675.188  
                
  20467817.016   107559114.746    20467823.645    83812417.8584   20467823.426  
                
  24084856.406   126566778.846    24084862.586    98623485.1284                 
                
 21  8  6  0 35 50.0000000  0 14G22G14G19R13R 5G 6G24R12R22R21G 3G 1
                                G17G21
  22757748.469   119592792.117    22757752.828    93189231.3564                 
                
  20608669.727   108299305.039    20608676.570    84389099.5224   20608676.441  
                
  21102887.961   110896439.279    21102892.961    86412828.7224                 
                
  21945909.938   117189944.194    21945914.500    91147753.868    21945914.129  
  21945907.590  
  22708860.008   121391889.012    22708865.387    94415932.159    22708865.305  
  22708859.148  
  23815918.336   125153494.908    23815928.641    97522251.5294   23815928.762  
                
  23376382.430   122843721.895    23376390.617    95722420.8844   23376391.133  
                
  19481613.953   104067274.128    19481619.902    80941288.923    19481618.957  
  19481613.723  
  19550880.734   104363946.883    19550885.152    81171976.418    19550884.965  
  19550879.406  
  20060059.219   107345433.899    20060063.730    83490949.118    20060063.227  
  20060057.836  
  22641119.008   118979917.557    22641128.504    92711664.9764   22641128.645  
                
  21368638.234   112292972.277    21368647.895    87501095.2084   21368647.633  
                
  20467072.875   107555204.309    20467079.477    83809370.7694   20467079.266  
                
  24090796.289   126597993.131    24090802.457    98647807.9514                 
                
 21  8  6  0 36  0.0000000  0 14G22G14G19R13R 5G 6G24R12R22R21G 3G 1
                                G17G21
  22757569.719   119591852.827    22757574.094    93188499.4514                 
                
  20611607.750   108314744.450    20611614.578    84401130.2234   20611614.457  
                
  21098619.781   110874009.887    21098624.816    86395351.2884                 
                
  21939304.320   117154670.700    21939308.914    91120318.943    21939308.547  
  21939301.973  
  22707859.086   121386538.493    22707864.461    94411770.651    22707864.383  
  22707858.207  
  23808902.625   125116627.160    23808912.957    97493523.4244   23808913.047  
                
  23374635.070   122834539.433    23374643.082    95715265.7134   23374643.727  
                
  19481901.711   104068811.260    19481907.684    80942484.469    19481906.746  
  19481901.477  
  19548443.625   104350937.389    19548448.051    81161857.920    19548447.836  
  19548442.312  
  20064276.203   107367999.862    20064280.715    83508500.425    20064280.207  
  20064274.836  
  22637487.914   118960836.029    22637497.406    92696796.2574   22637497.535  
                
  21373619.688   112319149.963    21373629.367    87521493.3954   21373629.094  
                
  20466335.648   107551330.213    20466342.234    83806351.9934   20466342.035  
                
  24096738.531   126629219.801    24096744.680    98672140.4204                 
                
 21  8  6  0 36 10.0000000  0 14G22G14G19R13R 5G 6G24R12R22R21G 3G 1
                                G17G21
  22757403.234   119590977.999    22757407.617    93187817.7774                 
                
  20614556.258   108330238.935    20614563.078    84413203.8424   20614562.961  
                
  21094358.398   110851616.256    21094363.465    86377901.7204                 
                
  21932707.875   117119445.938    21932712.449    91092921.876    21932712.051  
  21932705.492  
  22706874.562   121381275.746    22706879.957    94407677.423    22706879.891  
  22706873.672  
  23801890.430   125079777.922    23801900.777    97464809.7464   23801900.852  
                
  23372900.078   122825422.059    23372907.941    95708161.2744   23372908.699  
                
  19482206.320   104070438.436    19482212.324    80943750.045    19482211.387  
  19482206.090  
  19546017.969   104337989.115    19546022.406    81151787.049    19546022.184  
  19546016.695  
  20068501.633   107390610.957    20068506.148    83526086.824    20068505.641  
  20068500.246  
  22633867.750   118941812.028    22633877.246    92681972.3704   22633877.363  
                
  21378610.156   112345375.077    21378619.859    87541928.5524   21378619.578  
                
  20465605.367   107547492.550    20465611.945    83803361.6124   20465611.742  
                
  24102683.148   126660458.922    24102689.281    98696482.5834                 
                
 21  8  6  0 36 20.0000000  0 14G22G14G19R13R 5G 6G24R12R22R21G 3G 1
                                G17G21
  22757249.055   119590167.789    22757253.422    93187186.4574                 
                
  20617515.273   108345788.570    20617522.086    84425320.4384   20617521.973  
                
  21090103.891   110829258.616    21090108.953    86360480.1864                 
                
  21926120.617   117084270.287    21926125.168    91065563.037    21926124.750  
  21926118.238  
  22705906.500   121376100.791    22705911.887    94403652.454    22705911.812  
  22705905.574  
  23794881.797   125042947.365    23794892.133    97436110.6324   23794892.188  
                
  23371177.531   122816369.903    23371185.215    95701107.6334   23371186.062  
                
  19482527.820   104072155.728    19482533.840    80945085.720    19482532.895  
  19482527.574  
  19543603.844   104325102.374    19543608.309    81141764.038    19543608.062  
  19543602.598  
  20072735.492   107413267.120    20072740.012    83543708.279    20072739.500  
  20072734.098  
  22630258.602   118922845.764    22630268.086    92667193.4664   22630268.215  
                
  21383609.672   112371647.618    21383619.375    87562400.6574   21383619.082  
                
  20464882.055   107543691.470    20464888.629    83800399.7334   20464888.422  
                
  24108630.148   126691710.559    24108636.285    98720834.5084                 
                
 21  8  6  0 36 30.0000000  0 14G22G14G19R13R 5G 6G24R12R22R21G 3G 1
                                G17G21
  22757107.094   119589421.866    22757111.434    93186605.2314                 
                
  20620484.680   108361392.941    20620491.488    84437479.6784   20620491.375  
                
  21085856.094   110806936.405    21085861.160    86343086.2664                 
                
  21919542.484   117049143.461    21919547.004    91038242.161    21919546.574  
  21919540.133  
  22704954.727   121371013.064    22704960.102    94399695.323    22704960.031  
  22704953.797  
  23787876.648   125006135.182    23787886.977    97407425.8234   23787887.027  
                
  23369467.297   122807382.615    23369474.816    95694104.5394   23369475.773  
                
  19482866.125   104073962.888    19482872.160    80946491.283    19482871.215  
  19482865.867  
  19541201.109   104312276.516    19541205.594    81131788.386    19541205.359  
