     2.11           OBSERVATION DATA    M (MIXED)           RINEX VERSION / TYPE
EFT-CORS.RU                             20210813 100840 UTC PGM / RUN BY / DATE 
USSB                                                        MARKER NAME         
                                                            MARKER NUMBER       
USSB                EFT-CORS.RU                             OBSERVER / AGENCY   
0                   TRIMBLE BD970       2.0                 REC # / TYPE / VERS 
0                   UNKNOWN EXT NONE                        ANT # / TYPE        
  -912023.1940  3761226.2140  5053259.2690                  APPROX POSITION XYZ 
        0.0000        0.0000        0.0000                  ANTENNA: DELTA H/E/N
     1     1                                                WAVELENGTH FACT L1/2
     6    C1    L1    P2    L2    C2    P1                  # / TYPES OF OBSERV 
    10.000                                                  INTERVAL            
  2021     8     6     0    30    0.0000000     GPS         TIME OF FIRST OBS   
  2021     8     6     6    30    0.0000000     GPS         TIME OF LAST OBS    
     0                                                      RCV CLOCK OFFS APPL 
                                                            END OF HEADER       
 21  8  6  0 30  0.0000000  0 14G 6R13G24R 5G14G22G21G19R22R12G 3R21
                                G17G 1
  24081456.250   126548900.212                    98609587.926    24081467.242  
                
  22120122.672   118120258.062    22120127.586    91871315.592    22120127.184  
  22120120.816  
  23380277.234   122864177.115                    95738370.179    23380287.012  
                
  22744838.352   121584169.680    22744843.688    94565502.206    22744843.762  
  22744837.336  
  20536424.016   107919644.432                    84093266.684    20536430.613  
                
  22802693.602   119828982.084    22802698.094    93373287.1034                 
                
  23889753.438   125541513.347    23889759.574    97824566.8454                 
                
  21228133.930   111554596.799    21228138.641    86925701.5504                 
                
  19629598.320   104784154.434    19629602.734    81498804.677    19629602.457  
  19629597.074  
  19464049.016   103973463.976    19464055.453    80868308.108    19464054.461  
  19464048.023  
  22825931.633   119951106.186                    93468462.597    22825941.445  
                
  19913371.141   106560483.203    19913376.250    82880428.499    19913375.766  
  19913369.836  
  20485488.688   107651967.026                    83884720.461    20485494.961  
                
  21209255.359   111455409.484                    86848412.006    21209264.777  
                
 21  8  6  0 30 10.0000000  0 14G 6R13G24R 5G14G22G21G19R22R12G 3R21
                                G17G 1
  24074295.680   126511271.254                    98580266.674    24074306.648  
                
  22113250.531   118083561.174    22113255.434    91842773.569    22113255.039  
  22113248.629  
  23378118.344   122852832.110                    95729529.917    23378128.133  
                
  22743173.828   121575271.512    22743179.066    94558581.437    22743179.176  
  22743172.785  
  20539082.961   107933617.210                    84104154.549    20539089.543  
                
  22802007.930   119825378.893    22802012.418    93370479.4524                 
                
  23895602.297   125572249.462    23895608.453    97848517.0844                 
                
  21223641.273   111530987.796    21223645.934    86907304.9354                 
                
  19626729.156   104768838.643    19626733.574    81486892.409    19626733.312  
  19626727.922  
  19463840.391   103972349.525    19463846.828    80867441.309    19463845.836  
  19463839.402  
  22821863.094   119929725.929                    93451802.673    22821872.898  
                
  19917303.594   106581526.513    19917308.680    82896795.504    19917308.199  
  19917302.289  
  20484551.195   107647040.423                    83880881.546    20484557.453  
                
  21213882.180   111479723.586                    86867358.064    21213891.605  
                
 21  8  6  0 30 20.0000000  0 14G 6R13G24R 5G14G22G21G19R22R12G 3R21
                                G17G 1
  24067138.102   126473657.957                    98550957.607    24067149.039  
                
  22106386.648   118046908.491    22106391.562    91814265.936    22106391.176  
  22106384.703  
  23375971.672   122841551.221                    95720739.611    23375981.469  
                
  22741525.203   121566459.002    22741530.527    94551727.279    22741530.617  
  22741524.164  
  20541752.461   107947645.499                    84115085.673    20541759.031  
                
  22801334.383   119821839.552    22801338.898    93367721.5564                 
                
  23901454.070   125603000.871    23901460.238    97872479.2544                 
                
  21219155.320   111507413.993    21219159.949    86888935.7474                 
                
  19623871.555   104753584.600    19623875.980    81475028.153    19623875.723  
  19623870.355  
  19463648.469   103971324.323    19463654.910    80866643.924    19463653.914  
  19463647.504  
  22817804.781   119908399.432                    93435184.649    22817814.578  
                
  19921245.242   106602619.013    19921250.312    82913200.781    19921249.828  
  19921243.938  
  20483620.742   107642150.851                    83877071.482    20483626.988  
                
  21218518.805   111504089.232                    86886344.288    21218528.234  
                
 21  8  6  0 30 30.0000000  0 14G 6R13G24R 5G14G22G21G19R22R12G 3R21
                                G17G 1
  24059983.492   126436060.379                    98521660.835    24059994.473  
                
  22099531.023   118010299.916    22099535.957    91785792.612    22099535.602  
  22099529.074  
  23373837.195   122830334.509                    95711999.310    23373847.000  
                
  22739892.742   121557732.534    22739898.070    94544940.034    22739898.172  
  22739891.645  
  20544432.531   107961729.345                    84126060.092    20544439.098  
                
  22800673.047   119818364.100    22800677.562    93365013.3864                 
                
  23907308.812   125633767.672    23907314.934    97896453.3514                 
                
  21214676.055   111483875.322    21214680.676    86870593.9274                 
                
  19621025.602   104738392.691    19621030.008    81463212.211    19621029.758  
  19621024.398  
  19463473.258   103970388.356    19463479.695    80865915.948    19463478.703  
  19463472.289  
  22813756.711   119887126.792                    93418608.587    22813766.504  
                
  19925196.070   106623760.676    19925201.133    82929644.286    19925200.637  
  19925194.762  
  20482697.344   107637298.361                    83873290.317    20482703.582  
                
  21223165.234   111528506.374                    86905370.623    21223174.660  
                
 21  8  6  0 30 40.0000000  0 14G 6R13G24R 5G14G22G21G19R22R12G 3R21
                                G17G 1
  24052831.930   126398478.760                    98492376.480    24052842.930  
                
  22092683.734   117973735.790    22092688.680    91757353.861    22092688.340  
  22092681.766  
  23371714.977   122819182.129                    95703309.135    23371724.770  
                
  22738276.328   121549092.143    22738281.688    94538219.739    22738281.812  
  22738275.172  
  20547123.180   107975868.791                    84137077.845    20547129.742  
                
  22800023.844   119814952.609    22800028.438    93362355.1004                 
                
  23913166.453   125664549.800    23913172.574    97920439.4284                 
                
  21210203.516   111460371.984    21210208.137    86852279.6474                 
                
  19618191.227   104723262.657    19618195.648    81451444.427    19618195.355  
  19618190.035  
  19463314.750   103969541.635    19463321.180    80865257.387    19463320.184  
  19463313.785  
  22809718.945   119865908.212                    93402074.645    22809728.727  
                
  19929156.055   106644951.368    19929161.129    82946125.946    19929160.625  
  19929154.746  
  20481781.023   107632483.061                    83869538.143    20481787.270  
                
  21227821.461   111552974.991                    86924437.076    21227830.871  
                
 21  8  6  0 30 50.0000000  0 14G 6R13G24R 5G14G22G21G19R22R12G 3R21
                                G17G 1
  24045683.383   126360913.008                    98463104.479    24045694.383  
                
  22085844.797   117937216.368    22085849.777    91728949.884    22085849.445  
  22085842.840  
  23369604.938   122808093.945                    95694669.030    23369614.777  
                
  22736676.055   121540537.786    22736681.387    94531566.300    22736681.496  
  22736674.812  
  20549824.383   107990063.693                    84148138.793    20549830.941  
                
  22799386.789   119811604.995    22799391.445    93359746.5964                 
                
  23919026.938   125695347.017    23919033.086    97944437.3064                 
                
  21205737.680   111436903.871    21205742.305    86833992.8134                 
                
  19615368.406   104708194.307    19615372.824    81439724.609    19615372.531  
  19615367.215  
  19463172.992   103968784.324    19463179.398    80864668.357    19463178.395  
  19463172.023  
  22805691.453   119844743.661                    93385582.802    22805701.227  
                
  19933125.180   106666190.960    19933130.262    82962645.632    19933129.762  
  19933123.859  
  20480871.750   107627704.844                    83865814.857    20480877.996  
                
  21232487.445   111577494.876                    86943543.479    21232496.855  
                
 21  8  6  0 31  0.0000000  0 14G 6R13G24R 5G14G22G21G19R22R12G 3R21
                                G17G 1
  24038537.898   126323363.287                    98433844.965    24038548.891  
                
  22079014.258   117900741.703    22079019.270    91700580.717    22079018.953  
  22079012.285  
  23367507.172   122797070.138                    95686079.072    23367517.051  
                
  22735091.820   121532069.425    22735097.195    94524979.802    22735097.316  
  22735090.664  
  20552536.148   108004314.088                    84159242.987    20552542.707  
                
  22798761.914   119808321.222    22798766.570    93357187.8284                 
                
  23924890.359   125726159.442    23924896.453    97968446.9574                 
                
  21201278.570   111413471.116    21201283.184    86815733.5324                 
                
  19612557.250   104693188.175    19612561.652    81428053.180    19612561.379  
  19612556.043  
  19463047.945   103968116.321    19463054.344    80864148.794    19463053.328  
  19463046.988  
  22801674.273   119823633.294                    93369133.176    22801684.031  
                
  19937103.461   106687479.554    19937108.566    82979203.429    19937108.055  
  19937102.145  
  20479969.562   107622963.810                    83862120.548    20479975.812  
                
  21237163.172   111602065.983                    86962689.795    21237172.570  
                
 21  8  6  0 31 10.0000000  0 14G 6R13G24R 5G14G22G21G19R22R12G 3R21
                                G17G 1
  24031395.453   126285829.601                    98404597.960    24031406.453  
                
  22072192.133   117864311.991    22072197.168    91672246.515    22072196.867  
  22072190.188  
  23365421.656   122786110.682                    95677539.241    23365431.570  
                
  22733523.695   121523687.205    22733529.148    94518460.377    22733529.297  
  22733522.465  
  20555258.477   108018619.946                    84170390.406    20555265.039  
                
  22798149.172   119805101.473    22798153.848    93354678.9754                 
                
  23930756.625   125756986.932    23930762.672    97992468.3914                 
                
  21196826.188   111390073.695    21196830.793    86797501.7794                 
                
  19609757.672   104678243.892    19609762.078    81416429.861    19609761.805  
  19609756.477  
  19462939.609   103967537.608    19462946.000    80863698.686    19462944.980  
  19462938.676  
  22797667.430   119802577.200                    93352725.833    22797677.168  
                
  19941090.836   106708816.795    19941095.965    82995799.056    19941095.449  
  19941089.520  
  20479074.445   107618259.924                    83858455.186    20479080.695  
                
  21241848.625   111626688.193                    86981875.925    21241858.020  
                
 21  8  6  0 31 20.0000000  0 14G 6R13G24R 5G14G22G21G19R22R12G 3R21
                                G17G 1
  24024256.094   126248312.085                    98375363.534    24024267.105  
                
  22065378.383   117827927.009    22065383.426    91643947.086    22065383.145  
  22065376.418  
  23363348.398   122775215.643                    95669049.599    23363358.301  
                
  22731971.617   121515391.050    22731977.254    94512007.846    22731977.363  
  22731970.125  
  20557991.336   108032981.247                    84181581.027    20557997.906  
                
  22797548.664   119801945.781    22797553.305    93352219.9914                 
                
  23936625.773   125787829.435    23936631.750    98016501.4704                 
                
  21192380.531   111366711.684    21192385.133    86779297.6294                 
                
  19606969.688   104663361.447    19606974.078    81404854.623    19606973.793  
  19606968.453  
  19462848.031   103967048.387    19462854.395    80863318.173    19462853.383  
  19462847.113  
  22793670.906   119781575.449                    93336360.856    22793680.602  
                
  19945087.312   106730202.742    19945092.457    83012432.562    19945091.949  
  19945086.004  
  20478186.383   107613593.170                    83854818.755    20478192.621  
                
  21246543.781   111651361.395                    87001101.791    21246553.164  
                
 21  8  6  0 31 30.0000000  0 14G 6R13G24R 5G14G22G21G19R22R12G 3R21
                                G17G 1
  24017119.805   126210810.778                    98346141.784    24017130.848  
                
  22058573.141   117791587.444    22058578.203    91615682.993    22058577.938  
  22058571.141  
  23361287.391   122764385.042                    95660610.170    23361297.285  
                
  22730435.633   121507181.367    22730441.551    94505622.641    22730441.664  
  22730433.801  
  20560734.758   108047397.986                    84192814.838    20560741.332  
                
  22796960.359   119798854.170    22796964.949    93349810.9404                 
                
  23942497.758   125818686.954    23942503.711    98040546.3004                 
                
  21187941.625   111343385.140    21187946.219    86761121.1134                 
                
  19604193.336   104648541.108    19604197.719    81393327.694    19604197.426  
  19604192.105  
  19462773.180   103966648.536    19462779.531    80863007.175    19462778.512  
  19462772.281  
  22789684.766   119760628.204                    93320038.347    22789694.441  
                
  19949092.875   106751637.293    19949098.020    83029103.872    19949097.527  
  19949091.566  
  20477305.422   107608963.725                    83851211.401    20477311.656  
                
  21251248.609   111676085.514                    87020367.353    21251258.016  
                
 21  8  6  0 31 40.0000000  0 14G 6R13G24R 5G14G22G21G19R22R12G 3R21
                                G17G 1
  24009986.648   126173325.825                    98316932.742    24009997.719  
                
  22051776.375   117755293.151    22051781.469    91587454.116    22051781.215  
  22051774.344  
  23359238.672   122753618.966                    95652221.032    23359248.562  
                
  22728915.945   121499058.003    22728921.926    94499304.403    22728922.086  
  22728913.574  
  20563488.734   108061870.155                    84204091.840    20563495.305  
                
  22796384.258   119795826.691    22796388.793    93347451.8564                 
                
  23948372.602   125849559.357    23948378.527    98064602.7004                 
                
  21183509.477   111320094.073    21183514.055    86742972.2354                 
                
  19601428.594   104633782.738    19601432.977    81381848.971    19601432.688  
  19601427.383  
  19462715.070   103966338.140    19462721.422    80862765.756    19462720.406  
  19462714.188  
  22785709.023   119739735.563                    93303758.374    22785718.676  
                
  19953107.508   106773120.399    19953112.652    83045812.951    19953112.148  
  19953106.191  
  20476431.523   107604371.328                    83847632.913    20476437.750  
                
  21255963.148   111700860.523                    87039672.557    21255972.543  
                
 21  8  6  0 31 50.0000000  0 14G 6R13G24R 5G14G22G21G19R22R12G 3R21
                                G17G 1
  24002856.609   126135857.264                    98287736.468    24002867.691  
                
  22044988.117   117719044.266    22044993.238    91559260.543    22044992.992  
  22044986.086  
  23357202.242   122742917.435                    95643882.178    23357212.125  
                
  22727412.383   121491021.061    22727418.496    94493053.470    22727418.605  
  22727409.656  
  20566253.234   108076397.701                    84215411.999    20566259.812  
                
  22795820.336   119792863.300    22795824.848    93345142.7404                 
                
  23954250.242   125880446.605    23954256.207    98088670.6964                 
                
  21179084.078   111296838.480    21179088.645    86724851.0064                 
                
  19598675.453   104619086.285    19598679.828    81370418.396    19598679.551  
  19598674.238  
  19462673.719   103966117.233    19462680.059    80862593.938    19462679.051  
  19462672.836  
  22781743.680   119718897.589                    93287521.001    22781753.305  
                
  19957131.203   106794651.952    19957136.348    83062559.702    19957135.855  
  19957129.875  
  20475564.672   107599815.999                    83844083.303    20475570.879  
                
  21260687.320   111725686.225                    87059017.256    21260696.703  
                
 21  8  6  0 32  0.0000000  0 14G 6R13G24R 5G14G22G21G19R22R12G 3R21
                                G17G 1
  23995729.703   126098405.164                    98258553.023    23995740.785  
                
  22038208.461   117682841.280    22038213.605    91531102.672    22038213.352  
  22038206.422  
  23355178.094   122732280.477                    95635593.636    23355187.961  
                
  22725924.945   121483070.438    22725931.203    94486869.701    22725931.277  
  22725922.035  
  20569028.281   108090980.604                    84226775.295    20569034.867  
                
  22795268.594   119789964.022    22795273.109    93342883.5924                 
                
  23960130.703   125911348.532    23960136.727    98112750.0934                 
                
  21174665.469   111273618.551    21174670.035    86706757.5644                 
                
  19595933.922   104604451.843    19595938.301    81359036.059    19595938.008  
  19595932.711  
  19462649.125   103965985.814    19462655.453    80862491.719    19462654.449  
  19462648.234  
  22777788.773   119698114.393                    93271326.303    22777798.367  
                
  19961163.898   106816231.704    19961169.043    83079343.944    19961168.555  
  19961162.566  
  20474704.883   107595297.795                    83840562.629    20474711.078  
                
  21265421.141   111750562.590                    87078401.434    21265430.516  
                
 21  8  6  0 32 10.0000000  0 14G 6R13G24R 5G14G22G21G19R22R12G 3R21
                                G17G 1
  23988605.945   126060969.594                    98229382.461    23988617.016  
                
  22031437.383   117646684.151    22031442.516    91502980.464    22031442.273  
  22031435.324  
  23353166.258   122721708.156                    95627355.456    23353176.102  
                
  22724453.773   121475206.439    22724460.055    94480753.275    22724460.129  
  22724450.758  
  20571813.859   108105618.865                    84238181.710    20571820.449  
                
  22794729.070   119787128.895    22794733.602    93340674.4204                 
                
  23966013.945   125942265.147    23966020.043    98136840.9494                 
                
  21170253.641   111250434.264    21170258.211    86688691.8934                 
                
  19593204.039   104589879.528    19593208.410    81347702.038    19593208.148  
  19593202.824  
  19462641.297   103965943.994    19462647.617    80862459.189    19462646.617  
  19462640.387  
  22773844.281   119677386.052                    93255174.375    22773853.863  
                
  19965205.633   106837859.783    19965210.781    83096165.777    19965210.281  
  19965204.309  
  20473852.172   107590816.753                    83837070.903    20473858.355  
                
  21270164.570   111775489.478                    87097824.983    21270173.945  
                
 21  8  6  0 32 20.0000000  0 14G 6R13G24R 5G14G22G21G19R22R12G 3R21
                                G17G 1
  23981485.352   126023550.662                    98200224.875    23981496.434  
                
  22024674.906   117610572.879    22024680.000    91474893.914    22024679.777  
  22024672.816  
  23351166.711   122711200.494                    95619167.677    23351176.555  
                
  22722998.750   121467429.017    22723005.051    94474704.181    22723005.152  
  22722995.727  
  20574609.961   108120312.475                    84249631.275    20574616.559  
                
  22794201.773   119784357.966    22794206.266    93338515.2584                 
                
  23971899.969   125973196.446    23971906.117    98160943.2654                 
                
  21165848.586   111227285.657    21165853.172    86670654.0264                 
                
  19590485.766   104575369.221    19590490.125    81336416.252    19590489.863  
  19590484.566  
  19462650.227   103965991.731    19462656.551    80862496.322    19462655.539  
  19462649.301  
  22769910.258   119656712.725                    93239065.316    22769919.832  
                
  19969256.352   106859536.039    19969261.523    83113025.090    19969261.016  
  19969255.047  
  20473006.516   107586372.838                    83833608.120    20473012.711  
                
  21274917.602   111800466.855                    87117287.879    21274926.969  
                
 21  8  6  0 32 30.0000000  0 14G 6R13G24R 5G14G22G21G19R22R12G 3R21
                                G17G 1
  23974367.938   125986148.448                    98171080.310    23974379.023  
                
  22017921.055   117574507.786    22017926.160    91446843.319    22017925.938  
  22017918.922  
  23349179.484   122700757.539                    95611030.295    23349189.285  
                
  22721559.961   121459738.245    22721566.219    94468722.436    22721566.309  
  22721556.934  
  20577416.594   108135061.378                    84261123.921    20577423.191  
                
  22793686.648   119781651.204    22793691.164    93336406.1684                 
                
  23977788.773   126004142.226    23977794.906    98185056.8354                 
                
  21161450.367   111204172.825    21161454.949    86652644.0324                 
                
  19587779.125   104560920.963    19587783.453    81325178.714    19587783.180  
  19587777.926  
  19462675.945   103966129.101    19462682.277    80862603.172    19462681.262  
  19462674.996  
  22765986.727   119636094.459                    93222999.151    22765996.281  
                
  19973316.070   106881260.393    19973321.258    83129921.808    19973320.746  
  19973314.777  
  20472167.945   107581966.114                    83830174.311    20472174.145  
                
  21279680.234   111825494.587                    87136789.991    21279689.586  
                
 21  8  6  0 32 40.0000000  0 14G 6R13G24R 5G14G22G21G19R22R12G 3R21
                                G17G 1
  23967253.703   125948762.940                    98141948.753    23967264.797  
                
  22011175.867   117538488.906    22011180.969    91418828.639    22011180.734  
  22011173.727  
  23347204.578   122690379.268                    95602943.297    23347214.336  
                
  22720137.414   121452134.110    22720143.633    94462808.098    22720143.699  
  22720134.555  
  20580233.742   108149865.523                    84272659.598    20580240.332  
                
  22793183.711   119779008.527    22793188.227    93334347.0084                 
                
  23983680.297   126035102.422    23983686.430    98209181.6784                 
                
  21157058.938   111181095.711    21157063.484    86634661.8614                 
                
  19585084.102   104546534.737    19585088.430    81313989.433    19585088.141  
  19585082.910  
  19462718.414   103966355.962    19462724.746    80862779.619    19462723.730  
  19462717.445  
  22762073.664   119615531.307                    93206975.939    22762083.199  
                
  19977384.719   106903032.605    19977389.922    83146855.758    19977389.422  
  19977383.422  
  20471336.430   107577596.467                    83826769.393    20471342.629  
                
  21284452.422   111850572.521                    87156331.218    21284461.781  
                
 21  8  6  0 32 50.0000000  0 14G 6R13G24R 5G14G22G21G19R22R12G 3R21
                                G17G 1
  23960142.680   125911394.256                    98112830.296    23960153.746  
                
  22004439.375   117502516.390    22004444.465    91390850.011    22004444.230  
  22004437.203  
  23345241.992   122680065.776                    95594906.825    23345251.703  
                
  22718731.016   121444616.618    22718737.227    94456961.181    22718737.309  
  22718728.426  
  20583061.375   108164724.880                    84284238.326    20583067.984  
                
  22792693.047   119776430.126    22792697.504    93332337.8734                 
                
  23989574.594   126066077.089    23989580.691    98233317.7584                 
                
  21152674.328   111158054.444    21152678.871    86616707.6394                 
                
  19582400.680   104532210.540    19582405.012    81302848.403    19582404.750  
  19582399.500  
  19462777.664   103966672.449    19462783.988    80863025.769    19462782.969  
  19462776.668  
  22758171.125   119595023.389                    93190995.748    22758180.641  
                
  19981462.352   106924852.776    19981467.551    83163826.986    19981467.047  
  19981461.023  
  20470511.992   107573263.940                    83823393.383    20470518.176  
                
  21289234.125   111875700.577                    87175911.528    21289243.504  
                
 21  8  6  0 33  0.0000000  0 14G 6R13G24R 5G14G22G21G19R22R12G 3R21
                                G17G 1
  23953034.883   125874042.525                    98083725.065    23953045.926  
                
  21997711.570   117466590.365    21997716.680    91362907.557    21997716.473  
  21997709.375  
  23343291.727   122669817.087                    95586920.836    23343301.422  
                
  22717340.961   121437185.942    22717346.945    94451181.707    22717346.945  
  22717338.484  
  20585899.531   108179639.491                    84295860.089    20585906.145  
                
  22792214.609   119773916.002                                                  
                
  23995471.648   126097066.223    23995477.699    98257465.1124                 
                
  21148296.547   111135049.061    21148301.109    86598781.3674                 
                
  19579728.914   104517948.491    19579733.246    81291755.702    19579732.969  
  19579727.723  
  19462853.719   103967078.674    19462860.043    80863341.714    19462859.016  
  19462852.707  
  22754279.125   119574570.859                    93175058.730    22754288.613  
                
  19985548.906   106946720.685    19985554.098    83180835.350    19985553.602  
  19985547.559  
  20469694.602   107568968.542                    83820046.321    20469700.789  
                
  21294025.359   111900878.691                    87195530.846    21294034.738  
                
 21  8  6  0 33 10.0000000  0 14G 6R13G24R 5G14G22G21G19R22R12G 3R21
                                G17G 1
  23945930.297   125836707.671                    98054632.968    23945941.297  
                
  21990992.508   117430710.995    21990997.641    91335001.398    21990997.438  
  21990990.277  
  23341353.766   122659633.112                    95578985.291    23341363.457  
                
  22715967.078   121429841.976    22715972.746    94445469.723    22715972.785  
  22715964.793  
  20588748.188   108194609.206                    84307524.794    20588754.805  
                
  22791748.391   119771466.030                                                  
                
  24001371.367   126128069.465    24001377.387    98281623.4864                 
                
  21143925.539   111112079.337    21143930.160    86580882.8964                 
                
  19577068.789   104503748.553    19577073.113    81280711.305    19577072.855  
  19577067.582  
  19462946.516   103967574.429    19462952.855    80863727.305    19462951.820  
  19462945.504  
  22750397.648   119554173.656                    93159164.838    22750407.145  
                
  19989644.320   106968636.102    19989649.516    83197880.677    19989649.020  
  19989642.992  
  20468884.258   107564710.194                    83816728.136    20468890.461  
                
  21298826.078   111926106.654                    87215188.988    21298835.461  
                
 21  8  6  0 33 20.0000000  0 14G 6R13G24R 5G14G22G21G19R22R12G 3R21
                                G17G 1
  23938828.945   125799389.827                    98025554.129    23938839.914  
                
  21984282.156   117394878.151    21984287.293    91307131.408    21984287.074  
  21984279.887  
  23339428.156   122649513.975                    95571100.250    23339437.844  
                
  22714609.484   121422584.885    22714614.734    94439825.309    22714614.789  
  22714607.414  
  20591607.328   108209634.046                    84319232.450    20591613.953  
                
  22791294.633   119769080.277                                                  
                
  24007273.789   126159086.865    24007279.770    98305792.8714                 
                
  21139561.367   111089145.463    21139566.027    86563012.3394                 
                
  19574420.273   104489610.573    19574424.602    81269715.104    19574424.340  
  19574419.070  
  19463056.086   103968159.743    19463062.434    80864182.548    19463061.395  
  19463055.055  
  22746526.758   119533831.976                    93143314.181    22746536.238  
                
  19993748.641   106990599.164    19993753.832    83214963.061    19993753.336  
  19993747.324  
  20468080.977   107560488.970                    83813438.874    20468087.191  
                
  21303636.281   111951384.422                    87234885.944    21303645.645  
                
 21  8  6  0 33 30.0000000  0 14G 6R13G24R 5G14G22G21G19R22R12G 3R21
                                G17G 1
  23931730.844   125762089.108                    97996488.654    23931741.824  
                
  21977580.625   117359092.384    21977585.781    91279298.050    21977585.535  
  21977578.336  
  23337514.883   122639459.751                    95563265.810    23337524.590  
                
  22713268.055   121415414.709    22713272.930    94434248.556    22713273.051  
  22713266.285  
  20594476.953   108224714.016                    84330983.072    20594483.582  
                
  22790853.039   119766758.738                                                  
                
  24013178.859   126190118.358    24013184.871    98329973.2824                 
                
  21135204.031   111066247.561    21135208.723    86545169.8304                 
                
  19571783.359   104475534.607    19571787.695    81258767.140    19571787.410  
  19571782.172  
  19463182.461   103968834.768    19463188.820    80864707.565    19463187.789  
  19463181.414  
  22742666.445   119513545.917                    93127506.867    22742675.895  
                
  19997861.844   107012609.747    19997867.035    83232082.411    19997866.543  
  19997860.551  
  20467284.773   107556304.941                    83810178.596    20467290.996  
                
  21308455.953   111976711.934                    87254621.673    21308465.301  
                
 21  8  6  0 33 40.0000000  0 14G 6R13G24R 5G14G22G21G19R22R12G 3R21
                                G17G 1
  23924635.969   125724805.425                    97967436.466    23924646.953  
                
  21970887.922   117323353.773    21970893.090    91251501.359    21970892.840  
  21970885.641  
  23335613.945   122629470.305                    95555481.836    23335623.672  
                
  22711943.055   121408331.405    22711947.449    94428739.220    22711947.648  
  22711941.312  
  20597357.047   108239848.976                    84342776.535    20597363.684  
                
  22790423.398   119764501.366                                                  
                
  24019086.602   126221163.704    24019092.684    98354164.4544                 
                
  21130853.531   111043385.553    21130858.238    86527355.2894                 
                
  19569158.094   104461520.745    19569162.418    81247867.471    19569162.141  
  19569156.898  
  19463325.602   103969599.387    19463331.977    80865302.262    19463330.945  
  19463324.566  
  22738816.695   119493315.438                    93111742.888    22738826.129  
                
  20001983.891   107034667.621    20001989.070    83249238.522    20001988.578  
  20001982.605  
  20466495.633   107552157.933                    83806947.157    20466501.855  
                
  21313285.039   112002088.967                    87274395.992    21313294.363  
                
 21  8  6  0 33 50.0000000  0 14G 6R13G24R 5G14G22G21G19R22R12G 3R21
                                G17G 1
  23917544.391   125687539.051                    97938397.761    23917555.371  
                
  21964204.070   117287662.451    21964209.266    91223741.456    21964209.027  
  21964201.809  
  23333725.391   122619545.914                    95547748.546    23333735.137  
                
  22710634.281   121401335.142    22710638.348    94423297.617    22710638.535  
  22710632.668  
  20600247.625   108255039.042                    84354612.943    20600254.266  
                
  22790006.688   119762308.314                                                  
                
  24024997.008   126252223.056    24025003.164    98378366.5264                 
                
  21126509.891   111020559.617    21126514.613    86509568.8514                 
                
  19566544.430   104447568.874    19566548.758    81237016.018    19566548.480  
  19566543.242  
  19463485.562   103970453.851    19463491.945    80865966.839    19463490.914  
  19463484.547  
  22734977.562   119473140.783                    93096022.414    22734986.973  
                
  20006114.758   107056772.727    20006119.926    83266431.382    20006119.430  
  20006113.477  
  20465713.547   107548048.036                    83803744.639    20465719.762  
                
  21318123.570   112027515.586                    87294208.931    21318132.867  
                
 21  8  6  0 34  0.0000000  0 14G 6R13G24R 5G14G22G21G19R22R12G 3R21
                                G17G 1
  23910456.141   125650290.059                    97909372.599    23910467.117  
                
  21957529.203   117252018.960    21957534.371    91196018.735    21957534.137  
  21957526.934  
  23331849.227   122609686.550                    95540065.927    23331858.961  
                
  22709341.781   121394425.996    22709345.781    94417923.828    22709345.875  
  22709340.320  
  20603148.695   108270284.214                    84366492.290    20603155.352  
                
  22789601.312   119760179.713                                                  
                
  24030910.109   126283296.318    24030916.254    98402579.3994                 
                
  21122173.141   110997769.782    21122177.859    86491810.5374                 
                
  19563942.422   104433679.201    19563946.758    81226212.945    19563946.480  
  19563941.242  
  19463662.320   103971398.025    19463668.703    80866701.200    19463667.691  
  19463661.316  
  22731149.102   119453022.100                    93080345.531    22731158.496  
                
  20010254.461   107078925.108    20010259.625    83283661.010    20010259.125  
  20010253.191  
  20464938.523   107543975.268                    83800571.062    20464944.750  
                
  21322971.500   112052991.654                    87314060.424    21322980.777  
                
 21  8  6  0 34 10.0000000  0 14G 6R13G24R 5G14G22G21G19R22R12G 3R21
                                G17G 1
  23903371.180   125613058.395                    97880360.914    23903382.105  
                
  21950863.188   117216422.885    21950868.344    91168332.907    21950868.121  
  21950860.934  
  23329985.398   122599892.124                    95532433.907    23329995.141  
                
  22708065.562   121387603.860    22708069.625    94412617.663    22708069.809  
  22708064.211  
  20606060.211   108285584.317                    84378414.444    20606066.875  
                
  22789208.711   119758115.380                                                  
                
  24036825.773   126314383.338    24036831.930    98426803.0464                 
                
  21117843.219   110975015.942    21117847.906    86474080.2764                 
                
  19561352.031   104419851.527    19561356.371    81215458.093    19561356.113  
  19561350.840  
  19463855.859   103972431.874    19463862.242    80867505.298    19463861.230  
  19463854.871  
  22727331.258   119432959.288                    93064712.196    22727340.625  
                
  20014402.953   107101124.526    20014408.125    83300927.234    20014407.609  
  20014401.695  
  20464170.555   107539939.588                    83797426.378    20464176.777  
                
  21327828.805   112078516.966                    87333950.286    21327838.074  
                
 21  8  6  0 34 20.0000000  0 14G 6R13G24R 5G14G22G21G19R22R12G 3R21
                                G17G 1
  23896289.555   125575844.230                    97851362.877    23896300.457  
                
  21944206.086   117180874.354    21944211.207    91140684.047    21944211.004  
  21944203.863  
  23328133.938   122590162.739                    95524852.594    23328143.734  
                
  22706805.648   121380868.848    22706810.004    94407379.316    22706810.086  
  22706804.379  
  20608982.188   108300939.421                    84390379.460    20608988.871  
                
  22788827.844   119756115.388                                                  
                
  24042744.055   126345484.086    24042750.230    98451037.3954                 
                
  21113520.203   110952298.306    21113524.836    86456378.2234                 
                
  19558773.281   104406086.012    19558777.629    81204751.590    19558777.375  
  19558772.094  
  19464066.227   103973555.595    19464072.605    80868379.299    19464071.594  
  19464065.250  
  22723524.102   119412952.585                    93049122.560    22723533.445  
                
  20018560.234   107123370.960    20018565.410    83318230.015    20018564.895  
  20018558.977  
  20463409.664   107535941.066                    83794310.649    20463415.887  
                
  21332695.492   112104091.546                    87353878.518    21332704.730  
                
 21  8  6  0 34 30.0000000  0 14G 6R13G24R 5G14G22G21G19R22R12G 3R21
                                G17G 1
  23889211.266   125538647.687                    97822378.585    23889222.168  
                
  21937557.977   117145373.790    21937563.062    91113072.490    21937562.871  
  21937555.797  
  23326294.898   122580498.551                    95517322.082    23326304.750  
                
  22705562.023   121374221.165    22705566.742    94402208.918    22705566.742  
  22705560.832  
  20611914.648   108316349.553                    84402387.347    20611921.336  
                
  22788459.164   119754179.763                                                  
                
  24048664.922   126376598.484    24048671.090    98475282.3754                 
                
  21109204.062   110929616.911    21109208.648    86438704.4254                 
                
  19556206.180   104392382.666    19556210.527    81194093.431    19556210.297  
  19556204.980  
  19464293.406   103974769.176    19464299.785    80869323.196    19464298.781  
  19464292.453  
  22719727.656   119393002.139                    93033576.763    22719736.961  
                
  20022726.312   107145664.484    20022731.496    83335569.422    20022730.996  
  20022725.051  
  20462655.852   107531979.738                    83791223.890    20462662.070  
                
  21337571.539   112129715.303                    87373845.073    21337580.750  
                
 21  8  6  0 34 40.0000000  0 14G 6R13G24R 5G14G22G21G19R22R12G 3R21
                                G17G 1
  23882136.320   125501468.651                    97793407.914    23882147.211  
                
  21930918.781   117109920.926    21930923.855    91085498.054    21930923.680  
  21930916.660  
  23324468.234   122570899.390                    95509842.214    23324478.133  
                
  22704334.836   121367660.750    22704339.715    94397106.310    22704339.598  
  22704333.715  
  20614857.531   108331814.523                    84414437.968    20614864.227  
                
  22788103.164   119752308.452                                                  
                
  24054588.406   126407726.481    24054594.500    98499537.9354                 
                
  21104894.797   110906971.635    21104899.352    86421058.7614                 
                
  19553650.688   104378741.314    19553655.023    81183483.494    19553654.812  
  19553649.477  
  19464537.383   103976072.452    19464543.766    80870336.859    19464542.762  
  19464536.445  
  22715941.883   119373107.842                    93018074.743    22715951.184  
                
  20026901.125   107168004.719    20026906.312    83352945.151    20026905.820  
  20026899.844  
  20461909.094   107528055.511                    83788166.054    20461915.328  
                
  21342456.883   112155388.007                    87393849.788    21342466.082  
                
 21  8  6  0 34 50.0000000  0 14G 6R13G24R 5G14G22G21G19R22R12G 3R21
                                G17G 1
  23875064.750   125464307.397                    97764451.107    23875075.625  
                
  21924288.641   117074516.415    21924293.730    91057961.227    21924293.523  
  21924286.590  
  23322653.992   122561365.474                    95502413.201    23322663.930  
                
  22703123.875   121361187.572    22703128.980    94392071.632    22703128.848  
  22703122.863  
  20617810.891   108347334.484                    84426531.443    20617817.594  
                
  22787759.656   119750501.588                                                  
                
  24060514.461   126438868.136    24060520.516    98523804.1734                 
                
  21100592.453   110884362.681    21100596.977    86403441.4024                 
                
  19551106.875   104365162.244    19551111.191    81172921.992    19551111.000  
  19551105.648  
  19464798.188   103977465.610    19464804.566    80871420.424    19464803.562  
  19464797.254  
  22712166.844   119353269.982                    93002616.685    22712176.160  
                
  20031084.672   107190391.731    20031089.875    83370357.271    20031089.391  
  20031083.387  
  20461169.414   107524168.460                    83785137.185    20461175.648  
                
  21347351.570   112181109.712                    87413892.669    21347360.750  
                
 21  8  6  0 35  0.0000000  0 14G 6R13G24R 5G14G22G21G19R22R12G 3R21
                                G17G 1
  23867996.570   125427163.944                    97735508.164    23868007.445  
                
  21917667.555   117039160.154    21917672.660    91030461.916    21917672.465  
  21917665.531  
  23320852.141   122551896.739                    95495034.972    23320862.102  
                
  22701929.219   121354801.711    22701934.590    94387104.884    22701934.559  
  22701928.266  
  20620774.688   108362909.346                    84438667.703    20620781.414  
                
  22787427.906   119748759.319                                                  
                
  24066443.094   126470023.307    24066449.082    98548080.9234                 
                
  21096297.016   110861790.000    21096301.512    86385852.3064                 
                
  19548574.719   104351645.481    19548579.051    81162408.969    19548578.836  
  19548573.492  
  19465075.836   103978948.695    19465082.215    80872573.928    19465081.211  
  19465074.895  
  22708402.555   119333488.585                    92987202.643    22708411.891  
                
  20035276.953   107212825.461    20035282.160    83387805.726    20035281.684  
  20035275.656  
  20460436.781   107520318.513                    83782137.239    20460443.027  
                
  21352255.555   112206880.297                    87433973.637    21352264.730  
                
 21  8  6  0 35 10.0000000  0 14G 6R13G24R 5G14G22G21G19R22R12G 3R21
                                G17G 1
  23860931.805   125390038.372                    97706579.150    23860942.680  
                
  21911055.508   117003852.303    21911060.641    91003000.271    21911060.453  
  21911053.512  
  23319062.719   122542493.264                    95487707.604    23319072.703  
                
  22700751.016   121348503.258    22700756.562    94382206.044    22700756.520  
  22700750.047  
  20623748.938   108378539.059                    84450846.678    20623755.637  
                
  22787108.422   119747081.384                                                  
                
  24072374.289   126501191.879    24072380.203    98572368.0894                 
                
  21092008.469   110839253.629    21092012.953    86368291.5154                 
                
  19546054.203   104338190.777    19546058.527    81151944.198    19546058.320  
  19546052.973  
  19465370.281   103980521.597    19465376.668    80873797.295    19465375.660  
  19465369.328  
  22704649.031   119313763.735                    92971832.634    22704658.375  
                
  20039477.945   107235305.780    20039483.148    83405290.409    20039482.676  
  20039476.637  
  20459711.250   107516505.710                    83779166.205    20459717.473  
                
  21357168.812   112232699.599                    87454092.553    21357177.984  
                
 21  8  6  0 35 20.0000000  0 14G 6R13G24R 5G14G22G21G19R22R12G 3R21
                                G17G 1
  23853870.438   125352930.695                    97677664.093    23853881.320  
                
  21904452.609   116968593.231    21904457.758    90975576.563    21904457.559  
  21904450.617  
  23317285.727   122533155.048                    95480431.048    23317295.652  
                
  22699589.102   121342292.263    22699594.910    94377375.289    22699594.824  
  22699588.254  
  20626733.617   108394223.607                    84463068.390    20626740.328  
                
  22786801.016   119745467.847                                                  
                
  24078308.008   126532373.761    24078313.922    98596665.6664                 
                
  21087726.867   110816753.674    21087731.320    86350759.0854                 
                
  19543545.352   104324798.323    19543549.652    81141527.845    19543549.438  
  19543544.105  
  19465681.562   103982184.405    19465687.957    80875090.584    19465686.957  
  19465680.594  
  22700906.289   119294095.536                    92956506.784    22700915.652  
                
  20043687.617   107257832.526    20043692.832    83422811.190    20043692.367  
  20043686.285  
  20458992.742   107512730.020                    83776224.123    20458998.965  
                
  21362091.312   112258567.524                    87474249.391    21362100.512  
                
 21  8  6  0 35 30.0000000  0 14G 6R13G24R 5G14G22G21G19R22R12G 3R21
                                G17G 1
  23846812.477   125315840.997                    97648763.050    23846823.387  
                
  21897858.789   116933382.684    21897863.949    90948190.597    21897863.766  
  21897856.789  
  23315521.141   122523882.079                    95473205.340    23315531.012  
                
  22698443.539   121336168.685    22698449.543    94372612.552    22698449.434  
  22698442.754  
  20629728.711   108409962.914                    84475332.788    20629735.434  
                
  22786506.656   119743918.821                                                  
                
  24084244.305   126563569.049    24084250.211    98620973.6254                 
                
  21083452.188   110794290.069    21083456.617    86333254.9814                 
                
  19541048.109   104311467.963    19541052.414    81131159.795    19541052.188  
  19541046.867  
  19466009.664   103983936.987    19466016.059    80876453.698    19466015.055  
  19466008.676  
  22697174.328   119274484.019                    92941225.101    22697183.723  
                
  20047905.961   107280405.673    20047911.184    83440368.075    20047910.707  
  20047904.617  
  20458281.336   107508991.498                    83773310.989    20458287.539  
                
  21367023.055   112284483.948                    87494443.998    21367032.254  
                
 21  8  6  0 35 40.0000000  0 14G 6R13G24R 5G14G22G21G19R22R12G 3R21
                                G17G 1
  23839757.977   125278769.378                    97619876.090    23839768.879  
                
  21891274.148   116898221.169    21891279.340    90920842.779    21891279.195  
  21891272.137  
  23313768.969   122514674.422                    95466030.553    23313778.832  
                
  22697314.367   121330132.665    22697320.496    94367917.894    22697320.383  
  22697313.531  
  20632734.227   108425757.004                    84487639.870    20632740.961  
                
  22786224.086   119742434.221                                                  
                
  24090183.078   126594777.436    24090189.059    98645291.8484                 
                
  21079184.430   110771862.978    21079188.867    86315779.3474                 
                
  19538562.539   104298199.834    19538566.836    81120840.144    19538566.598  
  19538561.305  
  19466354.586   103985779.532    19466360.980    80877886.785    19466359.992  
  19466353.602  
  22693453.180   119254929.327                    92925987.691    22693462.594  
                
  20052132.938   107303025.089    20052138.168    83457960.944    20052137.695  
  20052131.578  
  20457576.977   107505290.120                    83770426.804    20457583.164  
                
  21371964.008   112310448.831                    87514676.366    21371973.230  
                
 21  8  6  0 35 50.0000000  0 14G 6R13G24R 5G14G22G21G19R22R12G 3R21
                                G17G 1
  23832706.953   125241715.933                    97591003.252    23832717.805  
                
  21884698.672   116863108.494    21884703.871    90893532.926    21884703.738  
  21884696.625  
  23312029.242   122505532.134                    95458906.711    23312039.109  
                
  22696201.609   121324184.353    22696207.855    94363291.403    22696207.730  
  22696200.699  
  20635750.172   108441605.860                    84499989.617    20635756.906  
                
  22785954.305   119741014.114                                                  
                
  24096124.336   126625998.967    24096130.375    98669620.3204                 
                
  21074923.656   110749472.465    21074928.086    86298332.1974                 
                
  19536088.594   104284993.797    19536092.875    81110568.794    19536092.633  
  19536087.363  
  19466716.383   103987712.102    19466722.758    80879389.884    19466721.773  
  19466715.398  
  22689742.859   119235431.583                    92910794.673    22689752.320  
                
  20056368.555   107325690.659    20056373.785    83475589.705    20056373.309  
  20056367.191  
  20456879.695   107501625.895                    83767571.569    20456885.875  
                
  21376914.172   112336462.051                    87534946.402    21376923.391  
                
 21  8  6  0 36  0.0000000  0 14G 6R13G24R 5G14G22G21G19R22R12G 3R21
                                G17G 1
  23825659.344   125204680.645                    97562144.612    23825670.199  
                
  21878132.430   116828045.124    21878137.617    90866261.401    21878137.508  
  21878130.379  
  23310301.969   122496455.235                    95451833.799    23310311.848  
                
  22695105.203   121318323.442    22695111.586    94358732.908    22695111.426  
  22695104.227  
  20638776.523   108457509.416                    84512381.985    20638783.258  
                
  22785696.117   119739658.475                                                  
                
  24102068.070   126657233.479    24102074.082    98693958.8844                 
                
  21070669.820   110727118.467    21070674.273    86280913.5094                 
                
  19533626.312   104271850.017    19533630.586    81100345.862    19533630.324  
  19533625.086  
  19467094.992   103989734.609    19467101.371    80880962.951    19467100.379  
  19467094.012  
  22686043.391   119215990.792                    92895646.018    22686052.859  
                
  20060612.781   107348402.324    20060618.012    83493254.320    20060617.527  
  20060611.434  
  20456189.477   107497998.779                    83764745.250    20456195.637  
                
  21381873.492   112362523.490                    87555254.024    21381882.715  
                
 21  8  6  0 36 10.0000000  0 14G 6R13G24R 5G14G22G21G19R22R12G 3R21
                                G17G 1
  23818615.242   125167663.696                    97533300.258    23818626.098  
                
  21871575.398   116793030.986    21871580.582    90839028.198    21871580.461  
  21871573.359  
  23308587.148   122487443.774                    95444811.879    23308597.039  
                
  22694025.242   121312550.356    22694031.707    94354242.714    22694031.570  
  22694024.285  
  20641813.281   108473467.681                    84524816.998    20641820.031  
                
  22785450.008   119738367.313                                                  
                
  24108014.281   126688480.986    24108020.254    98718307.5934                 
                
  21066422.961   110704801.071    21066427.441    86263523.3354                 
                
  19531175.680   104258768.401    19531179.953    81090171.280    19531179.691  
  19531174.445  
  19467490.453   103991847.055    19467496.820    80882605.956    19467495.832  
  19467489.465  
  22682354.789   119196607.123                    92880541.875    22682364.277  
                
  20064865.602   107371159.999    20064870.824    83510954.728    20064870.344  
  20064864.297  
  20455506.320   107494408.825                    83761947.890    20455512.477  
                
  21386841.992   112388633.062                    87575599.127    21386851.199  
                
 21  8  6  0 36 20.0000000  0 14G 6R13G24R 5G14G22G21G19R22R12G 3R21
                                G17G 1
  23811574.633   125130665.038                    97504470.156    23811585.473  
                
  21865027.633   116758066.318    21865032.793    90811833.471    21865032.668  
  21865025.625  
  23306884.750   122478497.661                    95437840.900    23306894.672  
                
  22692961.664   121306864.902    22692968.203    94349820.705    22692968.082  
  22692960.719  
  20644860.430   108489480.534                    84537294.536    20644867.176  
                
  22785216.781   119737140.568                                                  
                
  24113962.945   126719741.380    24113968.883    98742666.3494                 
                
  21062183.062   110682520.290    21062187.562    86246161.6984                 
                
  19528736.711   104245749.049    19528740.992    81080045.125    19528740.762  
  19528735.496  
  19467902.727   103994049.320    19467909.086    80884318.826    19467908.098  
  19467901.746  
  22678677.062   119177280.585                    92865482.247    22678686.570  
                
  20069126.977   107393963.449    20069132.195    83528690.743    20069131.715  
  20069125.715  
  20454830.234   107490855.970                    83759179.435    20454836.379  
                
  21391819.594   112414790.610                    87595981.647    21391828.824  
                
 21  8  6  0 36 30.0000000  0 14G 6R13G24R 5G14G22G21G19R22R12G 3R21
                                G17G 1
  23804537.500   125093684.747                    97475654.362    23804548.328  
                
  21858489.141   116723151.227    21858494.297    90784677.296    21858494.141  
  21858487.141  
  23305194.797   122469616.979                    95430920.905    23305204.746  
                
  22691914.469   121301266.992    22691921.039    94345466.760    22691920.922  
  22691913.520  
  20647917.977   108505547.976                    84549814.607    20647924.715  
                
  22784995.242   119735978.368                                                  
                
  24119914.070   126751014.683    24119919.852    98767035.1034                 
                
  21057950.109   110660276.012    21057954.629    86228828.4994                 
                
  19526309.359   104232791.732    19526313.664    81069967.221    19526313.434  
